timestamp,TimeUS,DesRoll,Roll,DesPitch,Pitch,DesYaw,Yaw,ErrRP,ErrYaw
1630870913.20000005,51628507,0.0,0.08,0.0,0.07,352.89,352.9,0.0,0.0
1630870913.29996014,51728467,0.0,0.08,0.0,0.07,352.89,352.9,0.0,0.0
1630870913.39992023,51828427,0.0,0.08,0.0,0.07,352.89,352.9,0.0,0.0
1630870913.49988008,51928387,0.0,0.08,0.0,0.07,352.89,352.9,0.0,0.0
1630870913.59984016,52028347,0.0,0.08,0.0,0.07,352.89,352.9,0.0,0.0
1630870913.69980025,52128307,0.0,0.08,0.0,0.07,352.89,352.9,0.0,0.0
1630870913.79976010,52228267,0.0,0.09,0.0,0.07,352.89,352.9,0.0,0.0
1630870913.89972019,52328227,0.0,0.08,0.0,0.07,352.89,352.9,0.0,0.0
1630870913.99968004,52428187,0.0,0.08,0.0,0.07,352.89,352.9,0.0,0.0
1630870914.10047317,52528980,0.0,0.08,0.0,0.07,352.89,352.9,0.0,0.0
1630870914.20043325,52628940,0.0,0.09,0.0,0.07,352.89,352.9,0.0,0.0
1630870914.30039310,52728900,0.0,0.09,0.0,0.07,352.89,352.9,0.0,0.0
1630870914.40035319,52828860,0.0,0.09,0.0,0.07,352.89,352.9,0.0,0.0
1630870914.50031304,52928820,0.0,0.09,0.0,0.07,352.89,352.9,0.0,0.0
1630870914.60027313,53028780,0.0,0.09,0.0,0.07,352.89,352.9,0.0,0.0
1630870914.70023322,53128740,0.0,0.09,0.0,0.07,352.89,352.9,0.0,0.0
1630870914.80019307,53228700,0.0,0.09,0.0,0.07,352.9,352.91,0.0,0.0
1630870914.90015316,53328660,0.0,0.09,0.0,0.07,352.9,352.91,0.0,0.0
1630870915.00011325,53428620,0.0,0.09,0.0,0.07,352.9,352.91,0.0,0.0
1630870915.10007310,53528580,0.0,0.09,0.0,0.07,352.9,352.91,0.0,0.0
1630870915.20003319,53628540,0.0,0.09,0.0,0.08,352.9,352.91,0.0,0.0
1630870915.29999304,53728500,0.0,0.09,0.0,0.08,352.9,352.91,0.0,0.0
1630870915.39995313,53828460,0.0,0.09,0.0,0.08,352.9,352.91,0.0,0.0
1630870915.49991322,53928420,0.0,0.09,0.0,0.08,352.9,352.91,0.0,0.0
1630870915.59987307,54028380,0.0,0.09,0.0,0.08,352.9,352.91,0.0,0.0
1630870915.69983315,54128340,0.0,0.09,0.0,0.08,352.9,352.91,0.0,0.0
1630870915.79979324,54228300,0.0,0.09,0.0,0.08,352.9,352.91,0.0,0.0
1630870915.89975309,54328260,0.0,0.09,0.0,0.08,352.9,352.91,0.0,0.0
1630870915.99971318,54428220,0.0,0.09,0.0,0.08,352.9,352.91,0.0,0.0
1630870916.09967303,54528180,0.0,0.09,0.0,0.08,352.9,352.91,0.0,0.0
1630870916.20046616,54628973,-0.01,0.09,-0.02,0.08,352.9,352.91,0.0,0.0
1630870916.30042624,54728933,-0.11,0.09,-0.12,0.08,352.9,352.91,0.0,0.0
1630870916.40038610,54828893,-0.16,0.09,-0.18,0.08,352.9,352.91,0.0,0.0
1630870916.50034618,54928853,-0.2,0.09,-0.22,0.08,352.9,352.91,0.0,0.0
1630870916.60030603,55028813,-0.23,0.09,-0.25,0.08,352.9,352.91,0.0,0.0
1630870916.70026612,55128773,-0.26,0.09,-0.27,0.08,352.9,352.91,0.0,0.0
1630870916.80022621,55228733,-0.28,0.09,-0.29,0.08,352.9,352.92,0.0,0.0
1630870916.90018606,55328693,-0.29,0.09,-0.3,0.08,352.9,352.92,0.0,0.0
1630870917.00014615,55428653,-0.3,0.09,-0.31,0.08,352.9,352.92,0.0,0.0
1630870917.10010624,55528613,-0.31,0.09,-0.35,0.08,352.9,352.92,0.0,0.0
1630870917.20006609,55628573,-0.33,0.09,-0.37,0.08,352.9,352.92,0.0,0.0
1630870917.30002618,55728533,-0.36,0.09,-0.38,0.08,352.9,352.92,0.0,0.0
1630870917.39998627,55828493,-0.39,0.09,-0.39,0.08,352.9,352.92,0.0,0.0
1630870917.49994612,55928453,-0.38,0.09,-0.4,0.08,352.9,352.92,0.0,0.0
1630870917.59990621,56028413,-0.4,0.09,-0.42,0.08,352.9,352.92,0.0,0.0
1630870917.69986606,56128373,-0.42,0.09,-0.43,0.08,352.9,352.92,0.0,0.0
1630870917.79982615,56228333,-0.44,0.04,-0.47,0.02,352.9,352.92,0.0,0.0
1630870917.89978623,56328293,-0.46,-0.23,-0.48,-0.26,352.9,352.92,0.0,0.0
1630870917.99974608,56428253,-0.45,-0.56,-0.43,-0.56,352.9,352.92,0.0,0.0
1630870918.09970617,56528213,-0.35,-0.74,-0.33,-0.72,352.9,352.92,0.0,0.0
1630870918.19966626,56628173,-0.17,-0.72,-0.17,-0.71,352.9,352.92,0.0,0.0
1630870918.30045915,56728966,0.04,-0.54,0.0,-0.55,352.9,352.91,0.0,0.0
1630870918.40041924,56828926,0.25,-0.28,0.2,-0.33,352.9,352.91,0.0,0.0
1630870918.50037909,56928886,0.38,-0.03,0.36,-0.08,352.9,352.91,0.0,0.0
1630870918.60033917,57028846,0.46,0.14,0.45,0.11,352.9,352.91,0.0,0.0
1630870918.70029926,57128806,0.45,0.23,0.5,0.24,352.9,352.91,0.0,0.0
1630870918.80025911,57228766,0.43,0.24,0.48,0.28,352.9,352.91,0.0,0.0
1630870918.90021920,57328726,0.4,0.22,0.47,0.29,352.9,352.9,0.0,0.0
1630870919.00017905,57428686,0.37,0.18,0.47,0.28,352.9,352.9,0.0,0.0
1630870919.10013914,57528646,0.34,0.15,0.47,0.28,352.9,352.9,0.0,0.0
1630870919.20009923,57628606,0.35,0.13,0.45,0.27,352.9,352.9,0.0,0.0
1630870919.30005908,57728566,0.4,0.16,0.47,0.28,352.9,352.9,0.0,0.0
1630870919.40001917,57828526,0.43,0.21,0.49,0.29,352.9,352.9,0.0,0.0
1630870919.49997926,57928486,0.44,0.26,0.48,0.32,352.74,352.74,0.0,0.0
1630870919.59993911,58028446,0.42,0.29,0.46,0.32,352.74,352.74,0.0,0.0
1630870919.69989920,58128406,0.37,0.27,0.42,0.3,352.74,352.74,0.0,0.0
1630870919.79985905,58228366,0.33,0.23,0.38,0.27,352.74,352.74,0.0,0.0
1630870919.89981914,58328326,0.28,0.19,0.36,0.25,352.74,352.75,0.0,0.0
1630870919.99977922,58428286,0.26,0.17,0.34,0.23,352.74,352.75,0.0,0.0
1630870920.09973907,58528246,0.24,0.15,0.32,0.22,352.74,352.75,0.0,0.0
1630870920.19969916,58628206,0.22,0.13,0.29,0.21,352.74,352.75,0.0,0.0
1630870920.29965925,58728166,0.21,0.12,0.29,0.21,352.74,352.75,0.0,0.0
1630870920.40045214,58828959,0.18,0.11,0.26,0.2,352.74,352.75,0.0,0.0
1630870920.50041223,58928919,0.18,0.11,0.21,0.17,352.74,352.75,0.0,0.0
1630870920.60037208,59028879,0.19,0.13,0.15,0.11,352.74,352.75,0.0,0.0
1630870920.70033216,59128839,0.2,0.15,0.11,0.07,352.74,352.75,0.0,0.0
1630870920.80029225,59228799,0.19,0.15,0.09,0.03,352.74,352.75,0.0,0.0
1630870920.90025210,59328759,0.19,0.15,0.1,0.03,352.74,352.75,0.0,0.0
1630870921.00021219,59428719,0.19,0.15,0.11,0.04,352.74,352.75,0.0,0.0
1630870921.10017204,59528679,0.16,0.14,0.1,0.06,352.74,352.75,0.0,0.0
1630870921.20013213,59628639,0.15,0.13,0.08,0.05,352.74,352.75,0.0,0.0
1630870921.30009222,59728599,0.1,0.11,0.06,0.03,352.74,352.75,0.0,0.0
1630870921.40005207,59828559,0.07,0.06,0.05,0.02,352.74,352.75,0.0,0.0
1630870921.50001216,59928519,0.07,0.03,0.03,0.01,352.74,352.75,0.0,0.0
1630870921.59997225,60028479,0.09,0.03,0.02,0.0,352.74,352.75,0.0,0.0
1630870921.69993210,60128439,0.08,0.04,0.0,-0.02,352.74,352.75,0.0,0.0
1630870921.79989219,60228399,0.08,0.05,0.01,-0.02,352.74,352.75,0.0,0.0
1630870921.89985204,60328359,0.08,0.05,0.04,0.0,352.74,352.75,0.0,0.0
1630870921.99981213,60428319,0.08,0.06,0.06,0.02,352.74,352.75,0.0,0.0
1630870922.09977221,60528279,0.08,0.07,0.06,0.04,352.74,352.75,0.0,0.0
1630870922.19973207,60628239,0.08,0.07,0.04,0.05,352.74,352.75,0.0,0.0
1630870922.29969215,60728199,0.1,0.09,0.02,0.02,352.74,352.75,0.0,0.0
1630870922.39965224,60828159,0.14,0.12,0.03,0.02,352.74,352.75,0.0,0.0
1630870922.50044513,60928952,0.13,0.15,0.01,0.02,352.74,352.75,0.0,0.0
1630870922.60040522,61028912,0.1,0.14,0.0,0.0,352.74,352.75,0.0,0.0
1630870922.70036507,61128872,0.08,0.1,0.01,0.0,352.74,352.75,0.0,0.0
1630870922.80032516,61228832,0.09,0.08,0.03,0.01,352.74,352.75,0.0,0.0
1630870922.90028524,61328792,0.13,0.09,0.05,0.03,352.74,352.75,0.0,0.0
1630870923.00024509,61428752,0.15,0.12,0.07,0.05,352.74,352.75,0.0,0.0
1630870923.10020518,61528712,0.15,0.15,0.08,0.08,352.74,352.75,0.0,0.0
1630870923.20016503,61628672,0.15,0.15,0.09,0.09,352.74,352.75,0.0,0.0
1630870923.30012512,61728632,0.16,0.16,0.11,0.1,352.74,352.75,0.0,0.0
1630870923.40008521,61828592,0.16,0.15,0.15,0.13,352.74,352.75,0.0,0.0
1630870923.50004506,61928552,0.17,0.16,0.14,0.15,352.74,352.75,0.0,0.0
1630870923.60000515,62028512,0.17,0.16,0.09,0.12,352.74,352.75,0.0,0.0
1630870923.69996524,62128472,0.14,0.15,0.08,0.09,352.74,352.75,0.0,0.0
1630870923.79992509,62228432,0.15,0.13,0.09,0.08,352.74,352.75,0.0,0.0
1630870923.89988518,62328392,0.19,0.15,0.12,0.1,352.74,352.75,0.0,0.0
1630870923.99984527,62428352,0.21,0.18,0.15,0.13,352.74,352.76,0.0,0.0
1630870924.09980512,62528312,0.21,0.2,0.17,0.16,352.74,352.75,0.0,0.0
1630870924.19976521,62628272,0.18,0.19,0.15,0.16,352.74,352.75,0.0,0.0
1630870924.29972506,62728232,0.14,0.15,0.13,0.14,352.74,352.75,0.0,0.0
1630870924.39968514,62828192,0.12,0.12,0.12,0.12,352.74,352.75,0.0,0.0
1630870924.50047827,62928985,0.12,0.11,0.12,0.11,352.74,352.75,0.0,0.0
1630870924.60043812,63028945,0.12,0.11,0.13,0.11,352.74,352.75,0.0,0.0
1630870924.70039821,63128905,0.1,0.1,0.14,0.12,352.74,352.75,0.0,0.0
1630870924.80035806,63228865,0.09,0.09,0.15,0.12,352.74,352.75,0.0,0.0
1630870924.90031815,63328825,0.07,0.08,0.19,0.15,352.74,352.75,0.0,0.0
1630870925.00027823,63428785,0.08,0.07,0.24,0.19,352.74,352.75,0.0,0.0
1630870925.10023808,63528745,0.1,0.07,0.24,0.22,352.74,352.75,0.0,0.0
1630870925.20019817,63628705,0.12,0.09,0.23,0.24,352.74,352.75,0.0,0.0
1630870925.30015826,63728665,0.14,0.13,0.23,0.24,352.74,352.75,0.0,0.0
1630870925.40011811,63828625,0.15,0.14,0.21,0.23,352.74,352.75,0.0,0.0
1630870925.50007820,63928585,0.14,0.15,0.18,0.21,352.74,352.75,0.0,0.0
1630870925.60003805,64028545,0.13,0.14,0.16,0.17,352.74,352.75,0.0,0.0
1630870925.69999814,64128505,0.11,0.13,0.16,0.15,352.74,352.75,0.0,0.0
1630870925.79995823,64228465,0.09,0.1,0.15,0.15,352.74,352.76,0.0,0.0
1630870925.89991808,64328425,0.08,0.08,0.12,0.13,352.74,352.76,0.0,0.0
1630870925.99987817,64428385,0.09,0.07,0.1,0.11,352.74,352.76,0.0,0.0
1630870926.09983826,64528345,0.09,0.07,0.09,0.09,352.74,352.75,0.0,0.0
1630870926.19979811,64628305,0.12,0.08,0.08,0.07,352.74,352.75,0.0,0.0
1630870926.29975820,64728265,0.14,0.12,0.07,0.06,352.74,352.75,0.0,0.0
1630870926.39971805,64828225,0.13,0.13,0.06,0.05,352.74,352.75,0.0,0.0
1630870926.49967813,64928185,0.14,0.14,0.05,0.04,352.74,352.75,0.0,0.0
1630870926.60047126,65028978,0.14,0.15,0.06,0.04,352.74,352.75,0.0,0.0
1630870926.70043111,65128938,0.13,0.14,0.07,0.05,352.74,352.75,0.0,0.0
1630870926.80039120,65228898,0.15,0.15,0.08,0.07,352.74,352.74,0.0,0.0
1630870926.90035105,65328858,0.13,0.14,0.1,0.08,352.74,352.74,0.0,0.0
1630870927.00031114,65428818,0.07,0.09,0.13,0.1,352.74,352.74,0.0,0.0
1630870927.10027122,65528778,0.04,0.04,0.15,0.13,352.74,352.74,0.0,0.0
1630870927.20023108,65628738,0.04,0.0,0.14,0.15,352.74,352.74,0.0,0.0
1630870927.30019116,65728698,0.06,0.0,0.09,0.13,352.74,352.74,0.0,0.0
1630870927.40015125,65828658,0.07,0.01,0.07,0.09,352.74,352.74,0.0,0.0
1630870927.50011110,65928618,0.08,0.03,0.04,0.06,352.74,352.74,0.0,0.0
1630870927.60007119,66028578,0.1,0.06,0.01,0.02,352.74,352.74,0.0,0.0
1630870927.70003104,66128538,0.09,0.09,-0.01,-0.01,352.74,352.74,0.0,0.0
1630870927.79999113,66228498,0.07,0.09,-0.01,-0.04,352.74,352.75,0.0,0.0
1630870927.89995122,66328458,0.05,0.07,0.01,-0.03,352.74,352.75,0.0,0.0
1630870927.99991107,66428418,0.06,0.06,0.04,0.0,352.74,352.75,0.0,0.0
1630870928.09987116,66528378,0.05,0.05,0.06,0.04,352.74,352.75,0.0,0.0
1630870928.19983125,66628338,0.05,0.04,0.07,0.06,352.74,352.75,0.0,0.0
1630870928.29979110,66728298,0.05,0.04,0.07,0.07,352.74,352.75,0.0,0.0
1630870928.39975119,66828258,0.06,0.04,0.06,0.07,352.74,352.75,0.0,0.0
1630870928.49971104,66928218,0.07,0.05,0.03,0.06,352.74,352.75,0.0,0.0
1630870928.59967113,67028178,0.06,0.05,0.0,0.03,352.74,352.75,0.0,0.0
1630870928.70046425,67128971,0.05,0.05,0.0,0.0,352.74,352.75,0.0,0.0
1630870928.80042410,67228931,0.06,0.04,0.03,0.0,352.74,352.75,0.0,0.0
1630870928.90038419,67328891,0.12,0.07,0.07,0.03,352.74,352.74,0.0,0.0
1630870929.00034404,67428851,0.16,0.12,0.1,0.06,352.74,352.74,0.0,0.0
1630870929.10030413,67528811,0.19,0.17,0.11,0.09,352.74,352.74,0.0,0.0
1630870929.20026422,67628771,0.17,0.18,0.13,0.1,352.74,352.74,0.0,0.0
1630870929.30022407,67728731,0.16,0.18,0.15,0.13,352.74,352.74,0.0,0.0
1630870929.40018415,67828691,0.16,0.17,0.15,0.16,352.74,352.75,0.0,0.0
1630870929.50014424,67928651,0.13,0.15,0.13,0.15,352.74,352.74,0.0,0.0
1630870929.60010409,68028611,0.11,0.12,0.15,0.15,352.74,352.74,0.0,0.0
1630870929.70006418,68128571,0.07,0.08,0.15,0.15,352.74,352.74,0.0,0.0
1630870929.80002403,68228531,0.07,0.06,0.15,0.15,352.74,352.74,0.0,0.0
1630870929.89998412,68328491,0.11,0.07,0.17,0.16,352.74,352.74,0.0,0.0
1630870929.99994421,68428451,0.15,0.11,0.16,0.16,352.74,352.74,0.0,0.0
1630870930.09990406,68528411,0.17,0.15,0.16,0.16,352.74,352.74,0.0,0.0
1630870930.19986415,68628371,0.16,0.17,0.16,0.17,352.74,352.74,0.0,0.0
1630870930.29982424,68728331,0.14,0.17,0.13,0.15,352.74,352.74,0.0,0.0
1630870930.39978409,68828291,0.1,0.13,0.09,0.12,352.74,352.74,0.0,0.0
1630870930.49974418,68928251,0.11,0.1,0.08,0.08,352.74,352.74,0.0,0.0
1630870930.59970427,69028211,0.12,0.1,0.11,0.07,352.74,352.74,0.0,0.0
1630870930.69966412,69128171,0.14,0.11,0.12,0.09,352.74,352.75,0.0,0.0
1630870930.80045724,69228964,0.16,0.13,0.14,0.11,352.74,352.75,0.0,0.0
1630870930.90041709,69328924,0.17,0.16,0.17,0.15,352.74,352.75,0.0,0.0
1630870931.00037718,69428884,0.14,0.15,0.18,0.17,352.74,352.75,0.0,0.0
1630870931.10033727,69528844,0.12,0.13,0.17,0.17,352.74,352.75,0.0,0.0
1630870931.20029712,69628804,0.14,0.13,0.16,0.16,352.74,352.75,0.0,0.0
1630870931.30025721,69728764,0.17,0.15,0.14,0.14,352.74,352.75,0.0,0.0
1630870931.40021706,69828724,0.17,0.16,0.13,0.12,352.74,352.75,0.0,0.0
1630870931.50017715,69928684,0.15,0.16,0.16,0.13,352.74,352.74,0.0,0.0
1630870931.60013723,70028644,0.11,0.14,0.17,0.15,352.74,352.74,0.0,0.0
1630870931.70009708,70128604,0.1,0.12,0.13,0.15,352.74,352.74,0.0,0.0
1630870931.80005717,70228564,0.12,0.1,0.1,0.13,352.74,352.74,0.0,0.0
1630870931.90001726,70328524,0.17,0.12,0.08,0.11,352.74,352.74,0.0,0.0
1630870931.99997711,70428484,0.18,0.16,0.06,0.08,352.74,352.74,0.0,0.0
1630870932.09993720,70528444,0.17,0.17,0.06,0.06,352.74,352.75,0.0,0.0
1630870932.19989705,70628404,0.15,0.16,0.07,0.06,352.74,352.75,0.0,0.0
1630870932.29985714,70728364,0.12,0.13,0.06,0.05,352.74,352.75,0.0,0.0
1630870932.39981723,70828324,0.1,0.11,0.04,0.03,352.74,352.75,0.0,0.0
1630870932.49977708,70928284,0.09,0.09,0.06,0.04,352.74,352.75,0.0,0.0
1630870932.59973717,71028244,0.09,0.08,0.08,0.05,352.74,352.75,0.0,0.0
1630870932.69969726,71128204,0.06,0.06,0.12,0.08,352.74,352.75,0.0,0.0
1630870932.79965711,71228164,0.04,0.03,0.12,0.1,352.74,352.75,0.0,0.0
1630870932.90045023,71328957,0.05,0.02,0.1,0.09,352.74,352.75,0.0,0.0
1630870933.00041008,71428917,0.07,0.04,0.08,0.08,352.74,352.75,0.0,0.0
1630870933.10037017,71528877,0.11,0.07,0.06,0.06,352.74,352.75,0.0,0.0
1630870933.20033026,71628837,0.12,0.1,0.06,0.05,352.74,352.75,0.0,0.0
1630870933.30029011,71728797,0.14,0.13,0.07,0.05,352.74,352.75,0.0,0.0
1630870933.40025020,71828757,0.16,0.16,0.09,0.07,352.74,352.75,0.0,0.0
1630870933.50021005,71928717,0.13,0.15,0.1,0.1,352.74,352.75,0.0,0.0
1630870933.60017014,72028677,0.08,0.11,0.06,0.09,352.74,352.75,0.0,0.0
1630870933.70013022,72128637,0.05,0.06,0.03,0.05,352.74,352.74,0.0,0.0
1630870933.80009007,72228597,0.04,0.03,0.03,0.02,352.74,352.74,0.0,0.0
1630870933.90005016,72328557,0.05,0.02,0.03,0.01,352.74,352.74,0.0,0.0
1630870934.00001025,72428517,0.08,0.04,0.04,0.01,352.74,352.74,0.0,0.0
1630870934.09997010,72528477,0.1,0.07,0.06,0.04,352.74,352.74,0.0,0.0
1630870934.19993019,72628437,0.09,0.08,0.07,0.06,352.74,352.74,0.0,0.0
1630870934.29989004,72728397,0.04,0.07,0.12,0.08,352.74,352.74,0.0,0.0
1630870934.39985013,72828357,0.0,0.01,0.15,0.13,352.74,352.74,0.0,0.0
1630870934.49981022,72928317,-0.02,-0.04,0.14,0.16,352.74,352.74,0.0,0.0
1630870934.59977007,73028277,0.02,-0.03,0.12,0.15,352.74,352.75,0.0,0.0
1630870934.69973016,73128237,0.06,0.0,0.11,0.14,352.74,352.75,0.0,0.0
1630870934.79969025,73228197,0.08,0.03,0.09,0.12,352.74,352.75,0.0,0.0
1630870934.89965010,73328157,0.1,0.08,0.07,0.09,352.74,352.75,0.0,0.0
1630870935.00044322,73428950,0.13,0.11,0.09,0.07,352.74,352.75,0.0,0.0
1630870935.10040307,73528910,0.14,0.14,0.11,0.09,352.74,352.75,0.0,0.0
1630870935.20036316,73628870,0.14,0.14,0.11,0.1,352.74,352.75,0.0,0.0
1630870935.30032325,73728830,0.17,0.16,0.08,0.09,352.74,352.75,0.0,0.0
1630870935.40028310,73828790,0.19,0.19,0.06,0.06,352.74,352.75,0.0,0.0
1630870935.50024319,73928750,0.18,0.2,0.07,0.05,352.74,352.75,0.0,0.0
1630870935.60020304,74028710,0.15,0.17,0.08,0.07,352.74,352.75,0.0,0.0
1630870935.70016313,74128670,0.16,0.15,0.11,0.08,352.74,352.75,0.0,0.0
1630870935.80012321,74228630,0.18,0.16,0.15,0.11,352.74,352.75,0.0,0.0
1630870935.90008307,74328590,0.19,0.17,0.14,0.13,352.74,352.75,0.0,0.0
1630870936.00004315,74428550,0.19,0.17,0.12,0.13,352.74,352.75,0.0,0.0
1630870936.10000324,74528510,0.19,0.18,0.09,0.11,352.74,352.75,0.0,0.0
1630870936.19996309,74628470,0.18,0.18,0.04,0.07,352.74,352.75,0.0,0.0
1630870936.29992318,74728430,0.19,0.19,0.02,0.03,352.74,352.75,0.0,0.0
1630870936.39988303,74828390,0.19,0.19,0.01,0.01,352.74,352.75,0.0,0.0
1630870936.49984312,74928350,0.15,0.18,0.0,0.0,352.74,352.75,0.0,0.0
1630870936.59980321,75028310,0.1,0.12,0.02,0.0,352.74,352.74,0.0,0.0
1630870936.69976306,75128270,0.1,0.1,0.04,0.01,352.74,352.74,0.0,0.0
1630870936.79972315,75228230,0.13,0.11,0.03,0.02,352.74,352.74,0.0,0.0
1630870936.89968324,75328190,0.15,0.13,0.05,0.03,352.74,352.74,0.0,0.0
1630870937.00047612,75428983,0.18,0.16,0.07,0.05,352.74,352.74,0.0,0.0
1630870937.10043621,75528943,0.21,0.2,0.07,0.07,352.74,352.74,0.0,0.0
1630870937.20039606,75628903,0.2,0.22,0.03,0.05,352.74,352.74,0.0,0.0
1630870937.30035615,75728863,0.15,0.19,0.03,0.03,352.74,352.74,0.0,0.0
1630870937.40031624,75828823,0.12,0.14,0.05,0.03,352.74,352.74,0.0,0.0
1630870937.50027609,75928783,0.14,0.12,0.06,0.04,352.74,352.75,0.0,0.0
1630870937.60023618,76028743,0.17,0.13,0.07,0.04,352.74,352.75,0.0,0.0
1630870937.70019627,76128703,0.17,0.15,0.09,0.06,352.74,352.75,0.0,0.0
1630870937.80015612,76228663,0.18,0.15,0.11,0.09,352.74,352.75,0.0,0.0
1630870937.90011621,76328623,0.2,0.18,0.1,0.1,352.74,352.75,0.0,0.0
1630870938.00007606,76428583,0.23,0.22,0.09,0.08,352.74,352.75,0.0,0.0
1630870938.10003614,76528543,0.23,0.24,0.12,0.1,352.74,352.75,0.0,0.0
1630870938.19999623,76628503,0.23,0.25,0.14,0.12,352.74,352.75,0.0,0.0
1630870938.29995608,76728463,0.2,0.23,0.14,0.14,352.74,352.75,0.0,0.0
1630870938.39991617,76828423,0.16,0.18,0.14,0.14,352.74,352.75,0.0,0.0
1630870938.49987626,76928383,0.12,0.14,0.16,0.15,352.74,352.75,0.0,0.0
1630870938.59983611,77028343,0.11,0.09,0.14,0.16,352.74,352.75,0.0,0.0
1630870938.69979620,77128303,0.14,0.09,0.13,0.15,352.74,352.75,0.0,0.0
1630870938.79975605,77228263,0.19,0.13,0.15,0.15,352.74,352.75,0.0,0.0
1630870938.89971614,77328223,0.23,0.19,0.14,0.16,352.74,352.75,0.0,0.0
1630870938.99967623,77428183,0.22,0.22,0.12,0.13,352.74,352.75,0.0,0.0
1630870939.10046911,77528976,0.18,0.2,0.12,0.12,352.74,352.75,0.0,0.0
1630870939.20042920,77628936,0.14,0.17,0.12,0.11,352.74,352.75,0.0,0.0
1630870939.30038905,77728896,0.13,0.13,0.09,0.09,352.74,352.75,0.0,0.0
1630870939.40034914,77828856,0.15,0.13,0.09,0.07,352.74,352.75,0.0,0.0
1630870939.50030923,77928816,0.16,0.14,0.13,0.09,352.74,352.75,0.0,0.0
1630870939.60026908,78028776,0.18,0.16,0.16,0.13,352.74,352.75,0.0,0.0
1630870939.70022917,78128736,0.18,0.17,0.13,0.14,352.74,352.75,0.0,0.0
1630870939.80018926,78228696,0.16,0.17,0.06,0.1,352.74,352.75,0.0,0.0
1630870939.90014911,78328656,0.13,0.15,0.01,0.03,352.74,352.75,0.0,0.0
1630870940.00010920,78428616,0.11,0.12,0.03,0.0,352.74,352.75,0.0,0.0
1630870940.10006905,78528576,0.1,0.1,0.09,0.03,352.74,352.75,0.0,0.0
1630870940.20002913,78628536,0.1,0.08,0.14,0.09,352.74,352.75,0.0,0.0
1630870940.29998922,78728496,0.08,0.07,0.17,0.14,352.74,352.75,0.0,0.0
1630870940.39994907,78828456,0.06,0.05,0.17,0.17,352.74,352.75,0.0,0.0
1630870940.49990916,78928416,0.07,0.05,0.15,0.17,352.74,352.75,0.0,0.0
1630870940.59986925,79028376,0.06,0.05,0.14,0.14,352.74,352.74,0.0,0.0
1630870940.69982910,79128336,0.08,0.06,0.12,0.12,352.74,352.74,0.0,0.0
1630870940.79978919,79228296,0.1,0.08,0.1,0.1,352.74,352.74,0.0,0.0
1630870940.89974904,79328256,0.07,0.08,0.1,0.08,352.74,352.74,0.0,0.0
1630870940.99970913,79428216,0.05,0.05,0.13,0.1,352.74,352.74,0.0,0.0
1630870941.09966922,79528176,0.05,0.03,0.17,0.14,352.74,352.74,0.0,0.0
1630870941.20046210,79628969,0.07,0.05,0.18,0.17,352.74,352.74,0.0,0.0
1630870941.30042219,79728929,0.1,0.08,0.18,0.18,352.74,352.74,0.0,0.0
1630870941.40038204,79828889,0.11,0.11,0.16,0.18,352.74,352.74,0.0,0.0
1630870941.50034213,79928849,0.07,0.1,0.13,0.17,352.74,352.74,0.0,0.0
1630870941.60030222,80028809,0.03,0.05,0.1,0.12,352.74,352.74,0.0,0.0
1630870941.70026207,80128769,0.01,0.02,0.09,0.09,352.74,352.74,0.0,0.0
1630870941.80022216,80228729,0.04,0.01,0.1,0.07,352.74,352.74,0.0,0.0
1630870941.90018225,80328689,0.07,0.02,0.13,0.08,352.74,352.74,0.0,0.0
1630870942.00014210,80428649,0.09,0.05,0.14,0.11,352.74,352.74,0.0,0.0
1630870942.10010219,80528609,0.12,0.09,0.12,0.11,352.74,352.74,0.0,0.0
1630870942.20006204,80628569,0.14,0.12,0.12,0.11,352.74,352.74,0.0,0.0
1630870942.30002213,80728529,0.16,0.15,0.14,0.12,352.74,352.74,0.0,0.0
1630870942.39998221,80828489,0.16,0.16,0.15,0.13,352.74,352.74,0.0,0.0
1630870942.49994206,80928449,0.15,0.16,0.15,0.15,352.74,352.74,0.0,0.0
1630870942.59990215,81028409,0.14,0.15,0.16,0.15,352.74,352.75,0.0,0.0
1630870942.69986224,81128369,0.14,0.15,0.14,0.15,352.74,352.75,0.0,0.0
1630870942.79982209,81228329,0.14,0.14,0.11,0.13,352.74,352.75,0.0,0.0
1630870942.89978218,81328289,0.13,0.14,0.08,0.1,352.74,352.75,0.0,0.0
1630870942.99974203,81428249,0.14,0.14,0.07,0.07,352.74,352.75,0.0,0.0
1630870943.09970212,81528209,0.16,0.14,0.09,0.07,352.74,352.75,0.0,0.0
1630870943.19966221,81628169,0.17,0.15,0.1,0.08,352.74,352.75,0.0,0.0
1630870943.30045509,81728962,0.18,0.16,0.13,0.11,352.74,352.75,0.0,0.0
1630870943.40041518,81828922,0.19,0.17,0.17,0.15,352.74,352.75,0.0,0.0
1630870943.50037503,81928882,0.18,0.17,0.2,0.19,352.74,352.75,0.0,0.0
1630870943.60033512,82028842,0.19,0.17,0.2,0.22,352.74,352.75,0.0,0.0
1630870943.70029521,82128802,0.16,0.16,0.18,0.22,352.74,352.75,0.0,0.0
1630870943.80025506,82228762,0.1,0.12,0.13,0.18,352.74,352.74,0.0,0.0
1630870943.90021515,82328722,0.1,0.08,0.09,0.12,352.74,352.74,0.0,0.0
1630870944.00017524,82428682,0.1,0.07,0.09,0.08,352.74,352.74,0.0,0.0
1630870944.10013509,82528642,0.11,0.07,0.13,0.1,352.74,352.74,0.0,0.0
1630870944.20009518,82628602,0.14,0.09,0.15,0.11,352.74,352.74,0.0,0.0
1630870944.30005527,82728562,0.16,0.13,0.16,0.14,352.74,352.74,0.0,0.0
1630870944.40001512,82828522,0.17,0.16,0.14,0.14,352.74,352.74,0.0,0.0
1630870944.49997520,82928482,0.18,0.19,0.11,0.12,352.74,352.74,0.0,0.0
1630870944.59993505,83028442,0.17,0.19,0.1,0.1,352.74,352.74,0.0,0.0
1630870944.69989514,83128402,0.12,0.16,0.09,0.08,352.74,352.74,0.0,0.0
1630870944.79985523,83228362,0.08,0.11,0.1,0.08,352.74,352.74,0.0,0.0
1630870944.89981508,83328322,0.08,0.08,0.11,0.08,352.74,352.74,0.0,0.0
1630870944.99977517,83428282,0.08,0.08,0.12,0.09,352.74,352.74,0.0,0.0
1630870945.09973526,83528242,0.08,0.07,0.14,0.11,352.74,352.75,0.0,0.0
1630870945.19969511,83628202,0.09,0.07,0.16,0.13,352.74,352.75,0.0,0.0
1630870945.29965520,83728162,0.1,0.08,0.18,0.16,352.74,352.75,0.0,0.0
1630870945.40044808,83828955,0.13,0.1,0.18,0.18,352.74,352.75,0.0,0.0
1630870945.50040817,83928915,0.15,0.12,0.17,0.18,352.74,352.75,0.0,0.0
1630870945.60036826,84028875,0.17,0.15,0.16,0.17,352.74,352.75,0.0,0.0
1630870945.70032811,84128835,0.2,0.18,0.15,0.15,352.74,352.75,0.0,0.0
1630870945.80028820,84228795,0.2,0.22,0.1,0.12,352.74,352.74,0.0,0.0
1630870945.90024805,84328755,0.18,0.21,0.1,0.1,352.74,352.74,0.0,0.0
1630870946.00020814,84428715,0.16,0.18,0.11,0.09,352.74,352.74,0.0,0.0
1630870946.10016823,84528675,0.14,0.15,0.1,0.09,352.74,352.74,0.0,0.0
1630870946.20012808,84628635,0.14,0.13,0.08,0.07,352.74,352.74,0.0,0.0
1630870946.30008817,84728595,0.14,0.12,0.06,0.05,352.74,352.74,0.0,0.0
1630870946.40004826,84828555,0.16,0.12,0.06,0.04,352.74,352.74,0.0,0.0
1630870946.50000811,84928515,0.17,0.14,0.09,0.06,352.74,352.74,0.0,0.0
1630870946.59996819,85028475,0.15,0.15,0.11,0.08,352.74,352.74,0.0,0.0
1630870946.69992805,85128435,0.13,0.14,0.15,0.12,352.74,352.74,0.0,0.0
1630870946.79988813,85228395,0.11,0.12,0.19,0.16,352.74,352.74,0.0,0.0
1630870946.89984822,85328355,0.11,0.09,0.21,0.21,352.74,352.74,0.0,0.0
1630870946.99980807,85428315,0.13,0.08,0.22,0.25,352.74,352.74,0.0,0.0
1630870947.09976816,85528275,0.17,0.11,0.16,0.22,352.74,352.74,0.0,0.0
1630870947.19972825,85628235,0.16,0.14,0.09,0.14,352.74,352.74,0.0,0.0
1630870947.29968810,85728195,0.14,0.14,0.05,0.07,352.74,352.74,0.0,0.0
1630870947.39964819,85828155,0.14,0.14,0.04,0.02,352.74,352.74,0.0,0.0
1630870947.50044107,85928948,0.14,0.14,0.06,0.01,352.74,352.74,0.0,0.0
1630870947.60040116,86028908,0.14,0.13,0.08,0.03,352.74,352.74,0.0,0.0
1630870947.70036125,86128868,0.13,0.12,0.11,0.07,352.74,352.74,0.0,0.0
1630870947.80032110,86228828,0.14,0.12,0.13,0.11,352.74,352.74,0.0,0.0
1630870947.90028119,86328788,0.16,0.14,0.11,0.12,352.74,352.74,0.0,0.0
1630870948.00024104,86428748,0.17,0.16,0.11,0.11,352.74,352.74,0.0,0.0
1630870948.10020113,86528708,0.17,0.17,0.07,0.09,352.74,352.74,0.0,0.0
1630870948.20016122,86628668,0.15,0.16,0.06,0.06,352.74,352.74,0.0,0.0
1630870948.30012107,86728628,0.1,0.12,0.1,0.07,352.74,352.74,0.0,0.0
1630870948.40008116,86828588,0.06,0.07,0.13,0.11,352.74,352.74,0.0,0.0
1630870948.50004125,86928548,0.04,0.01,0.14,0.14,352.74,352.74,0.0,0.0
1630870948.60000110,87028508,0.07,0.01,0.12,0.15,352.74,352.74,0.0,0.0
1630870948.69996119,87128468,0.13,0.06,0.12,0.15,352.74,352.74,0.0,0.0
1630870948.79992104,87228428,0.18,0.14,0.13,0.14,352.74,352.74,0.0,0.0
1630870948.89988112,87328388,0.16,0.17,0.1,0.11,352.74,352.74,0.0,0.0
1630870948.99984121,87428348,0.15,0.18,0.07,0.08,352.74,352.74,0.0,0.0
1630870949.09980106,87528308,0.13,0.17,0.04,0.04,352.74,352.74,0.0,0.0
1630870949.19976115,87628268,0.11,0.14,0.05,0.02,352.74,352.74,0.0,0.0
1630870949.29972124,87728228,0.12,0.12,0.06,0.02,352.74,352.74,0.0,0.0
1630870949.39968109,87828188,0.12,0.11,0.1,0.06,352.74,352.75,0.0,0.0
1630870949.50047421,87928981,0.08,0.09,0.13,0.1,352.74,352.75,0.0,0.0
1630870949.60043406,88028941,0.05,0.06,0.14,0.13,352.74,352.75,0.0,0.0
1630870949.70039415,88128901,0.06,0.03,0.14,0.15,352.74,352.75,0.0,0.0
1630870949.80035424,88228861,0.09,0.04,0.14,0.15,352.74,352.75,0.0,0.0
1630870949.90031409,88328821,0.11,0.07,0.14,0.15,352.74,352.75,0.0,0.0
1630870950.00027418,88428781,0.12,0.1,0.11,0.14,352.74,352.75,0.0,0.0
1630870950.10023403,88528741,0.11,0.13,0.1,0.11,352.74,352.75,0.0,0.0
1630870950.20019412,88628701,0.08,0.1,0.1,0.1,352.74,352.75,0.0,0.0
1630870950.30015421,88728661,0.09,0.08,0.09,0.09,352.74,352.75,0.0,0.0
1630870950.40011406,88828621,0.1,0.08,0.09,0.07,352.74,352.75,0.0,0.0
1630870950.50007415,88928581,0.11,0.08,0.13,0.09,352.74,352.75,0.0,0.0
1630870950.60003424,89028541,0.16,0.11,0.18,0.13,352.74,352.75,0.0,0.0
1630870950.69999409,89128501,0.2,0.17,0.2,0.17,352.74,352.74,0.0,0.0
1630870950.79995418,89228461,0.21,0.2,0.2,0.19,352.74,352.74,0.0,0.0
1630870950.89991426,89328421,0.2,0.21,0.2,0.19,352.74,352.74,0.0,0.0
1630870950.99987411,89428381,0.18,0.2,0.19,0.19,352.74,352.74,0.0,0.0
1630870951.09983420,89528341,0.18,0.19,0.18,0.18,352.74,352.74,0.0,0.0
1630870951.19979405,89628301,0.19,0.19,0.16,0.16,352.74,352.74,0.0,0.0
1630870951.29975414,89728261,0.17,0.18,0.17,0.16,352.74,352.74,0.0,0.0
1630870951.39971423,89828221,0.15,0.15,0.17,0.16,352.74,352.74,0.0,0.0
1630870951.49967408,89928181,0.15,0.14,0.18,0.16,352.74,352.74,0.0,0.0
1630870951.60046721,90028974,0.18,0.15,0.18,0.17,352.74,352.74,0.0,0.0
1630870951.70042706,90128934,0.19,0.17,0.18,0.18,352.74,352.74,0.0,0.0
1630870951.80038714,90228894,0.2,0.18,0.18,0.18,352.74,352.74,0.0,0.0
1630870951.90034723,90328854,0.22,0.2,0.18,0.18,352.74,352.74,0.0,0.0
1630870952.00030708,90428814,0.19,0.19,0.19,0.18,352.74,352.74,0.0,0.0
1630870952.10026717,90528774,0.17,0.17,0.2,0.18,352.74,352.74,0.0,0.0
1630870952.20022726,90628734,0.16,0.16,0.17,0.16,352.74,352.74,0.0,0.0
1630870952.30018711,90728694,0.14,0.14,0.15,0.15,352.74,352.74,0.0,0.0
1630870952.40014720,90828654,0.17,0.15,0.13,0.12,352.74,352.74,0.0,0.0
1630870952.50010705,90928614,0.19,0.17,0.13,0.1,352.74,352.74,0.0,0.0
1630870952.60006714,91028574,0.17,0.18,0.16,0.12,352.74,352.74,0.0,0.0
1630870952.70002723,91128534,0.11,0.15,0.17,0.14,352.74,352.74,0.0,0.0
1630870952.79998708,91228494,0.07,0.09,0.2,0.16,352.74,352.74,0.0,0.0
1630870952.89994717,91328454,0.07,0.05,0.2,0.19,352.74,352.74,0.0,0.0
1630870952.99990726,91428414,0.07,0.04,0.17,0.18,352.74,352.74,0.0,0.0
1630870953.09986711,91528374,0.08,0.04,0.14,0.16,352.74,352.74,0.0,0.0
1630870953.19982719,91628334,0.09,0.06,0.13,0.14,352.74,352.74,0.0,0.0
1630870953.29978704,91728294,0.09,0.07,0.15,0.14,352.74,352.74,0.0,0.0
1630870953.39974713,91828254,0.1,0.09,0.15,0.15,352.74,352.74,0.0,0.0
1630870953.49970722,91928214,0.16,0.13,0.12,0.13,352.74,352.74,0.0,0.0
1630870953.59966707,92028174,0.18,0.18,0.11,0.11,352.74,352.74,0.0,0.0
1630870953.70046020,92128967,0.17,0.19,0.11,0.1,352.74,352.75,0.0,0.0
1630870953.80042005,92228927,0.16,0.18,0.13,0.1,352.74,352.75,0.0,0.0
1630870953.90038013,92328887,0.16,0.17,0.17,0.13,352.74,352.75,0.0,0.0
1630870954.00034022,92428847,0.17,0.17,0.17,0.16,352.74,352.75,0.0,0.0
1630870954.10030007,92528807,0.18,0.17,0.15,0.15,352.74,352.74,0.0,0.0
1630870954.20026016,92628767,0.18,0.17,0.16,0.16,352.74,352.74,0.0,0.0
1630870954.30022025,92728727,0.18,0.18,0.17,0.17,352.74,352.74,0.0,0.0
1630870954.40018010,92828687,0.16,0.17,0.11,0.14,352.74,352.74,0.0,0.0
1630870954.50014019,92928647,0.16,0.16,0.07,0.09,352.74,352.74,0.0,0.0
1630870954.60010004,93028607,0.17,0.15,0.07,0.06,352.74,352.74,0.0,0.0
1630870954.70006013,93128567,0.15,0.14,0.06,0.04,352.74,352.74,0.0,0.0
1630870954.80002022,93228527,0.14,0.13,0.09,0.05,352.74,352.74,0.0,0.0
1630870954.89998007,93328487,0.15,0.13,0.11,0.08,352.74,352.75,0.0,0.0
1630870954.99994016,93428447,0.19,0.16,0.1,0.1,352.74,352.75,0.0,0.0
1630870955.09990025,93528407,0.22,0.19,0.1,0.1,352.74,352.75,0.0,0.0
1630870955.19986010,93628367,0.2,0.2,0.09,0.1,352.74,352.75,0.0,0.0
1630870955.29982018,93728327,0.17,0.18,0.09,0.09,352.74,352.74,0.0,0.0
1630870955.39978004,93828287,0.16,0.16,0.1,0.09,352.74,352.74,0.0,0.0
1630870955.49974012,93928247,0.16,0.15,0.11,0.1,352.74,352.74,0.0,0.0
1630870955.59970021,94028207,0.17,0.16,0.12,0.11,352.74,352.74,0.0,0.0
1630870955.69966006,94128167,0.18,0.15,0.13,0.12,352.74,352.74,0.0,0.0
1630870955.80045319,94228960,0.2,0.16,0.14,0.14,352.74,352.74,0.0,0.0
1630870955.90041304,94328920,0.24,0.19,0.15,0.14,352.74,352.74,0.0,0.0
1630870956.00037313,94428880,0.26,0.23,0.16,0.15,352.74,352.74,0.0,0.0
1630870956.10033321,94528840,0.24,0.25,0.17,0.16,352.74,352.74,0.0,0.0
1630870956.20029306,94628800,0.22,0.24,0.18,0.17,352.74,352.74,0.0,0.0
1630870956.30025315,94728760,0.21,0.22,0.15,0.16,352.74,352.74,0.0,0.0
1630870956.40021324,94828720,0.22,0.21,0.13,0.14,352.74,352.74,0.0,0.0
1630870956.50017309,94928680,0.22,0.21,0.11,0.11,352.74,352.74,0.0,0.0
1630870956.60013318,95028640,0.2,0.19,0.1,0.08,352.74,352.74,0.0,0.0
1630870956.70009303,95128600,0.17,0.17,0.1,0.08,352.74,352.74,0.0,0.0
1630870956.80005312,95228560,0.16,0.16,0.1,0.07,352.74,352.74,0.0,0.0
1630870956.90001321,95328520,0.17,0.15,0.11,0.08,352.74,352.74,0.0,0.0
1630870956.99997306,95428480,0.2,0.17,0.12,0.1,352.74,352.74,0.0,0.0
1630870957.09993315,95528440,0.19,0.19,0.16,0.13,352.74,352.74,0.0,0.0
1630870957.19989324,95628400,0.16,0.17,0.2,0.17,352.74,352.75,0.0,0.0
1630870957.29985309,95728360,0.14,0.15,0.22,0.21,352.74,352.75,0.0,0.0
1630870957.39981318,95828320,0.12,0.12,0.23,0.24,352.74,352.75,0.0,0.0
1630870957.49977326,95928280,0.12,0.11,0.21,0.24,352.74,352.74,0.0,0.0
1630870957.59973311,96028240,0.14,0.11,0.17,0.2,352.74,352.74,0.0,0.0
1630870957.69969320,96128200,0.16,0.14,0.15,0.16,352.74,352.74,0.0,0.0
1630870957.79965305,96228160,0.16,0.15,0.16,0.14,352.74,352.74,0.0,0.0
1630870957.90044618,96328953,0.18,0.16,0.18,0.15,352.74,352.74,0.0,0.0
1630870958.00040627,96428913,0.2,0.18,0.2,0.17,352.74,352.74,0.0,0.0
1630870958.10036612,96528873,0.21,0.2,0.22,0.2,352.74,352.74,0.0,0.0
1630870958.20032620,96628833,0.23,0.22,0.23,0.22,352.74,352.74,0.0,0.0
1630870958.30028605,96728793,0.23,0.23,0.22,0.22,352.74,352.74,0.0,0.0
1630870958.40024614,96828753,0.23,0.23,0.21,0.21,352.74,352.74,0.0,0.0
1630870958.50020623,96928713,0.2,0.21,0.22,0.21,352.74,352.74,0.0,0.0
1630870958.60016608,97028673,0.16,0.18,0.21,0.21,352.74,352.74,0.0,0.0
1630870958.70012617,97128633,0.14,0.14,0.21,0.2,352.74,352.74,0.0,0.0
1630870958.80008626,97228593,0.14,0.12,0.2,0.2,352.74,352.74,0.0,0.0
1630870958.90004611,97328553,0.15,0.12,0.21,0.19,352.74,352.74,0.0,0.0
1630870959.00000620,97428513,0.13,0.12,0.22,0.2,352.74,352.74,0.0,0.0
1630870959.09996605,97528473,0.12,0.11,0.22,0.2,352.74,352.74,0.0,0.0
1630870959.19992614,97628433,0.13,0.1,0.22,0.21,352.74,352.74,0.0,0.0
1630870959.29988623,97728393,0.13,0.11,0.22,0.22,352.74,352.74,0.0,0.0
1630870959.39984608,97828353,0.12,0.11,0.21,0.21,352.74,352.74,0.0,0.0
1630870959.49980617,97928313,0.13,0.11,0.18,0.19,352.74,352.74,0.0,0.0
1630870959.59976625,98028273,0.14,0.12,0.14,0.14,352.74,352.74,0.0,0.0
1630870959.69972610,98128233,0.14,0.14,0.12,0.11,352.74,352.74,0.0,0.0
1630870959.79968619,98228193,0.18,0.14,0.11,0.09,352.74,352.74,0.0,0.0
1630870959.90047908,98328986,0.45,0.29,0.08,0.07,352.74,352.74,0.0,0.0
1630870960.00043917,98428946,1.0,0.72,0.07,0.05,352.74,352.74,0.0,0.0
1630870960.10039926,98528906,1.76,1.43,0.05,0.04,352.74,352.74,0.0,0.0
1630870960.20035911,98628866,2.68,2.36,0.0,0.0,352.74,352.74,0.0,0.0
1630870960.30031919,98728826,3.64,3.41,-0.07,-0.06,352.74,352.73,0.0,0.0
1630870960.40027905,98828786,4.49,4.44,-0.13,-0.13,352.74,352.73,0.0,0.01
1630870960.50023913,98928746,5.18,5.3,-0.18,-0.19,352.74,352.73,0.0,0.01
1630870960.60019922,99028706,5.71,5.94,-0.23,-0.25,352.74,352.73,0.0,0.01
1630870960.70015907,99128666,6.13,6.41,-0.26,-0.28,352.74,352.73,0.0,0.01
1630870960.80011916,99228626,6.57,6.77,-0.29,-0.31,352.74,352.74,0.0,0.01
1630870960.90007925,99328586,7.01,7.13,-0.29,-0.32,352.74,352.75,0.0,0.01
1630870961.00003910,99428546,7.45,7.51,-0.31,-0.32,352.74,352.76,0.0,0.01
1630870961.09999919,99528506,7.82,7.88,-0.36,-0.35,352.74,352.76,0.0,0.01
1630870961.19995904,99628466,8.09,8.18,-0.38,-0.39,352.74,352.76,0.0,0.0
1630870961.29991913,99728426,8.31,8.41,-0.38,-0.39,352.74,352.76,0.0,0.0
1630870961.39987922,99828386,8.49,8.57,-0.37,-0.39,352.74,352.77,0.0,0.0
1630870961.49983907,99928346,8.64,8.69,-0.37,-0.38,352.74,352.77,0.0,0.0
1630870961.59979916,100028306,8.82,8.81,-0.4,-0.35,353.59,352.78,0.0,0.0
1630870961.69975924,100128266,9.12,9.04,-0.45,-0.09,357.1,353.07,0.0,0.0
1630870961.79971910,100228226,9.5,9.42,-0.61,0.39,2.88,354.31,0.0,0.0
1630870961.89967918,100328186,9.92,9.96,-1.06,0.67,8.88,357.09,0.0,0.01
1630870962.00047207,100428979,10.25,10.51,-1.92,0.35,14.88,1.5,0.0,0.01
1630870962.10043216,100528939,10.37,10.91,-3.22,-0.68,20.88,7.36,0.0,0.02
1630870962.20039225,100628899,10.18,10.96,-4.85,-2.37,26.88,14.36,0.0,0.03
1630870962.30035210,100728859,9.64,10.56,-6.69,-4.54,32.88,22.22,0.0,0.03
1630870962.40031219,100828819,8.78,9.65,-8.52,-6.93,38.88,30.67,0.0,0.04
1630870962.50027204,100928779,7.62,8.28,-10.17,-9.25,44.88,39.49,0.0,0.04
1630870962.60023212,101028739,6.18,6.48,-11.55,-11.23,50.88,48.39,0.0,0.05
1630870962.70019221,101128699,4.58,4.39,-12.62,-12.73,56.88,57.08,0.0,0.05
1630870962.80015206,101228659,2.96,2.26,-13.39,-13.69,62.88,65.26,0.0,0.05
1630870962.90011215,101328619,1.39,0.28,-13.95,-14.21,68.88,72.75,0.0,0.05
1630870963.00007224,101428579,-0.11,-1.57,-14.32,-14.43,73.41,79.43,0.0,0.05
1630870963.10003209,101528539,-1.49,-3.52,-14.53,-14.46,75.77,85.02,0.0,0.04
1630870963.19999218,101628499,-2.6,-5.34,-14.64,-14.33,76.99,89.08,0.0,0.04
1630870963.29995203,101728459,-3.22,-6.6,-14.71,-14.13,77.64,91.41,0.0,0.03
1630870963.39991212,101828419,-3.31,-7.04,-14.81,-13.98,78.04,92.12,0.0,0.02
1630870963.49987221,101928379,-2.89,-6.62,-14.98,-13.98,78.32,91.46,0.0,0.02
1630870963.59983206,102028339,-2.13,-5.46,-15.27,-14.19,78.56,89.76,0.0,0.02
1630870963.69979215,102128299,-1.22,-3.8,-15.62,-14.61,78.79,87.36,0.0,0.02
1630870963.79975224,102228259,-0.31,-1.93,-15.94,-15.13,79.02,84.57,0.0,0.01
1630870963.89971209,102328219,0.48,-0.09,-16.17,-15.64,79.24,81.72,0.0,0.01
1630870963.99967217,102428179,1.08,1.45,-16.3,-16.0,79.45,79.13,0.0,0.01
1630870964.10046506,102528972,1.46,2.58,-16.32,-16.19,79.63,77.08,0.0,0.01
1630870964.20042515,102628932,1.61,3.22,-16.26,-16.2,79.78,75.73,0.0,0.01
1630870964.30038524,102728892,1.57,3.37,-16.23,-16.14,79.9,75.12,0.0,0.01
1630870964.40034509,102828852,1.39,3.12,-16.22,-16.08,79.98,75.2,0.0,0.01
1630870964.50030518,102928812,1.12,2.58,-16.27,-16.09,80.04,75.83,0.0,0.01
1630870964.60026526,103028772,0.78,1.86,-16.37,-16.17,80.07,76.86,0.0,0.01
1630870964.70022511,103128732,0.43,1.06,-16.47,-16.31,80.08,78.1,0.0,0.01
1630870964.80018520,103228692,0.11,0.28,-16.56,-16.45,80.09,79.36,0.0,0.01
1630870964.90014505,103328652,-0.14,-0.37,-16.62,-16.56,80.08,80.5,0.0,0.0
1630870965.00010514,103428612,-0.31,-0.86,-16.65,-16.63,80.08,81.41,0.0,0.0
1630870965.10006523,103528572,-0.37,-1.14,-16.66,-16.66,80.08,82.03,0.0,0.0
1630870965.20002508,103628532,-0.37,-1.21,-16.69,-16.68,80.08,82.32,0.0,0.0
1630870965.29998517,103728492,-0.33,-1.14,-16.7,-16.69,80.09,82.33,0.0,0.0
1630870965.39994526,103828452,-0.22,-0.94,-16.72,-16.7,80.1,82.09,0.0,0.0
1630870965.49990511,103928412,-0.07,-0.63,-16.74,-16.71,80.11,81.68,0.0,0.0
1630870965.59986520,104028372,0.08,-0.29,-16.79,-16.75,80.13,81.18,0.0,0.0
1630870965.69982505,104128332,0.23,0.05,-16.84,-16.8,80.14,80.67,0.0,0.0
1630870965.79978514,104228292,0.34,0.34,-16.88,-16.85,80.16,80.19,0.0,0.0
1630870965.89974523,104328252,0.42,0.57,-16.92,-16.9,80.17,79.82,0.0,0.01
1630870965.99970508,104428212,0.46,0.7,-16.96,-16.94,80.18,79.55,0.0,0.01
1630870966.09966516,104528172,0.46,0.75,-16.97,-16.97,80.18,79.42,0.0,0.01
1630870966.20045805,104628965,0.4,0.7,-16.98,-16.99,80.18,79.41,0.0,0.01
1630870966.30041814,104728925,0.33,0.59,-16.98,-16.99,80.18,79.5,0.0,0.01
1630870966.40037823,104828885,0.25,0.43,-17.02,-17.01,80.17,79.66,0.0,0.01
1630870966.50033808,104928845,0.19,0.27,-17.06,-17.05,80.15,79.86,0.0,0.01
1630870966.60029817,105028805,0.17,0.15,-17.11,-17.09,80.14,80.07,0.0,0.01
1630870966.70025826,105128765,0.17,0.08,-17.15,-17.14,80.12,80.25,0.0,0.01
1630870966.80021811,105228725,0.15,0.04,-17.18,-17.17,80.11,80.4,0.0,0.0
1630870966.90017819,105328685,0.13,0.0,-17.21,-17.21,80.09,80.5,0.0,0.0
1630870967.00013804,105428645,0.09,-0.04,-17.25,-17.25,80.08,80.54,0.0,0.0
1630870967.10009813,105528605,0.08,-0.07,-17.28,-17.28,80.06,80.53,0.0,0.0
1630870967.20005822,105628565,0.11,-0.05,-17.32,-17.31,80.05,80.48,0.0,0.0
1630870967.30001807,105728525,0.16,0.0,-17.32,-17.32,80.04,80.39,0.0,0.0
1630870967.39997816,105828485,0.22,0.1,-17.31,-17.32,80.03,80.29,0.0,0.0
1630870967.49993825,105928445,0.25,0.19,-17.33,-17.33,80.02,80.19,0.0,0.01
1630870967.59989810,106028405,0.25,0.25,-17.35,-17.34,80.0,80.09,0.0,0.01
1630870967.69985819,106128365,0.26,0.27,-17.4,-17.38,79.99,80.01,0.0,0.01
1630870967.79981804,106228325,0.26,0.29,-17.46,-17.44,79.98,79.94,0.0,0.01
1630870967.89977813,106328285,0.26,0.28,-17.49,-17.5,79.97,79.91,0.0,0.0
1630870967.99973822,106428245,0.26,0.28,-17.5,-17.53,79.95,79.89,0.0,0.0
1630870968.09969807,106528205,0.25,0.27,-17.5,-17.53,79.94,79.89,0.0,0.0
1630870968.19965816,106628165,0.24,0.25,-17.48,-17.51,79.93,79.9,0.0,0.0
1630870968.30045104,106728958,0.24,0.23,-17.45,-17.49,79.91,79.92,0.0,0.01
1630870968.40041113,106828918,0.23,0.21,-17.45,-17.46,79.9,79.94,0.0,0.01
1630870968.50037122,106928878,0.22,0.2,-17.48,-17.47,79.88,79.96,0.0,0.01
1630870968.60033107,107028838,0.2,0.17,-17.55,-17.52,79.87,79.98,0.0,0.01
1630870968.70029116,107128798,0.18,0.14,-17.59,-17.58,79.85,79.98,0.0,0.0
1630870968.80025125,107228758,0.17,0.12,-17.62,-17.63,79.84,79.98,0.0,0.0
1630870968.90021110,107328718,0.16,0.11,-17.64,-17.66,79.82,79.97,0.0,0.0
1630870969.00017118,107428678,0.14,0.09,-17.65,-17.67,79.81,79.95,0.0,0.0
1630870969.10013103,107528638,0.16,0.09,-17.65,-17.67,79.79,79.92,0.0,0.0
1630870969.20009112,107628598,0.19,0.12,-17.65,-17.67,79.78,79.89,0.0,0.0
1630870969.30005121,107728558,0.2,0.15,-17.66,-17.67,79.77,79.86,0.0,0.0
1630870969.40001106,107828518,0.19,0.16,-17.67,-17.67,79.75,79.83,0.0,0.0
1630870969.49997115,107928478,0.17,0.15,-17.68,-17.68,79.74,79.8,0.0,0.0
1630870969.59993124,108028438,0.16,0.14,-17.7,-17.69,79.73,79.78,0.0,0.0
1630870969.69989109,108128398,0.18,0.14,-17.74,-17.72,79.71,79.76,0.0,0.0
1630870969.79985118,108228358,0.18,0.16,-17.77,-17.77,79.7,79.74,0.0,0.0
1630870969.89981127,108328318,0.17,0.16,-17.78,-17.8,79.69,79.73,0.0,0.0
1630870969.99977112,108428278,0.22,0.17,-17.79,-17.81,79.68,79.72,0.0,0.0
1630870970.09973121,108528238,0.25,0.22,-17.8,-17.82,79.68,79.71,0.0,0.0
1630870970.19969106,108628198,0.26,0.25,-17.79,-17.83,79.67,79.71,0.0,0.0
1630870970.29965115,108728158,0.25,0.26,-17.79,-17.82,79.66,79.71,0.0,0.0
1630870970.40044403,108828951,0.24,0.24,-17.76,-17.79,79.66,79.71,0.0,0.0
1630870970.50040412,108928911,0.21,0.22,-17.75,-17.76,79.65,79.71,0.0,0.0
1630870970.60036421,109028871,0.19,0.19,-17.75,-17.75,79.65,79.71,0.0,0.0
1630870970.70032406,109128831,0.21,0.18,-17.77,-17.75,79.64,79.71,0.0,0.0
1630870970.80028415,109228791,0.23,0.18,-17.79,-17.77,79.64,79.71,0.0,0.0
1630870970.90024424,109328751,0.26,0.21,-17.83,-17.82,79.63,79.71,0.0,0.0
1630870971.00020409,109428711,0.29,0.24,-17.88,-17.87,79.63,79.7,0.0,0.0
1630870971.10016418,109528671,0.31,0.27,-17.89,-17.9,79.63,79.7,0.0,0.0
1630870971.20012426,109628631,0.32,0.29,-17.86,-17.89,79.63,79.69,0.0,0.0
1630870971.30008411,109728591,0.31,0.3,-17.84,-17.85,79.63,79.68,0.0,0.0
1630870971.40004420,109828551,0.31,0.29,-17.85,-17.84,79.63,79.68,0.0,0.0
1630870971.50000405,109928511,0.32,0.29,-17.89,-17.87,79.63,79.68,0.0,0.0
1630870971.59996414,110028471,0.32,0.29,-17.94,-17.92,79.63,79.68,0.0,0.0
1630870971.69992423,110128431,0.33,0.29,-17.98,-17.97,79.63,79.68,0.0,0.0
1630870971.79988408,110228391,0.34,0.31,-18.02,-18.02,79.63,79.68,0.0,0.0
1630870971.89984417,110328351,0.33,0.31,-18.04,-18.06,79.62,79.68,0.0,0.0
1630870971.99980426,110428311,0.31,0.29,-18.03,-18.07,79.62,79.68,0.0,0.0
1630870972.09976411,110528271,0.3,0.29,-18.01,-18.05,79.62,79.68,0.0,0.0
1630870972.19972420,110628231,0.29,0.28,-18.01,-18.04,79.62,79.68,0.0,0.0
1630870972.29968405,110728191,0.28,0.27,-18.02,-18.04,79.61,79.67,0.0,0.0
1630870972.40047717,110828984,0.26,0.25,-18.02,-18.03,79.61,79.67,0.0,0.0
1630870972.50043726,110928944,0.25,0.23,-18.0,-18.03,79.61,79.67,0.0,0.0
1630870972.60039711,111028904,0.25,0.23,-17.98,-18.0,79.61,79.66,0.0,0.0
1630870972.70035720,111128864,0.26,0.23,-18.0,-17.98,79.6,79.66,0.0,0.0
1630870972.80031705,111228824,0.28,0.24,-18.02,-18.0,79.6,79.66,0.0,0.0
1630870972.90027714,111328784,0.29,0.26,-18.04,-18.03,79.6,79.65,0.0,0.0
1630870973.00023723,111428744,0.3,0.27,-18.04,-18.05,79.6,79.65,0.0,0.0
1630870973.10019708,111528704,0.27,0.27,-18.05,-18.06,79.59,79.65,0.0,0.0
1630870973.20015717,111628664,0.25,0.25,-18.04,-18.06,79.59,79.64,0.0,0.0
1630870973.30011725,111728624,0.26,0.23,-18.04,-18.05,79.59,79.64,0.0,0.0
1630870973.40007710,111828584,0.28,0.25,-18.03,-18.05,79.58,79.63,0.0,0.0
1630870973.50003719,111928544,0.29,0.27,-18.04,-18.04,79.58,79.63,0.0,0.0
1630870973.59999704,112028504,0.29,0.28,-18.07,-18.07,79.58,79.63,0.0,0.0
1630870973.69995713,112128464,0.29,0.28,-18.09,-18.1,79.58,79.62,0.0,0.0
1630870973.79991722,112228424,0.31,0.28,-18.09,-18.12,79.58,79.62,0.0,0.0
1630870973.89987707,112328384,0.33,0.31,-18.06,-18.1,79.58,79.62,0.0,0.0
1630870973.99983716,112428344,0.34,0.32,-18.06,-18.08,79.58,79.62,0.0,0.0
1630870974.09979725,112528304,0.35,0.34,-18.08,-18.08,79.58,79.62,0.0,0.0
1630870974.19975710,112628264,0.33,0.34,-18.09,-18.09,79.58,79.62,0.0,0.0
1630870974.29971719,112728224,0.31,0.32,-18.1,-18.1,79.58,79.62,0.0,0.0
1630870974.39967704,112828184,0.3,0.29,-18.1,-18.11,79.58,79.62,0.0,0.0
1630870974.50047016,112928977,0.3,0.28,-18.1,-18.11,79.58,79.62,0.0,0.0
1630870974.60043025,113028937,0.31,0.27,-18.09,-18.11,79.58,79.62,0.0,0.0
1630870974.70039010,113128897,0.33,0.29,-18.09,-18.11,79.58,79.63,0.0,0.0
1630870974.80035019,113228857,0.35,0.31,-18.09,-18.1,79.59,79.63,0.0,0.0
1630870974.90031004,113328817,0.36,0.34,-18.08,-18.1,79.59,79.63,0.0,0.0
1630870975.00027013,113428777,0.34,0.34,-18.08,-18.1,79.59,79.63,0.0,0.0
1630870975.10023022,113528737,0.32,0.31,-18.09,-18.11,79.59,79.64,0.0,0.0
1630870975.20019007,113628697,0.3,0.29,-18.09,-18.11,79.59,79.64,0.0,0.0
1630870975.30015016,113728657,0.29,0.27,-18.06,-18.09,79.6,79.64,0.0,0.0
1630870975.40011024,113828617,0.32,0.28,-18.06,-18.08,79.6,79.64,0.0,0.0
1630870975.50007010,113928577,0.36,0.32,-18.06,-18.07,79.6,79.64,0.0,0.0
1630870975.60003018,114028537,0.39,0.37,-18.06,-18.07,79.6,79.65,0.0,0.0
1630870975.69999003,114128497,0.38,0.38,-18.08,-18.07,79.61,79.65,0.0,0.0
1630870975.79995012,114228457,0.39,0.39,-18.12,-18.11,79.61,79.65,0.0,0.0
1630870975.89991021,114328417,0.41,0.4,-18.14,-18.14,79.62,79.65,0.0,0.0
1630870975.99987006,114428377,0.41,0.41,-18.15,-18.16,79.62,79.65,0.0,0.0
1630870976.09983015,114528337,0.43,0.41,-18.18,-18.19,79.63,79.65,0.0,0.0
1630870976.19979024,114628297,0.43,0.41,-18.19,-18.21,79.63,79.66,0.0,0.0
1630870976.29975009,114728257,0.41,0.4,-18.19,-18.21,79.63,79.66,0.0,0.0
1630870976.39971018,114828217,0.38,0.37,-18.17,-18.21,79.63,79.67,0.0,0.0
1630870976.49967027,114928177,0.36,0.35,-18.15,-18.18,79.63,79.67,0.0,0.0
1630870976.60046315,115028970,0.35,0.32,-18.13,-18.16,79.64,79.68,0.0,0.0
1630870976.70042324,115128930,0.36,0.32,-18.13,-18.13,79.64,79.68,0.0,0.0
1630870976.80038309,115228890,0.37,0.33,-18.14,-18.13,79.64,79.68,0.0,0.0
1630870976.90034318,115328850,0.41,0.36,-18.15,-18.13,79.64,79.68,0.0,0.0
1630870977.00030303,115428810,0.43,0.39,-18.17,-18.15,79.64,79.68,0.0,0.0
1630870977.10026312,115528770,0.44,0.42,-18.18,-18.18,79.64,79.68,0.0,0.0
1630870977.20022321,115628730,0.41,0.41,-18.19,-18.2,79.64,79.67,0.0,0.0
1630870977.30018306,115728690,0.39,0.38,-18.17,-18.2,79.64,79.67,0.0,0.0
1630870977.40014315,115828650,0.4,0.37,-18.16,-18.19,79.64,79.67,0.0,0.0
1630870977.50010324,115928610,0.43,0.38,-18.16,-18.18,79.64,79.68,0.0,0.0
1630870977.60006309,116028570,0.43,0.41,-18.17,-18.18,79.64,79.68,0.0,0.0
1630870977.70002317,116128530,0.41,0.41,-18.19,-18.19,79.64,79.68,0.0,0.0
1630870977.79998326,116228490,0.42,0.4,-18.22,-18.22,79.64,79.68,0.0,0.0
1630870977.89994311,116328450,0.41,0.4,-18.21,-18.24,79.64,79.68,0.0,0.0
1630870977.99990320,116428410,0.39,0.39,-18.19,-18.22,79.65,79.68,0.0,0.0
1630870978.09986305,116528370,0.38,0.37,-18.18,-18.2,79.65,79.68,0.0,0.0
1630870978.19982314,116628330,0.4,0.37,-18.19,-18.21,79.65,79.68,0.0,0.0
1630870978.29978323,116728290,0.42,0.38,-18.17,-18.2,79.65,79.68,0.0,0.0
1630870978.39974308,116828250,0.41,0.39,-18.16,-18.19,79.65,79.67,0.0,0.0
1630870978.49970317,116928210,0.42,0.4,-18.15,-18.17,79.65,79.67,0.0,0.0
1630870978.59966326,117028170,0.43,0.41,-18.17,-18.17,79.65,79.67,0.0,0.0
1630870978.70045614,117128963,0.45,0.42,-18.16,-18.17,79.65,79.67,0.0,0.0
1630870978.80041623,117228923,0.45,0.43,-18.17,-18.18,79.65,79.67,0.0,0.0
1630870978.90037608,117328883,0.46,0.44,-18.19,-18.18,79.65,79.67,0.0,0.0
1630870979.00033617,117428843,0.47,0.45,-18.22,-18.21,79.65,79.67,0.0,0.0
1630870979.10029626,117528803,0.46,0.44,-18.19,-18.21,79.65,79.68,0.0,0.0
1630870979.20025611,117628763,0.45,0.44,-18.17,-18.21,79.66,79.68,0.0,0.0
1630870979.30021620,117728723,0.44,0.43,-18.17,-18.19,79.66,79.68,0.0,0.0
1630870979.40017605,117828683,0.43,0.42,-18.17,-18.19,79.66,79.68,0.0,0.0
1630870979.50013614,117928643,0.41,0.39,-18.19,-18.19,79.66,79.69,0.0,0.0
1630870979.60009623,118028603,0.41,0.38,-18.2,-18.2,79.66,79.69,0.0,0.0
1630870979.70005608,118128563,0.41,0.38,-18.19,-18.2,79.66,79.69,0.0,0.0
1630870979.80001616,118228523,0.43,0.4,-18.17,-18.19,79.66,79.69,0.0,0.0
1630870979.89997625,118328483,0.45,0.42,-18.15,-18.17,79.66,79.69,0.0,0.0
1630870979.99993610,118428443,0.47,0.45,-18.15,-18.16,79.66,79.69,0.0,0.0
1630870980.09989619,118528403,0.46,0.47,-18.17,-18.17,79.66,79.69,0.0,0.0
1630870980.19985604,118628363,0.44,0.45,-18.2,-18.2,79.66,79.68,0.0,0.0
1630870980.29981613,118728323,0.42,0.43,-18.21,-18.22,79.66,79.68,0.0,0.0
1630870980.39977622,118828283,0.39,0.39,-18.2,-18.22,79.66,79.68,0.0,0.0
1630870980.49973607,118928243,0.39,0.37,-18.21,-18.21,79.66,79.68,0.0,0.0
1630870980.59969616,119028203,0.39,0.36,-18.23,-18.22,79.66,79.68,0.0,0.0
1630870980.69965625,119128163,0.36,0.35,-18.24,-18.23,79.65,79.68,0.0,0.0
1630870980.80044913,119228956,0.35,0.33,-18.25,-18.25,79.65,79.68,0.0,0.0
1630870980.90040922,119328916,0.35,0.32,-18.2,-18.24,79.65,79.67,0.0,0.0
1630870981.00036907,119428876,0.4,0.36,-18.16,-18.2,79.64,79.67,0.0,0.0
1630870981.10032916,119528836,0.45,0.42,-18.18,-18.18,79.64,79.67,0.0,0.0
1630870981.20028925,119628796,0.46,0.45,-18.19,-18.19,79.64,79.66,0.0,0.0
1630870981.30024910,119728756,0.45,0.46,-18.19,-18.2,79.64,79.66,0.0,0.0
1630870981.40020919,119828716,0.45,0.46,-18.16,-18.19,79.64,79.65,0.0,0.0
1630870981.50016904,119928676,0.46,0.46,-18.14,-18.17,79.64,79.65,0.0,0.0
1630870981.60012913,120028636,0.47,0.46,-18.14,-18.16,79.64,79.65,0.0,0.0
1630870981.70008922,120128596,0.47,0.45,-18.16,-18.17,79.64,79.65,0.0,0.0
1630870981.80004907,120228556,0.45,0.44,-18.2,-18.2,79.64,79.65,0.0,0.0
1630870981.90000916,120328516,0.44,0.43,-18.22,-18.22,79.64,79.65,0.0,0.0
1630870981.99996924,120428476,0.46,0.43,-18.21,-18.23,79.64,79.66,0.0,0.0
1630870982.09992909,120528436,0.5,0.45,-18.18,-18.22,79.64,79.66,0.0,0.0
1630870982.19988918,120628396,0.53,0.49,-18.17,-18.2,79.64,79.66,0.0,0.0
1630870982.29984903,120728356,0.52,0.51,-18.19,-18.2,79.65,79.67,0.0,0.0
1630870982.39980912,120828316,0.49,0.49,-18.21,-18.21,79.65,79.67,0.0,0.0
1630870982.49976921,120928276,0.48,0.47,-18.2,-18.21,79.65,79.67,0.0,0.0
1630870982.59972906,121028236,0.49,0.47,-18.21,-18.21,79.65,79.67,0.0,0.0
1630870982.69968915,121128196,0.48,0.47,-18.2,-18.21,79.65,79.67,0.0,0.0
1630870982.79964924,121228156,0.45,0.45,-18.19,-18.2,79.65,79.67,0.0,0.0
1630870982.90044212,121328949,0.44,0.43,-18.17,-18.18,79.65,79.67,0.0,0.0
1630870983.00040221,121428909,0.43,0.41,-18.16,-18.17,79.65,79.67,0.0,0.0
1630870983.10036206,121528869,0.45,0.42,-18.16,-18.17,79.65,79.67,0.0,0.0
1630870983.20032215,121628829,0.48,0.45,-18.17,-18.17,79.65,79.66,0.0,0.0
1630870983.30028224,121728789,0.52,0.49,-18.19,-18.18,79.65,79.66,0.0,0.0
1630870983.40024209,121828749,0.53,0.52,-18.2,-18.2,79.65,79.66,0.0,0.0
1630870983.50020218,121928709,0.51,0.53,-18.23,-18.22,79.66,79.66,0.0,0.0
1630870983.60016227,122028669,0.5,0.52,-18.25,-18.26,79.66,79.66,0.0,0.0
1630870983.70012212,122128629,0.47,0.5,-18.25,-18.27,79.66,79.66,0.0,0.0
1630870983.80008221,122228589,0.44,0.45,-18.25,-18.27,79.66,79.66,0.0,0.0
1630870983.90004206,122328549,0.44,0.41,-18.24,-18.28,79.66,79.67,0.0,0.0
1630870984.00000215,122428509,0.47,0.42,-18.21,-18.25,79.66,79.67,0.0,0.0
1630870984.09996223,122528469,0.51,0.45,-18.18,-18.21,79.65,79.67,0.0,0.0
1630870984.19992208,122628429,0.53,0.5,-18.18,-18.19,79.66,79.67,0.0,0.0
1630870984.29988217,122728389,0.53,0.52,-18.2,-18.2,79.66,79.67,0.0,0.0
1630870984.39984226,122828349,0.51,0.51,-18.23,-18.22,79.66,79.67,0.0,0.0
1630870984.49980211,122928309,0.47,0.48,-18.25,-18.25,79.65,79.67,0.0,0.0
1630870984.59976220,123028269,0.42,0.43,-18.25,-18.27,79.65,79.67,0.0,0.0
1630870984.69972205,123128229,0.43,0.4,-18.25,-18.27,79.65,79.67,0.0,0.0
1630870984.79968214,123228189,0.47,0.42,-18.23,-18.26,79.65,79.67,0.0,0.0
1630870984.90047526,123328982,0.49,0.45,-18.23,-18.24,79.65,79.67,0.0,0.0
1630870985.00043511,123428942,0.51,0.49,-18.23,-18.24,79.65,79.66,0.0,0.0
1630870985.10039520,123528902,0.54,0.52,-18.23,-18.23,79.65,79.66,0.0,0.0
1630870985.20035505,123628862,0.58,0.56,-18.24,-18.24,79.65,79.66,0.0,0.0
1630870985.30031514,123728822,0.57,0.59,-18.24,-18.24,79.65,79.65,0.0,0.0
1630870985.40027523,123828782,0.54,0.57,-18.23,-18.24,79.65,79.65,0.0,0.0
1630870985.50023508,123928742,0.51,0.52,-18.22,-18.23,79.65,79.65,0.0,0.0
1630870985.60019517,124028702,0.48,0.49,-18.21,-18.23,79.65,79.65,0.0,0.0
1630870985.70015526,124128662,0.48,0.46,-18.2,-18.22,79.65,79.65,0.0,0.0
1630870985.80011511,124228622,0.5,0.45,-18.21,-18.21,79.65,79.66,0.0,0.0
1630870985.90007520,124328582,0.51,0.46,-18.23,-18.22,79.65,79.66,0.0,0.0
1630870986.00003505,124428542,0.5,0.47,-18.23,-18.23,79.65,79.66,0.0,0.0
1630870986.09999514,124528502,0.52,0.49,-18.21,-18.23,79.65,79.66,0.0,0.0
1630870986.19995522,124628462,0.53,0.51,-18.2,-18.21,79.65,79.66,0.0,0.0
1630870986.29991508,124728422,0.56,0.53,-18.18,-18.19,79.65,79.67,0.0,0.0
1630870986.39987516,124828382,0.6,0.57,-18.17,-18.18,79.65,79.67,0.0,0.0
1630870986.49983525,124928342,0.61,0.61,-18.16,-18.17,79.66,79.67,0.0,0.0
1630870986.59979510,125028302,0.6,0.62,-18.17,-18.17,79.66,79.67,0.0,0.0
1630870986.69975519,125128262,0.58,0.61,-18.17,-18.17,79.66,79.67,0.0,0.0
1630870986.79971504,125228222,0.57,0.59,-18.19,-18.18,79.66,79.67,0.0,0.0
1630870986.89967513,125328182,0.54,0.56,-18.2,-18.2,79.66,79.67,0.0,0.0
1630870987.00046825,125428975,0.52,0.52,-18.19,-18.2,79.66,79.67,0.0,0.0
1630870987.10042810,125528935,0.51,0.49,-18.16,-18.2,79.66,79.67,0.0,0.0
1630870987.20038819,125628895,0.53,0.5,-18.15,-18.18,79.66,79.67,0.0,0.0
1630870987.30034804,125728855,0.57,0.54,-18.13,-18.16,79.66,79.67,0.0,0.0
1630870987.40030813,125828815,0.58,0.58,-18.12,-18.14,79.66,79.67,0.0,0.0
1630870987.50026822,125928775,0.58,0.6,-18.14,-18.13,79.66,79.67,0.0,0.0
1630870987.60022807,126028735,0.58,0.6,-18.16,-18.14,79.66,79.66,0.0,0.0
1630870987.70018816,126128695,0.58,0.59,-18.18,-18.17,79.65,79.66,0.0,0.0
1630870987.80014825,126228655,0.58,0.58,-18.19,-18.18,79.65,79.66,0.0,0.0
1630870987.90010810,126328615,0.58,0.57,-18.2,-18.2,79.65,79.65,0.0,0.0
1630870988.00006819,126428575,0.58,0.56,-18.2,-18.21,79.65,79.65,0.0,0.0
1630870988.10002804,126528535,0.55,0.55,-18.21,-18.22,79.65,79.65,0.0,0.0
1630870988.19998813,126628495,0.5,0.51,-18.24,-18.25,79.65,79.65,0.0,0.0
1630870988.29994822,126728455,0.49,0.47,-18.26,-18.27,79.64,79.65,0.0,0.0
1630870988.39990807,126828415,0.53,0.48,-18.26,-18.28,79.64,79.65,0.0,0.0
1630870988.49986815,126928375,0.54,0.5,-18.25,-18.27,79.64,79.65,0.0,0.0
1630870988.59982824,127028335,0.56,0.53,-18.25,-18.27,79.63,79.64,0.0,0.0
1630870988.69978809,127128295,0.56,0.54,-18.27,-18.28,79.63,79.64,0.0,0.0
1630870988.79974818,127228255,0.53,0.53,-18.28,-18.29,79.63,79.64,0.0,0.0
1630870988.89970803,127328215,0.51,0.51,-18.28,-18.3,79.63,79.63,0.0,0.0
1630870988.99966812,127428175,0.52,0.49,-18.24,-18.29,79.63,79.63,0.0,0.0
1630870989.10046124,127528968,0.52,0.49,-18.19,-18.24,79.62,79.63,0.0,0.0
1630870989.20042109,127628928,0.52,0.49,-18.16,-18.19,79.62,79.62,0.0,0.0
1630870989.30038118,127728888,0.52,0.49,-18.17,-18.16,79.62,79.62,0.0,0.0
1630870989.40034103,127828848,0.52,0.49,-18.21,-18.18,79.62,79.62,0.0,0.0
1630870989.50030112,127928808,0.53,0.5,-18.23,-18.21,79.62,79.63,0.0,0.0
1630870989.60026121,128028768,0.54,0.52,-18.23,-18.24,79.62,79.63,0.0,0.0
1630870989.70022106,128128728,0.55,0.53,-18.23,-18.24,79.62,79.63,0.0,0.0
1630870989.80018115,128228688,0.55,0.54,-18.24,-18.25,79.62,79.63,0.0,0.0
1630870989.90014124,128328648,0.53,0.54,-18.23,-18.25,79.62,79.63,0.0,0.0
1630870990.00010109,128428608,0.52,0.52,-18.23,-18.25,79.62,79.63,0.0,0.0
1630870990.10006118,128528568,0.54,0.53,-18.22,-18.24,79.61,79.63,0.0,0.0
1630870990.20002127,128628528,0.55,0.54,-18.2,-18.22,79.62,79.62,0.0,0.0
1630870990.29998112,128728488,0.58,0.56,-18.18,-18.2,79.62,79.62,0.0,0.0
1630870990.39994121,128828448,0.62,0.59,-18.15,-18.17,79.62,79.61,0.0,0.0
1630870990.49990106,128928408,0.64,0.63,-18.15,-18.16,79.62,79.61,0.0,0.0
1630870990.59986115,129028368,0.61,0.63,-18.15,-18.16,79.62,79.61,0.0,0.01
1630870990.69982123,129128328,0.58,0.59,-18.15,-18.16,79.62,79.62,0.0,0.01
1630870990.79978108,129228288,0.58,0.58,-18.16,-18.17,79.63,79.62,0.0,0.01
1630870990.89974117,129328248,0.57,0.57,-18.13,-18.16,79.63,79.62,0.0,0.01
1630870990.99970126,129428208,0.57,0.56,-18.12,-18.14,79.63,79.63,0.0,0.01
1630870991.09966111,129528168,0.56,0.55,-18.16,-18.16,79.63,79.63,0.0,0.01
1630870991.20045424,129628961,0.58,0.55,-18.18,-18.19,79.63,79.63,0.0,0.01
1630870991.30041409,129728921,0.6,0.57,-18.19,-18.21,79.63,79.63,0.0,0.01
1630870991.40037417,129828881,0.59,0.58,-18.2,-18.23,79.63,79.63,0.0,0.01
1630870991.50033426,129928841,0.55,0.57,-18.2,-18.23,79.63,79.63,0.0,0.01
1630870991.60029411,130028801,0.51,0.52,-18.19,-18.23,79.63,79.63,0.0,0.01
1630870991.70025420,130128761,0.53,0.49,-18.18,-18.22,79.63,79.64,0.0,0.01
1630870991.80021405,130228721,0.56,0.51,-18.18,-18.2,79.63,79.64,0.0,0.01
1630870991.90017414,130328681,0.56,0.53,-18.19,-18.19,79.63,79.64,0.0,0.01
1630870992.00013423,130428641,0.57,0.55,-18.19,-18.18,79.63,79.64,0.0,0.01
1630870992.10009408,130528601,0.58,0.56,-18.21,-18.19,79.63,79.64,0.0,0.01
1630870992.20005417,130628561,0.56,0.56,-18.23,-18.21,79.63,79.64,0.0,0.01
1630870992.30001426,130728521,0.54,0.54,-18.24,-18.23,79.63,79.63,0.0,0.01
1630870992.39997411,130828481,0.52,0.52,-18.24,-18.24,79.63,79.63,0.0,0.01
1630870992.49993420,130928441,0.53,0.51,-18.24,-18.25,79.63,79.63,0.0,0.01
1630870992.59989405,131028401,0.54,0.5,-18.22,-18.25,79.63,79.62,0.0,0.01
1630870992.69985414,131128361,0.55,0.52,-18.2,-18.23,79.63,79.62,0.0,0.01
1630870992.79981422,131228321,0.55,0.53,-18.18,-18.2,79.63,79.62,0.0,0.01
1630870992.89977407,131328281,0.54,0.53,-18.18,-18.19,79.63,79.62,0.0,0.01
1630870992.99973416,131428241,0.51,0.52,-18.2,-18.19,79.63,79.62,0.0,0.01
1630870993.09969425,131528201,0.51,0.5,-18.2,-18.2,79.63,79.63,0.0,0.01
1630870993.19965410,131628161,0.54,0.52,-18.19,-18.2,79.63,79.63,0.0,0.01
1630870993.30044723,131728954,0.55,0.54,-18.17,-18.19,79.64,79.63,0.0,0.01
1630870993.40040708,131828914,0.57,0.56,-18.16,-18.17,79.64,79.63,0.0,0.01
1630870993.50036716,131928874,0.57,0.57,-18.15,-18.15,79.64,79.63,0.0,0.01
1630870993.60032725,132028834,0.57,0.57,-18.16,-18.15,79.64,79.64,0.0,0.01
1630870993.70028710,132128794,0.57,0.57,-18.16,-18.16,79.65,79.64,0.0,0.01
1630870993.80024719,132228754,0.56,0.56,-18.14,-18.16,79.65,79.64,0.0,0.01
1630870993.90020704,132328714,0.58,0.56,-18.13,-18.14,79.65,79.65,0.0,0.01
1630870994.00016713,132428674,0.59,0.56,-18.12,-18.12,79.66,79.65,0.0,0.01
1630870994.10012722,132528634,0.62,0.59,-18.12,-18.12,79.66,79.65,0.0,0.01
1630870994.20008707,132628594,0.63,0.62,-18.13,-18.13,79.66,79.66,0.0,0.01
1630870994.30004716,132728554,0.61,0.62,-18.15,-18.16,79.67,79.66,0.0,0.01
1630870994.40000725,132828514,0.6,0.6,-18.18,-18.19,79.67,79.66,0.0,0.01
1630870994.49996710,132928474,0.61,0.6,-18.19,-18.21,79.67,79.66,0.0,0.01
1630870994.59992719,133028434,0.6,0.59,-18.2,-18.22,79.67,79.67,0.0,0.01
1630870994.69988704,133128394,0.61,0.59,-18.2,-18.23,79.67,79.67,0.0,0.01
1630870994.79984713,133228354,0.63,0.6,-18.18,-18.21,79.68,79.67,0.0,0.01
1630870994.89980721,133328314,0.62,0.61,-18.18,-18.19,79.68,79.68,0.0,0.01
1630870994.99976707,133428274,0.59,0.6,-18.17,-18.19,79.68,79.68,0.0,0.01
1630870995.09972715,133528234,0.57,0.57,-18.15,-18.17,79.68,79.68,0.0,0.01
1630870995.19968724,133628194,0.57,0.55,-18.15,-18.16,79.68,79.68,0.0,0.01
1630870995.29964709,133728154,0.61,0.57,-18.15,-18.15,79.68,79.68,0.0,0.01
1630870995.40044022,133828947,0.64,0.61,-18.13,-18.14,79.68,79.68,0.0,0.01
1630870995.50040007,133928907,0.64,0.64,-18.12,-18.13,79.69,79.68,0.0,0.01
1630870995.60036016,134028867,0.63,0.63,-18.16,-18.15,79.69,79.68,0.0,0.01
1630870995.70032024,134128827,0.65,0.64,-18.2,-18.2,79.69,79.68,0.0,0.01
1630870995.80028009,134228787,0.65,0.65,-18.21,-18.23,79.69,79.68,0.0,0.01
1630870995.90024018,134328747,0.65,0.65,-18.18,-18.22,79.69,79.68,0.0,0.01
1630870996.00020003,134428707,0.65,0.65,-18.16,-18.19,79.69,79.68,0.0,0.01
1630870996.10016012,134528667,0.66,0.65,-18.18,-18.19,79.69,79.68,0.0,0.01
1630870996.20012021,134628627,0.67,0.65,-18.21,-18.21,79.7,79.69,0.0,0.01
1630870996.30008006,134728587,0.69,0.67,-18.22,-18.23,79.7,79.69,0.0,0.01
