timestamp,TimeUS,DesRoll,Roll,DesPitch,Pitch,DesYaw,Yaw,ErrRP,ErrYaw
1630877435.40000010,39828229,0.0,0.08,0.0,0.06,352.9,352.91,0.0,0.0
1630877435.49996018,39928189,0.0,0.08,0.0,0.06,352.89,352.9,0.0,0.0
1630877435.60075307,40028982,0.0,0.08,0.0,0.06,352.89,352.9,0.0,0.0
1630877435.70071316,40128942,0.0,0.08,0.0,0.06,352.89,352.9,0.0,0.0
1630877435.80067325,40228902,0.0,0.08,0.0,0.06,352.89,352.9,0.0,0.0
1630877435.90063310,40328862,0.0,0.08,0.0,0.06,352.89,352.9,0.0,0.0
1630877436.00059319,40428822,0.0,0.08,0.0,0.06,352.89,352.9,0.0,0.0
1630877436.10055304,40528782,0.0,0.08,0.0,0.07,352.89,352.9,0.0,0.0
1630877436.20051312,40628742,0.0,0.09,0.0,0.07,352.89,352.9,0.0,0.0
1630877436.30047321,40728702,0.0,0.09,0.0,0.07,352.89,352.9,0.0,0.0
1630877436.40043306,40828662,0.0,0.09,0.0,0.07,352.89,352.9,0.0,0.0
1630877436.50039315,40928622,0.0,0.09,0.0,0.07,352.89,352.9,0.0,0.0
1630877436.60035324,41028582,0.0,0.09,0.0,0.07,352.89,352.9,0.0,0.0
1630877436.70031309,41128542,0.0,0.09,0.0,0.08,352.89,352.9,0.0,0.0
1630877436.80027318,41228502,0.0,0.09,0.0,0.08,352.89,352.9,0.0,0.0
1630877436.90023303,41328462,0.0,0.1,0.0,0.08,352.89,352.9,0.0,0.0
1630877437.00019312,41428422,0.0,0.1,0.0,0.08,352.89,352.9,0.0,0.0
1630877437.10015321,41528382,0.0,0.1,0.0,0.08,352.89,352.9,0.0,0.0
1630877437.20011306,41628342,0.0,0.1,0.0,0.08,352.89,352.9,0.0,0.0
1630877437.30007315,41728302,0.0,0.1,0.0,0.08,352.88,352.89,0.0,0.0
1630877437.40003324,41828262,0.0,0.1,0.0,0.08,352.88,352.89,0.0,0.0
1630877437.49999309,41928222,0.0,0.1,0.0,0.08,352.88,352.89,0.0,0.0
1630877437.59995317,42028182,0.0,0.1,0.0,0.08,352.88,352.89,0.0,0.0
1630877437.70074606,42128975,0.0,0.1,0.0,0.08,352.88,352.89,0.0,0.0
1630877437.80070615,42228935,0.0,0.1,0.0,0.08,352.88,352.89,0.0,0.0
1630877437.90066624,42328895,0.0,0.1,0.0,0.09,352.88,352.89,0.0,0.0
1630877438.00062609,42428855,0.0,0.1,0.0,0.09,352.88,352.89,0.0,0.0
1630877438.10058618,42528815,0.0,0.1,0.0,0.09,352.88,352.89,0.0,0.0
1630877438.20054603,42628775,0.0,0.1,0.0,0.08,352.88,352.89,0.0,0.0
1630877438.30050611,42728735,0.0,0.1,0.0,0.09,352.88,352.89,0.0,0.0
1630877438.40046620,42828695,0.0,0.1,0.0,0.08,352.88,352.89,0.0,0.0
1630877438.50042605,42928655,0.0,0.1,0.0,0.08,352.88,352.89,0.0,0.0
1630877438.60038614,43028615,0.0,0.1,0.0,0.08,352.87,352.88,0.0,0.0
1630877438.70034623,43128575,0.0,0.1,0.0,0.08,352.87,352.88,0.0,0.0
1630877438.80030608,43228535,0.0,0.1,0.0,0.08,352.87,352.88,0.0,0.0
1630877438.90026617,43328495,0.0,0.1,0.0,0.08,352.87,352.88,0.0,0.0
1630877439.00022626,43428455,0.0,0.1,0.0,0.08,352.87,352.88,0.0,0.0
1630877439.10018611,43528415,0.0,0.1,0.0,0.08,352.87,352.88,0.0,0.0
1630877439.20014620,43628375,0.0,0.1,0.0,0.08,352.87,352.88,0.0,0.0
1630877439.30010605,43728335,0.0,0.1,0.0,0.08,352.87,352.88,0.0,0.0
1630877439.40006614,43828295,0.0,0.1,0.0,0.08,352.87,352.88,0.0,0.0
1630877439.50002623,43928255,0.0,0.1,0.0,0.08,352.87,352.88,0.0,0.0
1630877439.59998608,44028215,0.0,0.1,0.0,0.08,352.87,352.88,0.0,0.0
1630877439.69994617,44128175,0.0,0.1,0.0,0.08,352.87,352.88,0.0,0.0
1630877439.80073905,44228968,0.0,0.09,0.0,0.08,352.87,352.88,0.0,0.0
1630877439.90069914,44328928,0.0,0.09,0.0,0.08,352.87,352.88,0.0,0.0
1630877440.00065923,44428888,0.0,0.09,0.0,0.07,352.87,352.88,0.0,0.0
1630877440.10061908,44528848,0.0,0.09,0.0,0.07,352.87,352.88,0.0,0.0
1630877440.20057917,44628808,0.0,0.09,0.0,0.07,352.87,352.88,0.0,0.0
1630877440.30053926,44728768,0.0,0.09,0.0,0.07,352.87,352.88,0.0,0.0
1630877440.40049911,44828728,0.0,0.09,0.0,0.07,352.87,352.88,0.0,0.0
1630877440.50045919,44928688,0.0,0.09,0.0,0.07,352.87,352.88,0.0,0.0
1630877440.60041904,45028648,0.0,0.09,0.0,0.07,352.87,352.88,0.0,0.0
1630877440.70037913,45128608,0.0,0.09,0.0,0.07,352.87,352.88,0.0,0.0
1630877440.80033922,45228568,0.0,0.09,0.0,0.07,352.87,352.88,0.0,0.0
1630877440.90029907,45328528,0.0,0.09,0.0,0.07,352.87,352.88,0.0,0.0
1630877441.00025916,45428488,0.0,0.09,0.0,0.07,352.87,352.88,0.0,0.0
1630877441.10021925,45528448,0.0,0.09,0.0,0.07,352.87,352.88,0.0,0.0
1630877441.20017910,45628408,0.0,0.08,0.0,0.07,352.87,352.88,0.0,0.0
1630877441.30013919,45728368,0.0,0.08,0.0,0.07,352.87,352.88,0.0,0.0
1630877441.40009904,45828328,0.0,0.08,0.0,0.07,352.87,352.88,0.0,0.0
1630877441.50005913,45928288,0.0,0.08,0.0,0.07,352.87,352.88,0.0,0.0
1630877441.60001922,46028248,0.0,0.08,0.0,0.07,352.87,352.88,0.0,0.0
1630877441.69997907,46128208,0.0,0.08,0.0,0.07,352.87,352.88,0.0,0.0
1630877441.79993916,46228168,0.0,0.08,0.0,0.07,352.87,352.88,0.0,0.0
1630877441.90073204,46328961,0.0,0.08,0.0,0.07,352.87,352.88,0.0,0.0
1630877442.00069213,46428921,0.0,0.08,0.0,0.07,352.87,352.88,0.0,0.0
1630877442.10065222,46528881,0.0,0.08,0.0,0.07,352.87,352.88,0.0,0.0
1630877442.20061207,46628841,0.0,0.08,0.0,0.07,352.87,352.88,0.0,0.0
1630877442.30057216,46728801,0.0,0.08,0.0,0.06,352.87,352.88,0.0,0.0
1630877442.40053225,46828761,0.0,0.08,0.0,0.06,352.87,352.88,0.0,0.0
1630877442.50049210,46928721,0.0,0.08,0.0,0.06,352.87,352.88,0.0,0.0
1630877442.60045218,47028681,0.0,0.08,0.0,0.06,352.87,352.88,0.0,0.0
1630877442.70041203,47128641,0.0,0.08,0.0,0.06,352.87,352.88,0.0,0.0
1630877442.80037212,47228601,0.0,0.08,0.0,0.06,352.87,352.88,0.0,0.0
1630877442.90033221,47328561,0.0,0.08,0.0,0.06,352.87,352.88,0.0,0.0
1630877443.00029206,47428521,0.0,0.08,0.0,0.06,352.87,352.88,0.0,0.0
1630877443.10025215,47528481,0.0,0.08,0.0,0.06,352.87,352.88,0.0,0.0
1630877443.20021224,47628441,0.0,0.08,0.0,0.06,352.87,352.88,0.0,0.0
1630877443.30017209,47728401,0.0,0.08,0.0,0.06,352.87,352.88,0.0,0.0
1630877443.40013218,47828361,0.0,0.08,0.0,0.06,352.87,352.88,0.0,0.0
1630877443.50009203,47928321,0.0,0.08,0.0,0.06,352.87,352.88,0.0,0.0
1630877443.60005212,48028281,0.0,0.08,0.0,0.06,352.87,352.88,0.0,0.0
1630877443.70001221,48128241,0.0,0.08,0.0,0.06,352.88,352.89,0.0,0.0
1630877443.79997206,48228201,0.0,0.08,0.0,0.06,352.88,352.89,0.0,0.0
1630877443.89993215,48328161,0.0,0.08,0.0,0.06,352.88,352.89,0.0,0.0
1630877444.00072503,48428954,0.0,0.08,0.0,0.06,352.88,352.89,0.0,0.0
1630877444.10068512,48528914,0.0,0.08,0.0,0.06,352.88,352.89,0.0,0.0
1630877444.20064521,48628874,0.0,0.08,0.0,0.06,352.88,352.89,0.0,0.0
1630877444.30060506,48728834,0.0,0.08,0.0,0.07,352.88,352.89,0.0,0.0
1630877444.40056515,48828794,-0.07,0.08,-0.07,0.07,352.88,352.89,0.0,0.0
1630877444.50052524,48928754,-0.03,0.08,-0.04,0.07,352.88,352.89,0.0,0.0
1630877444.60048509,49028714,-0.07,0.08,-0.08,0.07,352.88,352.89,0.0,0.0
1630877444.70044518,49128674,-0.13,0.08,-0.14,0.07,352.88,352.89,0.0,0.0
1630877444.80040526,49228634,-0.18,0.08,-0.18,0.07,352.88,352.89,0.0,0.0
1630877444.90036511,49328594,-0.22,0.08,-0.22,0.07,352.88,352.89,0.0,0.0
1630877445.00032520,49428554,-0.26,0.08,-0.25,0.07,352.88,352.89,0.0,0.0
1630877445.10028505,49528514,-0.28,0.08,-0.28,0.07,352.88,352.89,0.0,0.0
1630877445.20024514,49628474,-0.3,0.08,-0.3,0.07,352.88,352.89,0.0,0.0
1630877445.30020523,49728434,-0.32,0.08,-0.3,0.07,352.88,352.89,0.0,0.0
1630877445.40016508,49828394,-0.35,0.08,-0.3,0.07,352.88,352.89,0.0,0.0
1630877445.50012517,49928354,-0.34,0.08,-0.33,0.07,352.88,352.89,0.0,0.0
1630877445.60008526,50028314,-0.33,0.08,-0.38,0.07,352.88,352.89,0.0,0.0
1630877445.70004511,50128274,-0.35,0.08,-0.41,0.07,352.88,352.89,0.0,0.0
1630877445.80000520,50228234,-0.38,0.08,-0.42,0.07,352.88,352.89,0.0,0.0
1630877445.89996505,50328194,-0.4,0.08,-0.46,0.06,352.88,352.9,0.0,0.0
1630877445.99992514,50428154,-0.45,-0.13,-0.49,-0.15,352.88,352.89,0.0,0.0
1630877446.10071826,50528947,-0.44,-0.43,-0.5,-0.46,352.88,352.89,0.0,0.0
1630877446.20067811,50628907,-0.37,-0.64,-0.43,-0.69,352.88,352.89,0.0,0.0
1630877446.30063820,50728867,-0.23,-0.68,-0.28,-0.73,352.88,352.89,0.0,0.0
1630877446.40059805,50828827,-0.04,-0.57,-0.07,-0.61,352.88,352.89,0.0,0.0
1630877446.50055814,50928787,0.18,-0.34,0.16,-0.36,352.88,352.88,0.0,0.0
1630877446.60051823,51028747,0.36,-0.07,0.32,-0.1,352.88,352.88,0.0,0.0
1630877446.70047808,51128707,0.46,0.14,0.39,0.09,352.88,352.88,0.0,0.0
1630877446.80043817,51228667,0.51,0.28,0.4,0.19,352.88,352.88,0.0,0.0
1630877446.90039825,51328627,0.53,0.35,0.38,0.21,352.88,352.88,0.0,0.0
1630877447.00035810,51428587,0.48,0.34,0.37,0.2,352.88,352.88,0.0,0.0
1630877447.10031819,51528547,0.41,0.27,0.38,0.18,352.88,352.88,0.0,0.0
1630877447.20027804,51628507,0.36,0.2,0.37,0.18,352.88,352.88,0.0,0.0
1630877447.30023813,51728467,0.34,0.15,0.35,0.17,352.88,352.88,0.0,0.0
1630877447.40019822,51828427,0.33,0.14,0.35,0.17,352.88,352.88,0.0,0.0
1630877447.50015807,51928387,0.34,0.14,0.36,0.18,352.88,352.88,0.0,0.0
1630877447.60011816,52028347,0.34,0.16,0.38,0.22,352.88,352.88,0.0,0.0
1630877447.70007825,52128307,0.33,0.18,0.38,0.24,352.77,352.77,0.0,0.0
1630877447.80003810,52228267,0.3,0.18,0.34,0.24,352.77,352.78,0.0,0.0
1630877447.89999819,52328227,0.3,0.19,0.32,0.22,352.77,352.78,0.0,0.0
1630877447.99995804,52428187,0.29,0.19,0.3,0.21,352.77,352.78,0.0,0.0
1630877448.10075116,52528980,0.28,0.2,0.27,0.2,352.77,352.78,0.0,0.0
1630877448.20071125,52628940,0.25,0.19,0.24,0.17,352.77,352.78,0.0,0.0
1630877448.30067110,52728900,0.21,0.15,0.23,0.15,352.77,352.78,0.0,0.0
1630877448.40063119,52828860,0.2,0.13,0.23,0.15,352.77,352.79,0.0,0.0
1630877448.50059104,52928820,0.18,0.13,0.26,0.18,352.77,352.79,0.0,0.0
1630877448.60055113,53028780,0.15,0.11,0.27,0.21,352.77,352.79,0.0,0.0
1630877448.70051122,53128740,0.14,0.09,0.23,0.21,352.77,352.78,0.0,0.0
1630877448.80047107,53228700,0.11,0.07,0.19,0.17,352.77,352.78,0.0,0.0
1630877448.90043116,53328660,0.08,0.05,0.14,0.12,352.77,352.78,0.0,0.0
1630877449.00039124,53428620,0.07,0.03,0.12,0.07,352.77,352.78,0.0,0.0
1630877449.10035110,53528580,0.07,0.02,0.13,0.05,352.77,352.78,0.0,0.0
1630877449.20031118,53628540,0.07,0.02,0.16,0.08,352.77,352.78,0.0,0.0
1630877449.30027103,53728500,0.09,0.04,0.17,0.12,352.77,352.78,0.0,0.0
1630877449.40023112,53828460,0.12,0.07,0.18,0.16,352.77,352.79,0.0,0.0
1630877449.50019121,53928420,0.14,0.11,0.16,0.17,352.77,352.79,0.0,0.0
1630877449.60015106,54028380,0.13,0.13,0.11,0.14,352.77,352.79,0.0,0.0
1630877449.70011115,54128340,0.08,0.12,0.06,0.08,352.77,352.79,0.0,0.0
1630877449.80007124,54228300,0.02,0.06,0.01,0.01,352.77,352.79,0.0,0.0
1630877449.90003109,54328260,-0.01,0.0,-0.01,-0.03,352.77,352.78,0.0,0.0
1630877449.99999118,54428220,0.0,-0.04,0.01,-0.05,352.77,352.78,0.0,0.0
1630877450.09995103,54528180,0.02,-0.03,0.07,0.0,352.77,352.78,0.0,0.0
1630877450.20074415,54628973,0.04,0.0,0.08,0.04,352.77,352.78,0.0,0.0
1630877450.30070424,54728933,0.06,0.02,0.05,0.04,352.77,352.78,0.0,0.0
1630877450.40066409,54828893,0.11,0.06,0.03,0.03,352.77,352.78,0.0,0.0
1630877450.50062418,54928853,0.12,0.1,0.01,0.01,352.77,352.78,0.0,0.0
1630877450.60058403,55028813,0.11,0.12,0.0,0.0,352.77,352.78,0.0,0.0
1630877450.70054412,55128773,0.06,0.09,0.0,0.0,352.77,352.78,0.0,0.0
1630877450.80050421,55228733,0.03,0.06,-0.02,-0.01,352.77,352.78,0.0,0.0
1630877450.90046406,55328693,0.02,0.03,0.0,-0.01,352.77,352.78,0.0,0.0
1630877451.00042415,55428653,0.04,0.02,0.07,0.02,352.77,352.78,0.0,0.0
1630877451.10038424,55528613,0.08,0.06,0.08,0.07,352.77,352.78,0.0,0.0
1630877451.20034409,55628573,0.1,0.09,0.08,0.09,352.77,352.77,0.0,0.0
1630877451.30030417,55728533,0.09,0.11,0.06,0.09,352.77,352.77,0.0,0.0
1630877451.40026426,55828493,0.07,0.09,0.05,0.07,352.77,352.77,0.0,0.0
1630877451.50022411,55928453,0.08,0.08,0.05,0.05,352.77,352.77,0.0,0.0
1630877451.60018420,56028413,0.1,0.08,0.05,0.04,352.77,352.77,0.0,0.0
1630877451.70014405,56128373,0.11,0.09,0.06,0.03,352.77,352.77,0.0,0.0
1630877451.80010414,56228333,0.13,0.1,0.05,0.03,352.77,352.78,0.0,0.0
1630877451.90006423,56328293,0.13,0.11,0.05,0.03,352.77,352.78,0.0,0.0
1630877452.00002408,56428253,0.12,0.1,0.07,0.05,352.77,352.78,0.0,0.0
1630877452.09998417,56528213,0.13,0.1,0.09,0.08,352.77,352.78,0.0,0.0
1630877452.19994426,56628173,0.15,0.12,0.1,0.09,352.77,352.78,0.0,0.0
1630877452.30073714,56728966,0.17,0.14,0.1,0.11,352.77,352.78,0.0,0.0
1630877452.40069723,56828926,0.17,0.16,0.1,0.12,352.77,352.78,0.0,0.0
1630877452.50065708,56928886,0.14,0.16,0.11,0.12,352.77,352.78,0.0,0.0
1630877452.60061717,57028846,0.13,0.14,0.12,0.13,352.77,352.78,0.0,0.0
1630877452.70057726,57128806,0.11,0.11,0.14,0.13,352.77,352.78,0.0,0.0
1630877452.80053711,57228766,0.1,0.09,0.15,0.14,352.77,352.78,0.0,0.0
1630877452.90049720,57328726,0.11,0.09,0.18,0.15,352.77,352.78,0.0,0.0
1630877453.00045705,57428686,0.11,0.09,0.2,0.19,352.77,352.78,0.0,0.0
1630877453.10041714,57528646,0.08,0.08,0.22,0.21,352.77,352.78,0.0,0.0
1630877453.20037723,57628606,0.08,0.06,0.2,0.22,352.77,352.78,0.0,0.0
1630877453.30033708,57728566,0.12,0.09,0.21,0.22,352.77,352.78,0.0,0.0
1630877453.40029716,57828526,0.13,0.12,0.22,0.22,352.77,352.78,0.0,0.0
1630877453.50025725,57928486,0.13,0.13,0.2,0.21,352.77,352.78,0.0,0.0
1630877453.60021710,58028446,0.11,0.12,0.17,0.18,352.77,352.78,0.0,0.0
1630877453.70017719,58128406,0.07,0.09,0.13,0.13,352.77,352.78,0.0,0.0
1630877453.80013704,58228366,0.05,0.06,0.11,0.1,352.77,352.79,0.0,0.0
1630877453.90009713,58328326,0.03,0.03,0.11,0.08,352.77,352.79,0.0,0.0
1630877454.00005722,58428286,0.04,0.02,0.11,0.08,352.77,352.78,0.0,0.0
1630877454.10001707,58528246,0.05,0.03,0.12,0.09,352.77,352.78,0.0,0.0
1630877454.19997716,58628206,0.05,0.04,0.11,0.1,352.77,352.78,0.0,0.0
1630877454.29993725,58728166,0.06,0.05,0.13,0.11,352.77,352.78,0.0,0.0
1630877454.40073013,58828959,0.05,0.05,0.12,0.12,352.77,352.78,0.0,0.0
1630877454.50069022,58928919,0.06,0.05,0.08,0.1,352.77,352.78,0.0,0.0
1630877454.60065007,59028879,0.09,0.07,0.02,0.05,352.77,352.78,0.0,0.0
1630877454.70061016,59128839,0.11,0.1,0.0,0.0,352.77,352.78,0.0,0.0
1630877454.80057025,59228799,0.12,0.12,-0.02,-0.04,352.77,352.78,0.0,0.0
1630877454.90053010,59328759,0.14,0.13,0.0,-0.05,352.77,352.78,0.0,0.0
1630877455.00049019,59428719,0.14,0.14,0.03,-0.02,352.77,352.78,0.0,0.0
1630877455.10045004,59528679,0.13,0.14,0.03,0.0,352.77,352.78,0.0,0.0
1630877455.20041013,59628639,0.12,0.13,0.04,0.02,352.77,352.78,0.0,0.0
1630877455.30037022,59728599,0.09,0.11,0.02,0.03,352.77,352.78,0.0,0.0
1630877455.40033007,59828559,0.06,0.08,0.02,0.03,352.77,352.78,0.0,0.0
1630877455.50029016,59928519,0.07,0.05,0.0,0.02,352.77,352.79,0.0,0.0
1630877455.60025024,60028479,0.1,0.06,0.0,0.0,352.77,352.78,0.0,0.0
1630877455.70021009,60128439,0.09,0.08,-0.02,-0.01,352.77,352.78,0.0,0.0
1630877455.80017018,60228399,0.09,0.09,0.0,-0.01,352.77,352.78,0.0,0.0
1630877455.90013003,60328359,0.08,0.09,0.04,0.01,352.77,352.78,0.0,0.0
1630877456.00009012,60428319,0.08,0.07,0.07,0.05,352.77,352.78,0.0,0.0
1630877456.10005021,60528279,0.07,0.07,0.07,0.08,352.77,352.78,0.0,0.0
1630877456.20001006,60628239,0.07,0.06,0.05,0.08,352.77,352.78,0.0,0.0
1630877456.29997015,60728199,0.09,0.06,0.02,0.06,352.77,352.78,0.0,0.0
1630877456.39993024,60828159,0.13,0.08,0.04,0.03,352.77,352.78,0.0,0.0
1630877456.50072312,60928952,0.13,0.11,0.01,0.02,352.77,352.78,0.0,0.0
1630877456.60068321,61028912,0.11,0.11,0.01,0.0,352.77,352.78,0.0,0.0
1630877456.70064306,61128872,0.09,0.1,0.02,0.0,352.77,352.78,0.0,0.0
1630877456.80060315,61228832,0.1,0.1,0.05,0.02,352.77,352.78,0.0,0.0
1630877456.90056324,61328792,0.13,0.11,0.06,0.04,352.77,352.78,0.0,0.0
1630877457.00052309,61428752,0.14,0.13,0.07,0.06,352.77,352.78,0.0,0.0
1630877457.10048318,61528712,0.12,0.13,0.07,0.07,352.77,352.78,0.0,0.0
1630877457.20044303,61628672,0.12,0.12,0.06,0.06,352.77,352.78,0.0,0.0
1630877457.30040312,61728632,0.14,0.13,0.07,0.07,352.77,352.78,0.0,0.0
1630877457.40036321,61828592,0.13,0.14,0.1,0.08,352.77,352.79,0.0,0.0
1630877457.50032306,61928552,0.15,0.15,0.09,0.09,352.77,352.79,0.0,0.0
1630877457.60028315,62028512,0.14,0.15,0.05,0.07,352.77,352.79,0.0,0.0
1630877457.70024323,62128472,0.1,0.11,0.04,0.04,352.77,352.78,0.0,0.0
1630877457.80020308,62228432,0.1,0.07,0.07,0.04,352.77,352.78,0.0,0.0
1630877457.90016317,62328392,0.14,0.09,0.1,0.06,352.77,352.78,0.0,0.0
1630877458.00012326,62428352,0.16,0.13,0.13,0.1,352.77,352.78,0.0,0.0
1630877458.10008311,62528312,0.17,0.16,0.15,0.14,352.77,352.78,0.0,0.0
1630877458.20004320,62628272,0.14,0.16,0.13,0.15,352.77,352.78,0.0,0.0
1630877458.30000305,62728232,0.09,0.12,0.1,0.13,352.77,352.78,0.0,0.0
1630877458.39996314,62828192,0.07,0.09,0.08,0.09,352.77,352.78,0.0,0.0
1630877458.50075626,62928985,0.06,0.06,0.07,0.06,352.77,352.78,0.0,0.0
1630877458.60071611,63028945,0.06,0.04,0.07,0.04,352.77,352.78,0.0,0.0
1630877458.70067620,63128905,0.04,0.03,0.1,0.06,352.77,352.78,0.0,0.0
1630877458.80063605,63228865,0.04,0.03,0.12,0.09,352.77,352.78,0.0,0.0
1630877458.90059614,63328825,0.02,0.02,0.17,0.13,352.77,352.78,0.0,0.0
1630877459.00055623,63428785,0.03,0.02,0.22,0.19,352.77,352.78,0.0,0.0
1630877459.10051608,63528745,0.06,0.04,0.23,0.23,352.77,352.78,0.0,0.0
1630877459.20047617,63628705,0.07,0.05,0.21,0.23,352.77,352.78,0.0,0.0
1630877459.30043626,63728665,0.09,0.07,0.2,0.22,352.77,352.78,0.0,0.0
1630877459.40039611,63828625,0.11,0.09,0.19,0.21,352.77,352.78,0.0,0.0
1630877459.50035620,63928585,0.12,0.11,0.16,0.18,352.77,352.78,0.0,0.0
1630877459.60031605,64028545,0.11,0.11,0.14,0.15,352.77,352.78,0.0,0.0
1630877459.70027614,64128505,0.1,0.11,0.15,0.13,352.77,352.77,0.0,0.0
1630877459.80023623,64228465,0.09,0.1,0.15,0.14,352.77,352.77,0.0,0.0
1630877459.90019608,64328425,0.08,0.09,0.11,0.12,352.77,352.77,0.0,0.0
1630877460.00015616,64428385,0.08,0.08,0.09,0.11,352.77,352.77,0.0,0.0
1630877460.10011625,64528345,0.07,0.07,0.08,0.09,352.77,352.77,0.0,0.0
1630877460.20007610,64628305,0.1,0.08,0.08,0.07,352.77,352.77,0.0,0.0
1630877460.30003619,64728265,0.12,0.11,0.08,0.07,352.77,352.78,0.0,0.0
1630877460.39999604,64828225,0.11,0.11,0.06,0.06,352.77,352.78,0.0,0.0
1630877460.49995613,64928185,0.13,0.12,0.06,0.05,352.77,352.78,0.0,0.0
1630877460.60074925,65028978,0.13,0.13,0.06,0.04,352.77,352.79,0.0,0.0
1630877460.70070910,65128938,0.14,0.14,0.07,0.05,352.77,352.79,0.0,0.0
1630877460.80066919,65228898,0.17,0.16,0.08,0.05,352.77,352.79,0.0,0.0
1630877460.90062904,65328858,0.15,0.16,0.1,0.06,352.77,352.79,0.0,0.0
1630877461.00058913,65428818,0.09,0.12,0.14,0.1,352.77,352.79,0.0,0.0
1630877461.10054922,65528778,0.06,0.07,0.17,0.15,352.77,352.78,0.0,0.0
1630877461.20050907,65628738,0.05,0.04,0.17,0.19,352.77,352.78,0.0,0.0
1630877461.30046916,65728698,0.07,0.04,0.13,0.17,352.77,352.78,0.0,0.0
1630877461.40042925,65828658,0.08,0.05,0.1,0.14,352.77,352.77,0.0,0.0
1630877461.50038910,65928618,0.08,0.06,0.07,0.1,352.77,352.77,0.0,0.0
1630877461.60034919,66028578,0.09,0.08,0.04,0.06,352.77,352.77,0.0,0.0
1630877461.70030904,66128538,0.08,0.08,0.01,0.02,352.77,352.77,0.0,0.0
1630877461.80026913,66228498,0.06,0.05,0.01,0.0,352.77,352.77,0.0,0.0
1630877461.90022922,66328458,0.05,0.03,0.04,0.0,352.77,352.77,0.0,0.0
1630877462.00018907,66428418,0.07,0.03,0.07,0.02,352.77,352.77,0.0,0.0
1630877462.10014915,66528378,0.07,0.04,0.1,0.06,352.77,352.78,0.0,0.0
1630877462.20010924,66628338,0.09,0.05,0.12,0.1,352.77,352.78,0.0,0.0
1630877462.30006909,66728298,0.09,0.07,0.12,0.12,352.77,352.78,0.0,0.0
1630877462.40002918,66828258,0.09,0.08,0.12,0.12,352.77,352.78,0.0,0.0
1630877462.49998903,66928218,0.1,0.1,0.08,0.1,352.77,352.78,0.0,0.0
1630877462.59994912,67028178,0.08,0.09,0.05,0.07,352.77,352.78,0.0,0.0
1630877462.70074224,67128971,0.06,0.07,0.04,0.04,352.77,352.78,0.0,0.0
1630877462.80070210,67228931,0.06,0.06,0.08,0.06,352.77,352.78,0.0,0.0
1630877462.90066218,67328891,0.11,0.09,0.11,0.09,352.77,352.78,0.0,0.0
1630877463.00062203,67428851,0.16,0.12,0.13,0.12,352.77,352.78,0.0,0.0
1630877463.10058212,67528811,0.2,0.17,0.12,0.14,352.77,352.78,0.0,0.0
1630877463.20054221,67628771,0.18,0.19,0.11,0.13,352.77,352.78,0.0,0.0
1630877463.30050206,67728731,0.19,0.19,0.12,0.12,352.77,352.79,0.0,0.0
1630877463.40046215,67828691,0.19,0.19,0.1,0.11,352.77,352.79,0.0,0.0
1630877463.50042224,67928651,0.17,0.18,0.09,0.08,352.77,352.79,0.0,0.0
1630877463.60038209,68028611,0.14,0.16,0.11,0.08,352.77,352.79,0.0,0.0
1630877463.70034218,68128571,0.11,0.13,0.12,0.1,352.77,352.79,0.0,0.0
1630877463.80030203,68228531,0.11,0.11,0.14,0.12,352.77,352.79,0.0,0.0
1630877463.90026212,68328491,0.13,0.1,0.16,0.14,352.77,352.79,0.0,0.0
1630877464.00022221,68428451,0.17,0.12,0.16,0.15,352.77,352.79,0.0,0.0
1630877464.10018206,68528411,0.19,0.16,0.15,0.15,352.77,352.79,0.0,0.0
1630877464.20014215,68628371,0.19,0.18,0.14,0.15,352.77,352.79,0.0,0.0
1630877464.30010223,68728331,0.18,0.18,0.11,0.12,352.77,352.78,0.0,0.0
1630877464.40006208,68828291,0.14,0.16,0.08,0.09,352.77,352.78,0.0,0.0
1630877464.50002217,68928251,0.14,0.14,0.08,0.07,352.77,352.78,0.0,0.0
1630877464.59998226,69028211,0.14,0.13,0.11,0.08,352.77,352.78,0.0,0.0
1630877464.69994211,69128171,0.14,0.13,0.12,0.11,352.77,352.78,0.0,0.0
1630877464.80073524,69228964,0.15,0.14,0.13,0.12,352.77,352.78,0.0,0.0
1630877464.90069509,69328924,0.15,0.15,0.16,0.14,352.77,352.78,0.0,0.0
1630877465.00065517,69428884,0.11,0.13,0.16,0.17,352.77,352.78,0.0,0.0
1630877465.10061526,69528844,0.09,0.09,0.14,0.16,352.77,352.78,0.0,0.0
1630877465.20057511,69628804,0.11,0.09,0.14,0.14,352.77,352.78,0.0,0.0
1630877465.30053520,69728764,0.14,0.11,0.12,0.13,352.77,352.78,0.0,0.0
1630877465.40049505,69828724,0.15,0.14,0.11,0.11,352.77,352.78,0.0,0.0
1630877465.50045514,69928684,0.13,0.14,0.14,0.11,352.77,352.78,0.0,0.0
1630877465.60041523,70028644,0.09,0.11,0.14,0.13,352.77,352.78,0.0,0.0
1630877465.70037508,70128604,0.08,0.08,0.11,0.12,352.77,352.78,0.0,0.0
1630877465.80033517,70228564,0.1,0.08,0.08,0.09,352.77,352.78,0.0,0.0
1630877465.90029526,70328524,0.16,0.12,0.07,0.07,352.77,352.78,0.0,0.0
1630877466.00025511,70428484,0.17,0.16,0.06,0.05,352.77,352.78,0.0,0.0
1630877466.10021520,70528444,0.15,0.17,0.06,0.04,352.77,352.78,0.0,0.0
1630877466.20017505,70628404,0.13,0.15,0.08,0.05,352.77,352.78,0.0,0.0
1630877466.30013514,70728364,0.11,0.11,0.06,0.05,352.77,352.79,0.0,0.0
1630877466.40009522,70828324,0.09,0.09,0.03,0.03,352.77,352.79,0.0,0.0
1630877466.50005507,70928284,0.09,0.08,0.03,0.01,352.77,352.78,0.0,0.0
1630877466.60001516,71028244,0.09,0.07,0.04,0.02,352.77,352.78,0.0,0.0
1630877466.69997525,71128204,0.07,0.07,0.06,0.04,352.77,352.78,0.0,0.0
1630877466.79993510,71228164,0.04,0.05,0.06,0.06,352.77,352.78,0.0,0.0
1630877466.90072823,71328957,0.04,0.04,0.05,0.05,352.77,352.77,0.0,0.0
1630877467.00068808,71428917,0.06,0.04,0.04,0.03,352.77,352.77,0.0,0.0
1630877467.10064816,71528877,0.09,0.07,0.03,0.02,352.77,352.78,0.0,0.0
1630877467.20060825,71628837,0.1,0.09,0.04,0.03,352.77,352.78,0.0,0.0
1630877467.30056810,71728797,0.12,0.1,0.05,0.04,352.77,352.78,0.0,0.0
1630877467.40052819,71828757,0.14,0.12,0.08,0.06,352.77,352.78,0.0,0.0
1630877467.50048804,71928717,0.12,0.13,0.09,0.09,352.77,352.78,0.0,0.0
1630877467.60044813,72028677,0.08,0.09,0.05,0.07,352.77,352.78,0.0,0.0
1630877467.70040822,72128637,0.05,0.06,0.02,0.03,352.77,352.78,0.0,0.0
1630877467.80036807,72228597,0.05,0.03,0.03,0.02,352.77,352.78,0.0,0.0
1630877467.90032816,72328557,0.05,0.02,0.05,0.03,352.77,352.77,0.0,0.0
1630877468.00028825,72428517,0.07,0.04,0.07,0.05,352.77,352.77,0.0,0.0
1630877468.10024810,72528477,0.09,0.07,0.09,0.08,352.77,352.77,0.0,0.0
1630877468.20020819,72628437,0.08,0.09,0.09,0.1,352.77,352.77,0.0,0.0
1630877468.30016804,72728397,0.02,0.06,0.13,0.11,352.77,352.77,0.0,0.0
1630877468.40012813,72828357,-0.02,0.0,0.15,0.14,352.77,352.78,0.0,0.0
1630877468.50008821,72928317,-0.04,-0.05,0.13,0.15,352.77,352.78,0.0,0.0
1630877468.60004807,73028277,0.0,-0.05,0.11,0.13,352.77,352.78,0.0,0.0
1630877468.70000815,73128237,0.05,-0.01,0.11,0.1,352.77,352.78,0.0,0.0
1630877468.79996824,73228197,0.08,0.03,0.09,0.08,352.77,352.79,0.0,0.0
1630877468.89992809,73328157,0.1,0.07,0.08,0.06,352.77,352.79,0.0,0.0
1630877469.00072122,73428950,0.12,0.11,0.11,0.07,352.77,352.79,0.0,0.0
1630877469.10068107,73528910,0.14,0.13,0.13,0.11,352.77,352.79,0.0,0.0
1630877469.20064116,73628870,0.13,0.14,0.13,0.13,352.77,352.79,0.0,0.0
1630877469.30060124,73728830,0.17,0.16,0.11,0.13,352.77,352.78,0.0,0.0
1630877469.40056109,73828790,0.19,0.19,0.08,0.1,352.77,352.78,0.0,0.0
1630877469.50052118,73928750,0.18,0.2,0.08,0.08,352.77,352.78,0.0,0.0
1630877469.60048103,74028710,0.15,0.18,0.09,0.08,352.77,352.77,0.0,0.0
1630877469.70044112,74128670,0.16,0.16,0.11,0.09,352.77,352.77,0.0,0.0
1630877469.80040121,74228630,0.18,0.16,0.15,0.12,352.77,352.77,0.0,0.0
1630877469.90036106,74328590,0.19,0.18,0.15,0.14,352.77,352.77,0.0,0.0
1630877470.00032115,74428550,0.18,0.18,0.14,0.14,352.77,352.77,0.0,0.0
1630877470.10028124,74528510,0.18,0.18,0.11,0.13,352.77,352.77,0.0,0.0
1630877470.20024109,74628470,0.17,0.18,0.06,0.09,352.77,352.77,0.0,0.0
1630877470.30020118,74728430,0.19,0.18,0.04,0.05,352.77,352.77,0.0,0.0
1630877470.40016103,74828390,0.2,0.19,0.02,0.03,352.77,352.77,0.0,0.0
1630877470.50012112,74928350,0.16,0.19,0.01,0.0,352.77,352.77,0.0,0.0
1630877470.60008121,75028310,0.13,0.15,0.04,0.01,352.77,352.78,0.0,0.0
1630877470.70004106,75128270,0.13,0.13,0.06,0.03,352.77,352.78,0.0,0.0
1630877470.80000114,75228230,0.16,0.14,0.05,0.03,352.77,352.78,0.0,0.0
1630877470.89996123,75328190,0.18,0.17,0.06,0.04,352.77,352.77,0.0,0.0
1630877471.00075412,75428983,0.22,0.19,0.07,0.06,352.77,352.77,0.0,0.0
1630877471.10071421,75528943,0.25,0.23,0.07,0.07,352.77,352.77,0.0,0.0
1630877471.20067406,75628903,0.24,0.25,0.02,0.05,352.77,352.77,0.0,0.0
1630877471.30063415,75728863,0.19,0.22,0.02,0.02,352.77,352.77,0.0,0.0
1630877471.40059423,75828823,0.16,0.19,0.04,0.01,352.77,352.77,0.0,0.0
1630877471.50055408,75928783,0.17,0.17,0.05,0.02,352.77,352.77,0.0,0.0
1630877471.60051417,76028743,0.19,0.17,0.06,0.03,352.77,352.77,0.0,0.0
1630877471.70047426,76128703,0.17,0.18,0.08,0.05,352.77,352.77,0.0,0.0
1630877471.80043411,76228663,0.16,0.16,0.1,0.08,352.77,352.77,0.0,0.0
1630877471.90039420,76328623,0.17,0.16,0.08,0.09,352.77,352.77,0.0,0.0
1630877472.00035405,76428583,0.2,0.17,0.07,0.07,352.77,352.77,0.0,0.0
1630877472.10031414,76528543,0.2,0.19,0.11,0.09,352.77,352.77,0.0,0.0
1630877472.20027423,76628503,0.2,0.2,0.12,0.11,352.77,352.78,0.0,0.0
1630877472.30023408,76728463,0.19,0.19,0.12,0.13,352.77,352.78,0.0,0.0
1630877472.40019417,76828423,0.15,0.16,0.12,0.13,352.77,352.78,0.0,0.0
1630877472.50015426,76928383,0.12,0.12,0.14,0.13,352.77,352.78,0.0,0.0
1630877472.60011411,77028343,0.11,0.09,0.13,0.13,352.77,352.79,0.0,0.0
1630877472.70007420,77128303,0.13,0.09,0.12,0.13,352.77,352.79,0.0,0.0
1630877472.80003405,77228263,0.18,0.14,0.14,0.14,352.77,352.78,0.0,0.0
1630877472.89999413,77328223,0.22,0.19,0.14,0.14,352.77,352.78,0.0,0.0
1630877472.99995422,77428183,0.2,0.21,0.11,0.12,352.77,352.78,0.0,0.0
1630877473.10074711,77528976,0.15,0.19,0.12,0.11,352.77,352.78,0.0,0.0
1630877473.20070720,77628936,0.1,0.13,0.12,0.1,352.77,352.77,0.0,0.0
1630877473.30066705,77728896,0.09,0.08,0.09,0.08,352.77,352.77,0.0,0.0
1630877473.40062714,77828856,0.11,0.08,0.09,0.07,352.77,352.77,0.0,0.0
1630877473.50058722,77928816,0.11,0.09,0.13,0.1,352.77,352.77,0.0,0.0
1630877473.60054708,78028776,0.13,0.1,0.15,0.13,352.77,352.77,0.0,0.0
1630877473.70050716,78128736,0.13,0.12,0.12,0.14,352.77,352.77,0.0,0.0
1630877473.80046725,78228696,0.12,0.12,0.04,0.09,352.77,352.78,0.0,0.0
1630877473.90042710,78328656,0.09,0.11,0.0,0.03,352.77,352.78,0.0,0.0
1630877474.00038719,78428616,0.08,0.09,0.01,0.0,352.77,352.78,0.0,0.0
1630877474.10034704,78528576,0.09,0.08,0.07,0.03,352.77,352.78,0.0,0.0
1630877474.20030713,78628536,0.09,0.07,0.12,0.08,352.77,352.78,0.0,0.0
1630877474.30026722,78728496,0.08,0.07,0.15,0.13,352.77,352.78,0.0,0.0
1630877474.40022707,78828456,0.06,0.05,0.15,0.16,352.77,352.78,0.0,0.0
1630877474.50018716,78928416,0.07,0.06,0.14,0.15,352.77,352.78,0.0,0.0
1630877474.60014725,79028376,0.07,0.06,0.13,0.13,352.77,352.78,0.0,0.0
1630877474.70010710,79128336,0.09,0.06,0.11,0.11,352.77,352.77,0.0,0.0
1630877474.80006719,79228296,0.1,0.08,0.09,0.09,352.77,352.77,0.0,0.0
1630877474.90002704,79328256,0.08,0.08,0.09,0.07,352.77,352.77,0.0,0.0
1630877474.99998713,79428216,0.06,0.06,0.13,0.09,352.77,352.77,0.0,0.0
1630877475.09994721,79528176,0.05,0.04,0.17,0.13,352.77,352.77,0.0,0.0
1630877475.20074010,79628969,0.08,0.05,0.18,0.17,352.77,352.77,0.0,0.0
1630877475.30070019,79728929,0.11,0.09,0.18,0.18,352.77,352.77,0.0,0.0
1630877475.40066004,79828889,0.11,0.11,0.17,0.19,352.77,352.78,0.0,0.0
1630877475.50062013,79928849,0.07,0.1,0.14,0.17,352.77,352.77,0.0,0.0
1630877475.60058022,80028809,0.02,0.05,0.1,0.13,352.77,352.77,0.0,0.0
1630877475.70054007,80128769,0.01,0.01,0.08,0.09,352.77,352.77,0.0,0.0
1630877475.80050015,80228729,0.04,0.0,0.1,0.07,352.77,352.77,0.0,0.0
1630877475.90046024,80328689,0.08,0.02,0.12,0.08,352.77,352.77,0.0,0.0
1630877476.00042009,80428649,0.12,0.07,0.14,0.11,352.77,352.77,0.0,0.0
1630877476.10038018,80528609,0.15,0.12,0.12,0.11,352.77,352.77,0.0,0.0
1630877476.20034003,80628569,0.17,0.16,0.12,0.11,352.77,352.77,0.0,0.0
1630877476.30030012,80728529,0.2,0.19,0.14,0.12,352.77,352.77,0.0,0.0
1630877476.40026021,80828489,0.18,0.2,0.15,0.13,352.77,352.78,0.0,0.0
1630877476.50022006,80928449,0.15,0.18,0.15,0.14,352.77,352.78,0.0,0.0
1630877476.60018015,81028409,0.15,0.15,0.15,0.15,352.77,352.78,0.0,0.0
1630877476.70014024,81128369,0.14,0.14,0.14,0.15,352.77,352.78,0.0,0.0
1630877476.80010009,81228329,0.14,0.14,0.11,0.13,352.77,352.78,0.0,0.0
1630877476.90006018,81328289,0.13,0.14,0.08,0.1,352.77,352.78,0.0,0.0
1630877477.00002003,81428249,0.13,0.13,0.07,0.07,352.77,352.78,0.0,0.0
1630877477.09998012,81528209,0.15,0.14,0.09,0.07,352.77,352.78,0.0,0.0
1630877477.19994020,81628169,0.17,0.15,0.1,0.08,352.77,352.78,0.0,0.0
1630877477.30073309,81728962,0.17,0.16,0.12,0.1,352.77,352.78,0.0,0.0
1630877477.40069318,81828922,0.17,0.16,0.16,0.14,352.77,352.78,0.0,0.0
1630877477.50065303,81928882,0.16,0.15,0.19,0.19,352.77,352.78,0.0,0.0
1630877477.60061312,82028842,0.17,0.14,0.2,0.22,352.77,352.78,0.0,0.0
1630877477.70057321,82128802,0.14,0.14,0.18,0.22,352.77,352.78,0.0,0.0
1630877477.80053306,82228762,0.09,0.1,0.12,0.17,352.77,352.78,0.0,0.0
1630877477.90049314,82328722,0.09,0.07,0.08,0.11,352.77,352.78,0.0,0.0
1630877478.00045323,82428682,0.1,0.07,0.09,0.07,352.77,352.77,0.0,0.0
1630877478.10041308,82528642,0.11,0.08,0.13,0.09,352.77,352.77,0.0,0.0
1630877478.20037317,82628602,0.13,0.1,0.15,0.12,352.77,352.77,0.0,0.0
1630877478.30033326,82728562,0.15,0.13,0.16,0.15,352.77,352.77,0.0,0.0
1630877478.40029311,82828522,0.16,0.16,0.14,0.15,352.77,352.77,0.0,0.0
1630877478.50025320,82928482,0.17,0.17,0.1,0.13,352.77,352.77,0.0,0.0
1630877478.60021305,83028442,0.15,0.18,0.09,0.11,352.77,352.77,0.0,0.0
1630877478.70017314,83128402,0.11,0.14,0.09,0.09,352.77,352.77,0.0,0.0
1630877478.80013323,83228362,0.07,0.09,0.1,0.08,352.77,352.77,0.0,0.0
1630877478.90009308,83328322,0.08,0.06,0.11,0.09,352.77,352.77,0.0,0.0
1630877479.00005317,83428282,0.08,0.07,0.13,0.1,352.77,352.77,0.0,0.0
1630877479.10001326,83528242,0.08,0.07,0.16,0.12,352.77,352.77,0.0,0.0
1630877479.19997311,83628202,0.09,0.07,0.18,0.15,352.77,352.78,0.0,0.0
1630877479.29993320,83728162,0.09,0.08,0.2,0.18,352.77,352.78,0.0,0.0
1630877479.40072608,83828955,0.12,0.09,0.2,0.2,352.77,352.78,0.0,0.0
1630877479.50068617,83928915,0.15,0.11,0.17,0.19,352.77,352.78,0.0,0.0
1630877479.60064626,84028875,0.17,0.14,0.16,0.17,352.77,352.78,0.0,0.0
1630877479.70060611,84128835,0.2,0.18,0.14,0.14,352.77,352.78,0.0,0.0
1630877479.80056620,84228795,0.21,0.21,0.1,0.11,352.77,352.78,0.0,0.0
1630877479.90052605,84328755,0.18,0.22,0.1,0.09,352.77,352.78,0.0,0.0
1630877480.00048614,84428715,0.17,0.19,0.11,0.09,352.77,352.77,0.0,0.0
1630877480.10044622,84528675,0.14,0.16,0.1,0.09,352.77,352.77,0.0,0.0
1630877480.20040607,84628635,0.13,0.14,0.08,0.07,352.77,352.77,0.0,0.0
1630877480.30036616,84728595,0.13,0.12,0.06,0.05,352.77,352.77,0.0,0.0
1630877480.40032625,84828555,0.15,0.12,0.06,0.03,352.77,352.77,0.0,0.0
1630877480.50028610,84928515,0.16,0.14,0.09,0.05,352.77,352.77,0.0,0.0
1630877480.60024619,85028475,0.13,0.14,0.11,0.07,352.77,352.77,0.0,0.0
1630877480.70020604,85128435,0.12,0.12,0.15,0.11,352.77,352.77,0.0,0.0
1630877480.80016613,85228395,0.1,0.1,0.19,0.16,352.77,352.77,0.0,0.0
1630877480.90012622,85328355,0.11,0.08,0.22,0.22,352.77,352.77,0.0,0.0
1630877481.00008607,85428315,0.13,0.08,0.22,0.25,352.77,352.77,0.0,0.0
1630877481.10004616,85528275,0.17,0.12,0.17,0.23,352.77,352.77,0.0,0.0
1630877481.20000625,85628235,0.16,0.15,0.09,0.14,352.77,352.77,0.0,0.0
1630877481.29996610,85728195,0.13,0.14,0.05,0.07,352.77,352.77,0.0,0.0
1630877481.39992619,85828155,0.13,0.13,0.04,0.02,352.77,352.77,0.0,0.0
1630877481.50071907,85928948,0.13,0.13,0.05,0.01,352.77,352.77,0.0,0.0
1630877481.60067916,86028908,0.13,0.12,0.08,0.02,352.77,352.77,0.0,0.0
1630877481.70063925,86128868,0.12,0.12,0.11,0.07,352.77,352.77,0.0,0.0
1630877481.80059910,86228828,0.14,0.12,0.13,0.1,352.77,352.77,0.0,0.0
1630877481.90055919,86328788,0.15,0.13,0.11,0.12,352.77,352.77,0.0,0.0
1630877482.00051904,86428748,0.17,0.15,0.1,0.11,352.77,352.77,0.0,0.0
1630877482.10047913,86528708,0.17,0.17,0.06,0.09,352.77,352.77,0.0,0.0
1630877482.20043921,86628668,0.14,0.16,0.05,0.06,352.77,352.77,0.0,0.0
1630877482.30039907,86728628,0.1,0.12,0.1,0.07,352.77,352.77,0.0,0.0
1630877482.40035915,86828588,0.05,0.07,0.13,0.1,352.77,352.77,0.0,0.0
1630877482.50031924,86928548,0.03,0.02,0.13,0.13,352.77,352.77,0.0,0.0
1630877482.60027909,87028508,0.06,0.01,0.12,0.14,352.77,352.77,0.0,0.0
1630877482.70023918,87128468,0.13,0.06,0.12,0.14,352.77,352.77,0.0,0.0
1630877482.80019903,87228428,0.17,0.13,0.12,0.13,352.77,352.77,0.0,0.0
1630877482.90015912,87328388,0.16,0.17,0.1,0.11,352.77,352.77,0.0,0.0
1630877483.00011921,87428348,0.15,0.17,0.07,0.08,352.77,352.77,0.0,0.0
1630877483.10007906,87528308,0.14,0.16,0.04,0.04,352.77,352.78,0.0,0.0
1630877483.20003915,87628268,0.13,0.14,0.05,0.02,352.77,352.78,0.0,0.0
1630877483.29999924,87728228,0.14,0.13,0.07,0.03,352.77,352.78,0.0,0.0
1630877483.39995909,87828188,0.15,0.14,0.11,0.06,352.77,352.78,0.0,0.0
1630877483.50075221,87928981,0.1,0.13,0.13,0.1,352.77,352.78,0.0,0.0
1630877483.60071206,88028941,0.06,0.09,0.14,0.13,352.77,352.79,0.0,0.0
1630877483.70067215,88128901,0.06,0.05,0.14,0.14,352.77,352.78,0.0,0.0
1630877483.80063224,88228861,0.09,0.06,0.14,0.14,352.77,352.78,0.0,0.0
1630877483.90059209,88328821,0.1,0.08,0.14,0.14,352.77,352.78,0.0,0.0
1630877484.00055218,88428781,0.11,0.1,0.12,0.14,352.77,352.78,0.0,0.0
1630877484.10051203,88528741,0.1,0.11,0.1,0.11,352.77,352.78,0.0,0.0
1630877484.20047212,88628701,0.07,0.08,0.1,0.11,352.77,352.78,0.0,0.0
1630877484.30043221,88728661,0.08,0.06,0.09,0.1,352.77,352.78,0.0,0.0
1630877484.40039206,88828621,0.1,0.07,0.08,0.07,352.77,352.77,0.0,0.0
1630877484.50035214,88928581,0.12,0.09,0.12,0.08,352.77,352.77,0.0,0.0
1630877484.60031223,89028541,0.16,0.12,0.17,0.12,352.77,352.77,0.0,0.0
1630877484.70027208,89128501,0.2,0.18,0.19,0.16,352.77,352.77,0.0,0.0
1630877484.80023217,89228461,0.21,0.2,0.19,0.18,352.77,352.77,0.0,0.0
1630877484.90019226,89328421,0.19,0.2,0.19,0.19,352.77,352.77,0.0,0.0
1630877485.00015211,89428381,0.17,0.18,0.18,0.19,352.77,352.77,0.0,0.0
1630877485.10011220,89528341,0.17,0.17,0.18,0.18,352.77,352.78,0.0,0.0
1630877485.20007205,89628301,0.19,0.17,0.15,0.16,352.77,352.78,0.0,0.0
1630877485.30003214,89728261,0.17,0.17,0.16,0.15,352.77,352.78,0.0,0.0
1630877485.39999223,89828221,0.16,0.15,0.17,0.16,352.77,352.78,0.0,0.0
1630877485.49995208,89928181,0.17,0.15,0.18,0.17,352.77,352.78,0.0,0.0
1630877485.60074520,90028974,0.2,0.17,0.18,0.17,352.77,352.78,0.0,0.0
1630877485.70070505,90128934,0.21,0.2,0.18,0.18,352.77,352.78,0.0,0.0
1630877485.80066514,90228894,0.23,0.22,0.19,0.18,352.77,352.78,0.0,0.0
1630877485.90062523,90328854,0.24,0.23,0.2,0.19,352.77,352.78,0.0,0.0
1630877486.00058508,90428814,0.22,0.23,0.21,0.2,352.77,352.78,0.0,0.0
1630877486.10054517,90528774,0.2,0.21,0.21,0.21,352.77,352.77,0.0,0.0
1630877486.20050526,90628734,0.21,0.2,0.22,0.21,352.77,352.77,0.0,0.0
1630877486.30046511,90728694,0.22,0.2,0.22,0.22,352.77,352.77,0.0,0.0
1630877486.40042520,90828654,0.24,0.22,0.2,0.21,352.77,352.77,0.0,0.0
1630877486.50038505,90928614,0.26,0.24,0.19,0.19,352.77,352.77,0.0,0.0
1630877486.60034513,91028574,0.23,0.25,0.19,0.18,352.77,352.77,0.0,0.0
1630877486.70030522,91128534,0.17,0.2,0.19,0.18,352.77,352.77,0.0,0.0
1630877486.80026507,91228494,0.13,0.14,0.2,0.18,352.77,352.77,0.0,0.0
1630877486.90022516,91328454,0.13,0.11,0.2,0.19,352.77,352.77,0.0,0.0
1630877487.00018525,91428414,0.12,0.1,0.18,0.18,352.77,352.77,0.0,0.0
1630877487.10014510,91528374,0.12,0.1,0.15,0.16,352.77,352.77,0.0,0.0
1630877487.20010519,91628334,0.12,0.1,0.13,0.12,352.77,352.77,0.0,0.0
1630877487.30006504,91728294,0.11,0.1,0.15,0.12,352.77,352.77,0.0,0.0
1630877487.40002513,91828254,0.12,0.1,0.14,0.13,352.77,352.77,0.0,0.0
1630877487.49998522,91928214,0.16,0.13,0.12,0.12,352.77,352.77,0.0,0.0
1630877487.59994507,92028174,0.17,0.16,0.1,0.1,352.77,352.77,0.0,0.0
1630877487.70073819,92128967,0.16,0.17,0.11,0.09,352.77,352.77,0.0,0.0
1630877487.80069804,92228927,0.15,0.15,0.12,0.1,352.77,352.77,0.0,0.0
1630877487.90065813,92328887,0.15,0.15,0.15,0.13,352.77,352.77,0.0,0.0
1630877488.00061822,92428847,0.16,0.15,0.15,0.14,352.77,352.77,0.0,0.0
1630877488.10057807,92528807,0.16,0.16,0.13,0.15,352.77,352.77,0.0,0.0
1630877488.20053816,92628767,0.16,0.16,0.14,0.15,352.77,352.78,0.0,0.0
1630877488.30049825,92728727,0.17,0.16,0.14,0.15,352.77,352.78,0.0,0.0
1630877488.40045810,92828687,0.15,0.14,0.1,0.11,352.77,352.78,0.0,0.0
1630877488.50041819,92928647,0.15,0.13,0.07,0.06,352.77,352.78,0.0,0.0
1630877488.60037804,93028607,0.16,0.14,0.07,0.05,352.77,352.78,0.0,0.0
1630877488.70033813,93128567,0.14,0.13,0.07,0.05,352.77,352.77,0.0,0.0
1630877488.80029821,93228527,0.13,0.13,0.09,0.06,352.77,352.77,0.0,0.0
1630877488.90025806,93328487,0.14,0.13,0.1,0.09,352.77,352.77,0.0,0.0
1630877489.00021815,93428447,0.16,0.13,0.1,0.1,352.77,352.77,0.0,0.0
1630877489.10017824,93528407,0.18,0.15,0.09,0.1,352.77,352.77,0.0,0.0
1630877489.20013809,93628367,0.17,0.16,0.09,0.1,352.77,352.77,0.0,0.0
1630877489.30009818,93728327,0.15,0.16,0.09,0.09,352.77,352.77,0.0,0.0
1630877489.40005803,93828287,0.14,0.15,0.1,0.09,352.77,352.77,0.0,0.0
1630877489.50001812,93928247,0.15,0.14,0.11,0.1,352.77,352.77,0.0,0.0
1630877489.59997821,94028207,0.15,0.14,0.12,0.1,352.77,352.77,0.0,0.0
1630877489.69993806,94128167,0.15,0.14,0.13,0.11,352.77,352.77,0.0,0.0
1630877489.80073118,94228960,0.17,0.15,0.14,0.12,352.77,352.77,0.0,0.0
1630877489.90069103,94328920,0.21,0.18,0.14,0.14,352.77,352.77,0.0,0.0
1630877490.00065112,94428880,0.22,0.21,0.15,0.14,352.77,352.78,0.0,0.0
1630877490.10061121,94528840,0.21,0.21,0.16,0.15,352.77,352.78,0.0,0.0
1630877490.20057106,94628800,0.19,0.2,0.16,0.15,352.77,352.78,0.0,0.0
1630877490.30053115,94728760,0.19,0.19,0.14,0.14,352.77,352.77,0.0,0.0
1630877490.40049124,94828720,0.21,0.19,0.11,0.11,352.77,352.77,0.0,0.0
1630877490.50045109,94928680,0.22,0.2,0.09,0.09,352.77,352.77,0.0,0.0
1630877490.60041118,95028640,0.21,0.2,0.09,0.07,352.77,352.77,0.0,0.0
1630877490.70037103,95128600,0.19,0.19,0.09,0.06,352.77,352.78,0.0,0.0
1630877490.80033112,95228560,0.18,0.18,0.08,0.05,352.77,352.78,0.0,0.0
1630877490.90029120,95328520,0.19,0.17,0.09,0.06,352.77,352.78,0.0,0.0
1630877491.00025105,95428480,0.22,0.18,0.11,0.06,352.77,352.78,0.0,0.0
1630877491.10021114,95528440,0.21,0.2,0.14,0.09,352.77,352.78,0.0,0.0
1630877491.20017123,95628400,0.18,0.18,0.19,0.15,352.77,352.79,0.0,0.0
1630877491.30013108,95728360,0.16,0.16,0.21,0.2,352.77,352.79,0.0,0.0
1630877491.40009117,95828320,0.14,0.14,0.23,0.24,352.77,352.79,0.0,0.0
1630877491.50005126,95928280,0.13,0.12,0.21,0.24,352.77,352.79,0.0,0.0
1630877491.60001111,96028240,0.14,0.11,0.17,0.22,352.77,352.79,0.0,0.0
1630877491.69997120,96128200,0.15,0.13,0.16,0.19,352.77,352.79,0.0,0.0
1630877491.79993105,96228160,0.15,0.14,0.17,0.17,352.77,352.78,0.0,0.0
1630877491.90072417,96328953,0.16,0.15,0.18,0.17,352.77,352.78,0.0,0.0
1630877492.00068426,96428913,0.18,0.17,0.19,0.17,352.77,352.78,0.0,0.0
1630877492.10064411,96528873,0.21,0.19,0.22,0.19,352.77,352.77,0.0,0.0
1630877492.20060420,96628833,0.23,0.22,0.22,0.2,352.77,352.77,0.0,0.0
1630877492.30056405,96728793,0.24,0.24,0.22,0.21,352.77,352.77,0.0,0.0
1630877492.40052414,96828753,0.37,0.31,0.3,0.26,352.77,352.77,0.0,0.0
1630877492.50048423,96928713,0.69,0.54,0.52,0.41,352.77,352.77,0.0,0.0
1630877492.60044408,97028673,1.21,0.97,0.83,0.69,352.77,352.78,0.0,0.0
1630877492.70040417,97128633,1.89,1.62,1.25,1.09,352.77,352.79,0.0,0.0
1630877492.80036426,97228593,2.7,2.46,1.71,1.58,352.77,352.8,0.0,0.0
1630877492.90032411,97328553,3.52,3.38,2.21,2.12,352.77,352.82,0.0,0.01
1630877493.00028419,97428513,4.21,4.22,2.64,2.65,352.77,352.84,0.0,0.01
1630877493.10024405,97528473,4.74,4.89,2.97,3.07,352.77,352.84,0.0,0.01
1630877493.20020413,97628433,5.18,5.38,3.24,3.37,352.77,352.84,0.0,0.01
1630877493.30016422,97728393,5.56,5.75,3.47,3.6,352.77,352.82,0.0,0.01
1630877493.40012407,97828353,5.92,6.06,3.68,3.78,352.77,352.81,0.0,0.01
1630877493.50008416,97928313,6.3,6.37,3.88,3.95,352.77,352.79,0.0,0.01
1630877493.60004425,98028273,6.63,6.68,4.04,4.08,352.77,352.78,0.0,0.01
1630877493.70000410,98128233,6.88,6.94,4.19,4.21,352.77,352.77,0.0,0.01
1630877493.79996419,98228193,7.04,7.12,4.32,4.34,352.77,352.76,0.0,0.0
1630877493.90075707,98328986,7.19,7.25,4.42,4.44,352.77,352.75,0.0,0.0
1630877494.00071716,98428946,7.33,7.36,4.54,4.54,352.77,352.75,0.0,0.0
1630877494.10067725,98528906,7.52,7.48,4.68,4.68,353.46,352.76,0.0,0.0
1630877494.20063710,98628866,7.8,7.56,4.83,5.05,356.77,353.02,0.0,0.0
1630877494.30059719,98728826,8.2,7.63,4.94,5.7,2.44,354.14,0.0,0.0
1630877494.40055704,98828786,8.75,7.87,4.84,6.27,8.44,356.79,0.0,0.0
1630877494.50051713,98928746,9.49,8.43,4.33,6.36,14.44,1.1,0.0,0.01
1630877494.60047722,99028706,10.34,9.28,3.32,5.74,20.44,6.89,0.0,0.02
1630877494.70043707,99128666,11.13,10.27,1.86,4.37,26.44,13.83,0.0,0.03
1630877494.80039716,99228626,11.78,11.19,0.07,2.38,32.44,21.6,0.0,0.04
1630877494.90035725,99328586,12.13,11.88,-1.89,-0.04,38.44,29.92,0.0,0.05
1630877495.00031710,99428546,12.14,12.13,-3.92,-2.68,44.44,38.54,0.0,0.06
1630877495.10027719,99528506,11.8,11.88,-5.92,-5.32,50.44,47.23,0.0,0.06
1630877495.20023704,99628466,11.14,11.14,-7.74,-7.76,56.44,55.76,0.0,0.07
1630877495.30019712,99728426,10.26,10.0,-9.34,-9.83,62.44,63.92,0.0,0.07
1630877495.40015721,99828386,9.23,8.64,-10.72,-11.46,68.44,71.54,0.0,0.07
1630877495.50011706,99928346,8.12,7.24,-11.91,-12.68,74.44,78.52,0.0,0.07
1630877495.60007715,100028306,6.95,5.9,-12.91,-13.58,80.44,84.83,0.0,0.07
1630877495.70003724,100128266,5.78,4.71,-13.7,-14.2,86.44,90.55,0.0,0.06
1630877495.79999709,100228226,4.63,3.67,-14.33,-14.62,92.44,95.8,0.0,0.06
1630877495.89995718,100328186,3.48,2.78,-14.82,-14.93,98.44,100.73,0.0,0.05
1630877496.00075006,100428979,2.28,1.93,-15.19,-15.17,104.36,105.51,0.0,0.05
1630877496.10071015,100528939,1.02,0.82,-15.43,-15.38,108.38,110.24,0.0,0.04
1630877496.20067024,100628899,-0.28,-0.83,-15.56,-15.52,110.47,114.66,0.0,0.04
1630877496.30063009,100728859,-1.44,-2.71,-15.64,-15.54,111.57,118.28,0.0,0.04
1630877496.40059018,100828819,-2.23,-4.32,-15.69,-15.47,112.17,120.76,0.0,0.03
1630877496.50055003,100928779,-2.53,-5.23,-15.74,-15.38,112.52,121.99,0.0,0.03
1630877496.60051012,101028739,-2.38,-5.32,-15.82,-15.34,112.76,122.07,0.0,0.02
1630877496.70047021,101128699,-1.88,-4.66,-15.95,-15.41,112.95,121.22,0.0,0.02
1630877496.80043006,101228659,-1.15,-3.45,-16.1,-15.58,113.13,119.68,0.0,0.02
1630877496.90039015,101328619,-0.37,-1.93,-16.28,-15.83,113.32,117.74,0.0,0.02
1630877497.00035024,101428579,0.3,-0.4,-16.43,-16.09,113.5,115.7,0.0,0.02
1630877497.10031009,101528539,0.79,0.9,-16.53,-16.32,113.67,113.8,0.0,0.03
1630877497.20027018,101628499,1.09,1.83,-16.59,-16.47,113.83,112.27,0.0,0.03
1630877497.30023003,101728459,1.24,2.38,-16.61,-16.54,113.96,111.22,0.0,0.02
1630877497.40019011,101828419,1.24,2.55,-16.58,-16.55,114.08,110.72,0.0,0.02
1630877497.50015020,101928379,1.13,2.42,-16.54,-16.51,114.17,110.72,0.0,0.02
1630877497.60011005,102028339,0.93,2.06,-16.57,-16.48,114.24,111.16,0.0,0.02
1630877497.70007014,102128299,0.68,1.53,-16.64,-16.52,114.3,111.89,0.0,0.02
1630877497.80003023,102228259,0.41,0.92,-16.73,-16.62,114.34,112.8,0.0,0.01
1630877497.89999008,102328219,0.15,0.33,-16.82,-16.74,114.36,113.75,0.0,0.01
1630877497.99995017,102428179,-0.07,-0.2,-16.9,-16.85,114.38,114.62,0.0,0.01
1630877498.10074306,102528972,-0.24,-0.62,-16.93,-16.93,114.4,115.34,0.0,0.01
1630877498.20070314,102628932,-0.33,-0.9,-16.94,-16.95,114.41,115.84,0.0,0.01
1630877498.30066323,102728892,-0.34,-1.01,-16.95,-16.96,114.42,116.11,0.0,0.01
1630877498.40062308,102828852,-0.29,-0.96,-16.96,-16.96,114.43,116.17,0.0,0.01
1630877498.50058317,102928812,-0.17,-0.78,-16.99,-16.97,114.45,116.03,0.0,0.01
1630877498.60054326,103028772,-0.04,-0.52,-17.05,-17.01,114.47,115.76,0.0,0.01
1630877498.70050311,103128732,0.07,-0.24,-17.1,-17.07,114.49,115.4,0.0,0.01
1630877498.80046320,103228692,0.18,0.02,-17.14,-17.12,114.51,115.03,0.0,0.01
1630877498.90042305,103328652,0.26,0.24,-17.16,-17.16,114.53,114.68,0.0,0.01
1630877499.00038314,103428612,0.32,0.4,-17.18,-17.18,114.55,114.4,0.0,0.01
1630877499.10034323,103528572,0.37,0.51,-17.19,-17.18,114.56,114.2,0.0,0.01
1630877499.20030308,103628532,0.36,0.56,-17.21,-17.2,114.57,114.09,0.0,0.01
1630877499.30026317,103728492,0.31,0.53,-17.23,-17.22,114.58,114.07,0.0,0.01
1630877499.40022326,103828452,0.26,0.45,-17.25,-17.24,114.58,114.13,0.0,0.01
1630877499.50018311,103928412,0.22,0.35,-17.26,-17.26,114.58,114.24,0.0,0.01
1630877499.60014319,104028372,0.17,0.25,-17.3,-17.28,114.57,114.39,0.0,0.01
1630877499.70010304,104128332,0.12,0.13,-17.33,-17.32,114.56,114.54,0.0,0.01
1630877499.80006313,104228292,0.08,0.03,-17.36,-17.35,114.55,114.68,0.0,0.01
1630877499.90002322,104328252,0.06,-0.04,-17.39,-17.39,114.55,114.8,0.0,0.01
1630877499.99998307,104428212,0.05,-0.09,-17.42,-17.42,114.54,114.88,0.0,0.01
1630877500.09994316,104528172,0.05,-0.1,-17.43,-17.44,114.53,114.92,0.0,0.01
1630877500.20073605,104628965,0.04,-0.09,-17.43,-17.44,114.52,114.92,0.0,0.01
1630877500.30069613,104728925,0.05,-0.08,-17.43,-17.44,114.51,114.88,0.0,0.01
1630877500.40065622,104828885,0.05,-0.06,-17.46,-17.45,114.5,114.83,0.0,0.01
1630877500.50061607,104928845,0.08,-0.02,-17.49,-17.47,114.49,114.75,0.0,0.01
1630877500.60057616,105028805,0.14,0.05,-17.53,-17.52,114.49,114.68,0.0,0.01
1630877500.70053625,105128765,0.2,0.14,-17.56,-17.56,114.48,114.6,0.0,0.01
1630877500.80049610,105228725,0.23,0.21,-17.58,-17.59,114.48,114.54,0.0,0.01
1630877500.90045619,105328685,0.23,0.25,-17.6,-17.62,114.47,114.5,0.0,0.01
1630877501.00041604,105428645,0.2,0.23,-17.62,-17.64,114.47,114.47,0.0,0.01
1630877501.10037613,105528605,0.18,0.2,-17.65,-17.66,114.46,114.46,0.0,0.01
1630877501.20033622,105628565,0.18,0.18,-17.68,-17.69,114.46,114.46,0.0,0.01
1630877501.30029607,105728525,0.2,0.17,-17.67,-17.7,114.45,114.48,0.0,0.01
1630877501.40025616,105828485,0.22,0.18,-17.65,-17.69,114.44,114.5,0.0,0.01
1630877501.50021625,105928445,0.21,0.19,-17.66,-17.68,114.44,114.52,0.0,0.01
1630877501.60017610,106028405,0.17,0.16,-17.67,-17.68,114.43,114.54,0.0,0.01
1630877501.70013618,106128365,0.16,0.13,-17.71,-17.7,114.42,114.56,0.0,0.01
1630877501.80009604,106228325,0.15,0.11,-17.77,-17.75,114.41,114.56,0.0,0.01
1630877501.90005612,106328285,0.15,0.09,-17.79,-17.8,114.4,114.56,0.0,0.01
1630877502.00001621,106428245,0.16,0.1,-17.8,-17.83,114.39,114.55,0.0,0.01
1630877502.09997606,106528205,0.16,0.11,-17.79,-17.83,114.39,114.54,0.0,0.01
1630877502.19993615,106628165,0.17,0.12,-17.77,-17.81,114.38,114.52,0.0,0.01
1630877502.30072904,106728958,0.18,0.13,-17.74,-17.77,114.37,114.5,0.0,0.01
1630877502.40068913,106828918,0.19,0.14,-17.72,-17.74,114.36,114.48,0.0,0.01
1630877502.50064921,106928878,0.19,0.15,-17.75,-17.75,114.36,114.46,0.0,0.01
1630877502.60060906,107028838,0.18,0.15,-17.8,-17.78,114.35,114.44,0.0,0.01
1630877502.70056915,107128798,0.17,0.14,-17.84,-17.82,114.35,114.43,0.0,0.01
1630877502.80052924,107228758,0.17,0.14,-17.87,-17.86,114.34,114.42,0.0,0.01
1630877502.90048909,107328718,0.16,0.14,-17.88,-17.89,114.33,114.41,0.0,0.01
1630877503.00044918,107428678,0.13,0.11,-17.89,-17.9,114.33,114.41,0.0,0.01
1630877503.10040903,107528638,0.14,0.1,-17.89,-17.91,114.32,114.4,0.0,0.0
1630877503.20036912,107628598,0.16,0.11,-17.89,-17.91,114.32,114.4,0.0,0.0
1630877503.30032921,107728558,0.16,0.12,-17.89,-17.9,114.31,114.4,0.0,0.0
1630877503.40028906,107828518,0.15,0.12,-17.89,-17.9,114.31,114.4,0.0,0.0
1630877503.50024915,107928478,0.12,0.1,-17.89,-17.9,114.3,114.4,0.0,0.0
1630877503.60020924,108028438,0.11,0.08,-17.91,-17.91,114.3,114.39,0.0,0.0
1630877503.70016909,108128398,0.13,0.08,-17.94,-17.94,114.29,114.39,0.0,0.0
1630877503.80012918,108228358,0.13,0.09,-17.96,-17.96,114.29,114.39,0.0,0.0
1630877503.90008926,108328318,0.13,0.09,-17.97,-17.98,114.29,114.38,0.0,0.0
1630877504.00004911,108428278,0.17,0.11,-17.99,-18.0,114.29,114.37,0.0,0.0
1630877504.10000920,108528238,0.21,0.17,-17.99,-18.0,114.28,114.36,0.0,0.0
1630877504.19996905,108628198,0.22,0.2,-17.98,-18.0,114.29,114.36,0.0,0.0
1630877504.29992914,108728158,0.21,0.21,-17.97,-17.99,114.29,114.36,0.0,0.0
1630877504.40072203,108828951,0.19,0.2,-17.95,-17.98,114.29,114.36,0.0,0.0
1630877504.50068212,108928911,0.17,0.17,-17.93,-17.95,114.29,114.36,0.0,0.0
1630877504.60064220,109028871,0.14,0.13,-17.92,-17.93,114.28,114.36,0.0,0.0
1630877504.70060205,109128831,0.16,0.11,-17.93,-17.92,114.28,114.36,0.0,0.0
1630877504.80056214,109228791,0.18,0.13,-17.94,-17.93,114.28,114.36,0.0,0.0
1630877504.90052223,109328751,0.21,0.16,-17.98,-17.97,114.28,114.36,0.0,0.0
1630877505.00048208,109428711,0.25,0.2,-18.03,-18.02,114.29,114.36,0.0,0.0
1630877505.10044217,109528671,0.27,0.24,-18.04,-18.05,114.29,114.36,0.0,0.0
1630877505.20040226,109628631,0.28,0.25,-18.01,-18.04,114.29,114.36,0.0,0.0
1630877505.30036211,109728591,0.27,0.26,-17.98,-18.01,114.3,114.37,0.0,0.0
1630877505.40032220,109828551,0.26,0.25,-17.98,-17.99,114.3,114.37,0.0,0.0
1630877505.50028205,109928511,0.26,0.23,-18.01,-18.0,114.31,114.37,0.0,0.0
1630877505.60024214,110028471,0.26,0.23,-18.05,-18.04,114.31,114.38,0.0,0.0
1630877505.70020223,110128431,0.27,0.23,-18.09,-18.08,114.31,114.38,0.0,0.0
1630877505.80016208,110228391,0.28,0.25,-18.13,-18.13,114.32,114.39,0.0,0.0
1630877505.90012217,110328351,0.27,0.26,-18.15,-18.17,114.32,114.39,0.0,0.0
1630877506.00008225,110428311,0.26,0.24,-18.14,-18.18,114.32,114.4,0.0,0.0
1630877506.10004210,110528271,0.25,0.23,-18.12,-18.15,114.32,114.4,0.0,0.0
1630877506.20000219,110628231,0.24,0.22,-18.12,-18.14,114.32,114.4,0.0,0.0
1630877506.29996204,110728191,0.22,0.2,-18.13,-18.14,114.33,114.4,0.0,0.0
1630877506.40075517,110828984,0.21,0.18,-18.13,-18.14,114.33,114.4,0.0,0.0
1630877506.50071526,110928944,0.2,0.17,-18.11,-18.14,114.33,114.4,0.0,0.0
1630877506.60067511,111028904,0.2,0.16,-18.09,-18.11,114.33,114.4,0.0,0.0
1630877506.70063519,111128864,0.21,0.17,-18.09,-18.1,114.33,114.4,0.0,0.0
1630877506.80059505,111228824,0.24,0.19,-18.11,-18.11,114.33,114.39,0.0,0.0
1630877506.90055513,111328784,0.25,0.21,-18.13,-18.12,114.33,114.39,0.0,0.0
1630877507.00051522,111428744,0.25,0.23,-18.12,-18.13,114.33,114.39,0.0,0.0
1630877507.10047507,111528704,0.22,0.22,-18.13,-18.13,114.33,114.39,0.0,0.0
1630877507.20043516,111628664,0.2,0.19,-18.12,-18.13,114.33,114.39,0.0,0.0
1630877507.30039525,111728624,0.21,0.17,-18.12,-18.12,114.33,114.39,0.0,0.0
1630877507.40035510,111828584,0.23,0.19,-18.11,-18.11,114.33,114.39,0.0,0.0
1630877507.50031519,111928544,0.23,0.21,-18.12,-18.11,114.33,114.39,0.0,0.0
1630877507.60027504,112028504,0.23,0.21,-18.15,-18.14,114.33,114.39,0.0,0.0
1630877507.70023513,112128464,0.24,0.21,-18.18,-18.17,114.33,114.39,0.0,0.0
1630877507.80019522,112228424,0.27,0.23,-18.17,-18.19,114.33,114.39,0.0,0.0
1630877507.90015507,112328384,0.29,0.26,-18.15,-18.18,114.34,114.39,0.0,0.0
1630877508.00011516,112428344,0.3,0.28,-18.14,-18.16,114.34,114.4,0.0,0.0
1630877508.10007524,112528304,0.31,0.29,-18.16,-18.16,114.34,114.4,0.0,0.0
1630877508.20003510,112628264,0.29,0.29,-18.17,-18.18,114.35,114.4,0.0,0.0
1630877508.29999518,112728224,0.26,0.26,-18.17,-18.18,114.35,114.41,0.0,0.0
1630877508.39995503,112828184,0.25,0.22,-18.17,-18.19,114.35,114.41,0.0,0.0
1630877508.50074816,112928977,0.25,0.2,-18.16,-18.19,114.35,114.41,0.0,0.0
1630877508.60070825,113028937,0.26,0.2,-18.15,-18.18,114.36,114.42,0.0,0.0
1630877508.70066810,113128897,0.28,0.23,-18.15,-18.17,114.36,114.42,0.0,0.0
1630877508.80062819,113228857,0.3,0.26,-18.15,-18.16,114.36,114.42,0.0,0.0
1630877508.90058804,113328817,0.31,0.29,-18.13,-18.15,114.36,114.42,0.0,0.0
1630877509.00054812,113428777,0.28,0.28,-18.13,-18.14,114.36,114.42,0.0,0.0
1630877509.10050821,113528737,0.26,0.25,-18.14,-18.15,114.36,114.42,0.0,0.0
1630877509.20046806,113628697,0.24,0.22,-18.13,-18.15,114.37,114.41,0.0,0.0
1630877509.30042815,113728657,0.23,0.21,-18.11,-18.13,114.37,114.41,0.0,0.0
1630877509.40038824,113828617,0.26,0.22,-18.11,-18.12,114.37,114.42,0.0,0.0
1630877509.50034809,113928577,0.3,0.27,-18.1,-18.11,114.37,114.42,0.0,0.0
1630877509.60030818,114028537,0.33,0.31,-18.1,-18.11,114.37,114.42,0.0,0.0
1630877509.70026803,114128497,0.31,0.32,-18.12,-18.11,114.38,114.42,0.0,0.0
1630877509.80022812,114228457,0.33,0.32,-18.16,-18.15,114.38,114.43,0.0,0.0
1630877509.90018821,114328417,0.34,0.33,-18.18,-18.18,114.38,114.43,0.0,0.0
1630877510.00014806,114428377,0.35,0.34,-18.2,-18.21,114.39,114.43,0.0,0.0
1630877510.10010815,114528337,0.37,0.34,-18.23,-18.24,114.39,114.44,0.0,0.0
1630877510.20006824,114628297,0.36,0.34,-18.24,-18.26,114.4,114.44,0.0,0.0
1630877510.30002809,114728257,0.35,0.32,-18.24,-18.26,114.4,114.44,0.0,0.0
1630877510.39998817,114828217,0.33,0.31,-18.22,-18.25,114.4,114.45,0.0,0.0
1630877510.49994826,114928177,0.3,0.28,-18.2,-18.23,114.4,114.45,0.0,0.0
1630877510.60074115,115028970,0.29,0.26,-18.17,-18.2,114.4,114.45,0.0,0.0
1630877510.70070124,115128930,0.3,0.26,-18.17,-18.18,114.4,114.45,0.0,0.0
1630877510.80066109,115228890,0.31,0.26,-18.19,-18.18,114.4,114.45,0.0,0.0
1630877510.90062118,115328850,0.34,0.29,-18.19,-18.18,114.4,114.45,0.0,0.0
1630877511.00058103,115428810,0.37,0.32,-18.2,-18.19,114.4,114.45,0.0,0.0
1630877511.10054111,115528770,0.38,0.35,-18.21,-18.21,114.4,114.44,0.0,0.0
1630877511.20050120,115628730,0.35,0.34,-18.22,-18.23,114.4,114.44,0.0,0.0
1630877511.30046105,115728690,0.33,0.32,-18.2,-18.22,114.4,114.44,0.0,0.0
1630877511.40042114,115828650,0.33,0.31,-18.19,-18.21,114.4,114.44,0.0,0.0
1630877511.50038123,115928610,0.36,0.32,-18.19,-18.19,114.4,114.44,0.0,0.0
1630877511.60034108,116028570,0.37,0.35,-18.19,-18.19,114.4,114.44,0.0,0.0
1630877511.70030117,116128530,0.35,0.34,-18.21,-18.2,114.4,114.44,0.0,0.0
1630877511.80026126,116228490,0.35,0.34,-18.24,-18.23,114.4,114.44,0.0,0.0
1630877511.90022111,116328450,0.34,0.34,-18.23,-18.25,114.4,114.44,0.0,0.0
1630877512.00018120,116428410,0.32,0.32,-18.21,-18.24,114.4,114.44,0.0,0.0
1630877512.10014105,116528370,0.3,0.29,-18.2,-18.22,114.4,114.44,0.0,0.0
1630877512.20010114,116628330,0.32,0.29,-18.2,-18.22,114.4,114.44,0.0,0.0
1630877512.30006123,116728290,0.34,0.3,-18.19,-18.21,114.4,114.44,0.0,0.0
1630877512.40002108,116828250,0.34,0.31,-18.18,-18.2,114.4,114.44,0.0,0.0
1630877512.49998116,116928210,0.35,0.33,-18.17,-18.18,114.4,114.43,0.0,0.0
1630877512.59994125,117028170,0.36,0.33,-18.19,-18.19,114.4,114.43,0.0,0.0
1630877512.70073414,117128963,0.37,0.35,-18.18,-18.19,114.39,114.43,0.0,0.0
1630877512.80069423,117228923,0.38,0.36,-18.18,-18.19,114.4,114.43,0.0,0.0
1630877512.90065408,117328883,0.39,0.36,-18.21,-18.2,114.4,114.43,0.0,0.0
1630877513.00061417,117428843,0.39,0.38,-18.23,-18.23,114.4,114.42,0.0,0.0
1630877513.10057425,117528803,0.38,0.39,-18.2,-18.24,114.4,114.42,0.0,0.0
1630877513.20053411,117628763,0.37,0.38,-18.18,-18.23,114.4,114.43,0.0,0.0
1630877513.30049419,117728723,0.36,0.36,-18.18,-18.21,114.4,114.43,0.0,0.0
1630877513.40045404,117828683,0.34,0.34,-18.19,-18.2,114.4,114.43,0.0,0.0
1630877513.50041413,117928643,0.33,0.31,-18.2,-18.2,114.4,114.43,0.0,0.0
1630877513.60037422,118028603,0.33,0.29,-18.21,-18.22,114.4,114.43,0.0,0.0
1630877513.70033407,118128563,0.34,0.3,-18.2,-18.21,114.4,114.43,0.0,0.0
1630877513.80029416,118228523,0.36,0.32,-18.18,-18.2,114.4,114.43,0.0,0.0
1630877513.90025425,118328483,0.38,0.35,-18.17,-18.18,114.4,114.43,0.0,0.0
1630877514.00021410,118428443,0.4,0.38,-18.17,-18.18,114.4,114.43,0.0,0.0
1630877514.10017419,118528403,0.39,0.4,-18.19,-18.18,114.4,114.43,0.0,0.0
1630877514.20013404,118628363,0.38,0.38,-18.22,-18.21,114.4,114.43,0.0,0.0
1630877514.30009413,118728323,0.36,0.36,-18.22,-18.23,114.4,114.43,0.0,0.0
1630877514.40005422,118828283,0.33,0.32,-18.21,-18.22,114.4,114.43,0.0,0.0
1630877514.50001407,118928243,0.33,0.31,-18.22,-18.22,114.4,114.43,0.0,0.0
1630877514.59997416,119028203,0.32,0.3,-18.25,-18.24,114.4,114.43,0.0,0.0
1630877514.69993424,119128163,0.29,0.27,-18.27,-18.25,114.39,114.43,0.0,0.0
1630877514.80072713,119228956,0.27,0.24,-18.28,-18.28,114.39,114.42,0.0,0.0
1630877514.90068722,119328916,0.28,0.24,-18.22,-18.27,114.39,114.42,0.0,0.0
1630877515.00064707,119428876,0.34,0.28,-18.18,-18.22,114.39,114.42,0.0,0.0
1630877515.10060716,119528836,0.39,0.35,-18.19,-18.19,114.38,114.41,0.0,0.0
1630877515.20056725,119628796,0.4,0.39,-18.2,-18.2,114.38,114.41,0.0,0.0
1630877515.30052710,119728756,0.39,0.4,-18.21,-18.21,114.39,114.4,0.0,0.0
1630877515.40048718,119828716,0.39,0.4,-18.17,-18.2,114.39,114.4,0.0,0.0
1630877515.50044703,119928676,0.39,0.4,-18.15,-18.18,114.39,114.4,0.0,0.0
1630877515.60040712,120028636,0.4,0.4,-18.16,-18.18,114.39,114.4,0.0,0.0
1630877515.70036721,120128596,0.4,0.4,-18.18,-18.18,114.39,114.41,0.0,0.0
1630877515.80032706,120228556,0.39,0.38,-18.21,-18.21,114.39,114.41,0.0,0.0
1630877515.90028715,120328516,0.38,0.37,-18.23,-18.24,114.39,114.41,0.0,0.0
1630877516.00024724,120428476,0.4,0.37,-18.22,-18.25,114.39,114.42,0.0,0.0
1630877516.10020709,120528436,0.43,0.38,-18.19,-18.24,114.39,114.42,0.0,0.0
1630877516.20016718,120628396,0.46,0.42,-18.18,-18.21,114.4,114.42,0.0,0.0
1630877516.30012703,120728356,0.46,0.43,-18.2,-18.21,114.4,114.42,0.0,0.0
1630877516.40008712,120828316,0.43,0.42,-18.22,-18.22,114.4,114.43,0.0,0.0
1630877516.50004721,120928276,0.43,0.41,-18.21,-18.22,114.41,114.43,0.0,0.0
1630877516.60000706,121028236,0.45,0.41,-18.22,-18.22,114.41,114.43,0.0,0.0
1630877516.69996715,121128196,0.44,0.42,-18.22,-18.22,114.41,114.43,0.0,0.0
1630877516.79992723,121228156,0.41,0.41,-18.2,-18.21,114.42,114.43,0.0,0.0
1630877516.90072012,121328949,0.39,0.38,-18.19,-18.2,114.42,114.44,0.0,0.0
1630877517.00068021,121428909,0.38,0.37,-18.18,-18.18,114.42,114.44,0.0,0.0
1630877517.10064006,121528869,0.4,0.37,-18.19,-18.18,114.42,114.44,0.0,0.0
1630877517.20060015,121628829,0.42,0.39,-18.19,-18.19,114.42,114.44,0.0,0.0
1630877517.30056024,121728789,0.45,0.42,-18.21,-18.21,114.42,114.45,0.0,0.0
1630877517.40052009,121828749,0.47,0.45,-18.22,-18.23,114.42,114.45,0.0,0.0
1630877517.50048018,121928709,0.45,0.46,-18.23,-18.24,114.42,114.44,0.0,0.0
1630877517.60044026,122028669,0.44,0.45,-18.25,-18.27,114.42,114.44,0.0,0.0
1630877517.70040011,122128629,0.41,0.43,-18.26,-18.28,114.42,114.44,0.0,0.0
1630877517.80036020,122228589,0.38,0.38,-18.26,-18.29,114.42,114.44,0.0,0.0
1630877517.90032005,122328549,0.37,0.35,-18.26,-18.29,114.42,114.44,0.0,0.0
1630877518.00028014,122428509,0.4,0.35,-18.23,-18.27,114.42,114.44,0.0,0.0
1630877518.10024023,122528469,0.43,0.38,-18.19,-18.23,114.41,114.43,0.0,0.0
1630877518.20020008,122628429,0.46,0.42,-18.18,-18.2,114.41,114.43,0.0,0.0
1630877518.30016017,122728389,0.46,0.45,-18.21,-18.2,114.41,114.43,0.0,0.0
1630877518.40012026,122828349,0.44,0.44,-18.23,-18.23,114.41,114.42,0.0,0.0
1630877518.50008011,122928309,0.4,0.41,-18.26,-18.25,114.41,114.42,0.0,0.0
1630877518.60004020,123028269,0.34,0.36,-18.26,-18.28,114.4,114.42,0.0,0.0
