timestamp,TimeUS,DesRoll,Roll,DesPitch,Pitch,DesYaw,Yaw,ErrRP,ErrYaw
1630871537.79999995,53228700,0.0,0.09,0.0,0.07,352.9,352.91,0.0,0.0
1630871537.89996004,53328660,0.0,0.09,0.0,0.07,352.9,352.91,0.0,0.0
1630871537.99992013,53428620,0.0,0.09,0.0,0.07,352.9,352.91,0.0,0.0
1630871538.09987998,53528580,0.0,0.09,0.0,0.07,352.9,352.91,0.0,0.0
1630871538.19984007,53628540,0.0,0.09,0.0,0.08,352.9,352.91,0.0,0.0
1630871538.29979992,53728500,0.0,0.09,0.0,0.08,352.9,352.91,0.0,0.0
1630871538.39976001,53828460,0.0,0.09,0.0,0.08,352.9,352.91,0.0,0.0
1630871538.49972010,53928420,0.0,0.09,0.0,0.08,352.9,352.91,0.0,0.0
1630871538.59967995,54028380,0.0,0.09,0.0,0.08,352.9,352.91,0.0,0.0
1630871538.69964004,54128340,0.0,0.09,0.0,0.08,352.9,352.91,0.0,0.0
1630871538.79960012,54228300,0.0,0.09,0.0,0.08,352.9,352.91,0.0,0.0
1630871538.89955997,54328260,0.0,0.09,0.0,0.08,352.9,352.91,0.0,0.0
1630871538.99952006,54428220,0.0,0.09,0.0,0.08,352.9,352.91,0.0,0.0
1630871539.09947991,54528180,0.0,0.09,0.0,0.08,352.9,352.91,0.0,0.0
1630871539.20027304,54628973,0.0,0.09,0.0,0.08,352.9,352.91,0.0,0.0
1630871539.30023313,54728933,0.0,0.09,0.0,0.08,352.9,352.91,0.0,0.0
1630871539.40019298,54828893,0.0,0.09,0.0,0.08,352.9,352.91,0.0,0.0
1630871539.50015306,54928853,0.0,0.09,0.0,0.08,352.9,352.91,0.0,0.0
1630871539.60011292,55028813,0.0,0.09,0.0,0.08,352.9,352.91,0.0,0.0
1630871539.70007300,55128773,0.0,0.09,0.0,0.08,352.9,352.91,0.0,0.0
1630871539.80003309,55228733,0.0,0.09,0.0,0.08,352.91,352.92,0.0,0.0
1630871539.89999294,55328693,0.0,0.09,0.0,0.08,352.91,352.92,0.0,0.0
1630871539.99995303,55428653,0.0,0.09,0.0,0.08,352.91,352.92,0.0,0.0
1630871540.09991312,55528613,0.0,0.09,0.0,0.08,352.91,352.92,0.0,0.0
1630871540.19987297,55628573,0.0,0.09,0.0,0.08,352.91,352.92,0.0,0.0
1630871540.29983306,55728533,0.0,0.09,0.0,0.08,352.91,352.92,0.0,0.0
1630871540.39979315,55828493,0.0,0.09,0.0,0.08,352.91,352.92,0.0,0.0
1630871540.49975300,55928453,0.0,0.09,0.0,0.08,352.91,352.92,0.0,0.0
1630871540.59971309,56028413,0.0,0.09,0.0,0.08,352.91,352.92,0.0,0.0
1630871540.69967294,56128373,0.0,0.09,0.0,0.08,352.91,352.92,0.0,0.0
1630871540.79963303,56228333,0.0,0.09,0.0,0.08,352.91,352.92,0.0,0.0
1630871540.89959311,56328293,0.0,0.09,0.0,0.08,352.91,352.92,0.0,0.0
1630871540.99955297,56428253,0.0,0.09,0.0,0.08,352.91,352.92,0.0,0.0
1630871541.09951305,56528213,-0.09,0.09,-0.1,0.08,352.91,352.92,0.0,0.0
1630871541.19947314,56628173,-0.16,0.09,-0.17,0.08,352.91,352.92,0.0,0.0
1630871541.30026603,56728966,-0.2,0.09,-0.22,0.08,352.91,352.92,0.0,0.0
1630871541.40022612,56828926,-0.23,0.09,-0.25,0.08,352.91,352.92,0.0,0.0
1630871541.50018597,56928886,-0.25,0.1,-0.27,0.08,352.91,352.92,0.0,0.0
1630871541.60014606,57028846,-0.27,0.1,-0.29,0.08,352.91,352.92,0.0,0.0
1630871541.70010614,57128806,-0.29,0.1,-0.31,0.08,352.91,352.92,0.0,0.0
1630871541.80006599,57228766,-0.3,0.1,-0.33,0.08,352.91,352.92,0.0,0.0
1630871541.90002608,57328726,-0.32,0.1,-0.33,0.08,352.91,352.92,0.0,0.0
1630871541.99998593,57428686,-0.33,0.1,-0.34,0.08,352.91,352.93,0.0,0.0
1630871542.09994602,57528646,-0.36,0.1,-0.35,0.08,352.91,352.93,0.0,0.0
1630871542.19990611,57628606,-0.37,0.1,-0.37,0.08,352.91,352.93,0.0,0.0
1630871542.29986596,57728566,-0.37,0.1,-0.36,0.08,352.91,352.93,0.0,0.0
1630871542.39982605,57828526,-0.4,0.1,-0.36,0.08,352.91,352.93,0.0,0.0
1630871542.49978614,57928486,-0.42,0.1,-0.39,0.08,352.91,352.93,0.0,0.0
1630871542.59974599,58028446,-0.45,0.09,-0.42,0.08,352.91,352.93,0.0,0.0
1630871542.69970608,58128406,-0.48,-0.13,-0.44,-0.13,352.91,352.93,0.0,0.0
1630871542.79966593,58228366,-0.47,-0.46,-0.41,-0.44,352.91,352.93,0.0,0.0
1630871542.89962602,58328326,-0.41,-0.71,-0.33,-0.64,352.91,352.93,0.0,0.0
1630871542.99958611,58428286,-0.27,-0.77,-0.19,-0.67,352.91,352.92,0.0,0.0
1630871543.09954596,58528246,-0.07,-0.66,-0.01,-0.56,352.91,352.92,0.0,0.0
1630871543.19950604,58628206,0.13,-0.44,0.17,-0.36,352.91,352.92,0.0,0.0
1630871543.29946613,58728166,0.32,-0.17,0.35,-0.12,352.91,352.91,0.0,0.0
1630871543.40025902,58828959,0.43,0.05,0.45,0.09,352.91,352.91,0.0,0.0
1630871543.50021911,58928919,0.48,0.2,0.46,0.21,352.91,352.91,0.0,0.0
1630871543.60017896,59028879,0.5,0.27,0.41,0.23,352.91,352.91,0.0,0.0
1630871543.70013905,59128839,0.49,0.3,0.35,0.18,352.91,352.91,0.0,0.0
1630871543.80009913,59228799,0.46,0.28,0.31,0.13,352.91,352.92,0.0,0.0
1630871543.90005898,59328759,0.46,0.26,0.32,0.11,352.91,352.92,0.0,0.0
1630871544.00001907,59428719,0.46,0.25,0.34,0.13,352.91,352.92,0.0,0.0
1630871544.09997892,59528679,0.45,0.25,0.35,0.15,352.91,352.91,0.0,0.0
1630871544.19993901,59628639,0.45,0.27,0.35,0.17,352.91,352.91,0.0,0.0
1630871544.29989910,59728599,0.43,0.28,0.35,0.19,352.91,352.91,0.0,0.0
1630871544.39985895,59828559,0.4,0.26,0.35,0.21,352.72,352.72,0.0,0.0
1630871544.49981904,59928519,0.39,0.25,0.34,0.22,352.72,352.72,0.0,0.0
1630871544.59977913,60028479,0.39,0.25,0.31,0.22,352.72,352.72,0.0,0.0
1630871544.69973898,60128439,0.36,0.26,0.27,0.2,352.72,352.72,0.0,0.0
1630871544.79969907,60228399,0.33,0.25,0.28,0.18,352.72,352.72,0.0,0.0
1630871544.89965892,60328359,0.29,0.22,0.29,0.19,352.72,352.72,0.0,0.0
1630871544.99961901,60428319,0.26,0.19,0.29,0.2,352.72,352.73,0.0,0.0
1630871545.09957910,60528279,0.24,0.16,0.28,0.2,352.72,352.73,0.0,0.0
1630871545.19953895,60628239,0.22,0.13,0.24,0.19,352.72,352.73,0.0,0.0
1630871545.29949903,60728199,0.22,0.14,0.2,0.15,352.72,352.73,0.0,0.0
1630871545.39945912,60828159,0.24,0.17,0.2,0.14,352.72,352.73,0.0,0.0
1630871545.50025201,60928952,0.21,0.18,0.16,0.12,352.72,352.73,0.0,0.0
1630871545.60021210,61028912,0.16,0.15,0.13,0.09,352.72,352.73,0.0,0.0
1630871545.70017195,61128872,0.12,0.1,0.12,0.07,352.72,352.73,0.0,0.0
1630871545.80013204,61228832,0.11,0.07,0.13,0.08,352.72,352.73,0.0,0.0
1630871545.90009212,61328792,0.13,0.07,0.13,0.08,352.72,352.73,0.0,0.0
1630871546.00005198,61428752,0.14,0.08,0.12,0.09,352.72,352.73,0.0,0.0
1630871546.10001206,61528712,0.13,0.09,0.11,0.08,352.72,352.73,0.0,0.0
1630871546.19997191,61628672,0.13,0.1,0.09,0.07,352.72,352.73,0.0,0.0
1630871546.29993200,61728632,0.14,0.12,0.1,0.07,352.72,352.73,0.0,0.0
1630871546.39989209,61828592,0.14,0.12,0.11,0.08,352.72,352.73,0.0,0.0
1630871546.49985194,61928552,0.15,0.13,0.09,0.08,352.72,352.73,0.0,0.0
1630871546.59981203,62028512,0.13,0.13,0.03,0.04,352.72,352.72,0.0,0.0
1630871546.69977212,62128472,0.1,0.11,0.01,0.0,352.72,352.72,0.0,0.0
1630871546.79973197,62228432,0.09,0.09,0.03,0.0,352.72,352.72,0.0,0.0
1630871546.89969206,62328392,0.13,0.09,0.07,0.02,352.72,352.72,0.0,0.0
1630871546.99965215,62428352,0.14,0.11,0.09,0.05,352.72,352.72,0.0,0.0
1630871547.09961200,62528312,0.15,0.13,0.11,0.09,352.72,352.72,0.0,0.0
1630871547.19957209,62628272,0.13,0.13,0.1,0.11,352.72,352.72,0.0,0.0
1630871547.29953194,62728232,0.09,0.1,0.07,0.09,352.72,352.72,0.0,0.0
1630871547.39949203,62828192,0.08,0.07,0.06,0.05,352.72,352.72,0.0,0.0
1630871547.50028515,62928985,0.09,0.07,0.05,0.04,352.72,352.72,0.0,0.0
1630871547.60024500,63028945,0.09,0.07,0.06,0.04,352.72,352.72,0.0,0.0
1630871547.70020509,63128905,0.08,0.07,0.09,0.05,352.72,352.73,0.0,0.0
1630871547.80016494,63228865,0.07,0.07,0.11,0.07,352.72,352.73,0.0,0.0
1630871547.90012503,63328825,0.05,0.05,0.16,0.11,352.72,352.73,0.0,0.0
1630871548.00008512,63428785,0.06,0.04,0.22,0.17,352.72,352.73,0.0,0.0
1630871548.10004497,63528745,0.09,0.05,0.24,0.22,352.72,352.73,0.0,0.0
1630871548.20000505,63628705,0.12,0.07,0.23,0.25,352.72,352.73,0.0,0.0
1630871548.29996514,63728665,0.15,0.12,0.23,0.25,352.72,352.73,0.0,0.0
1630871548.39992499,63828625,0.17,0.15,0.22,0.23,352.72,352.73,0.0,0.0
1630871548.49988508,63928585,0.17,0.17,0.19,0.21,352.72,352.73,0.0,0.0
1630871548.59984493,64028545,0.16,0.17,0.17,0.19,352.72,352.73,0.0,0.0
1630871548.69980502,64128505,0.14,0.16,0.18,0.17,352.72,352.73,0.0,0.0
1630871548.79976511,64228465,0.12,0.13,0.18,0.17,352.72,352.73,0.0,0.0
1630871548.89972496,64328425,0.11,0.1,0.14,0.16,352.72,352.73,0.0,0.0
1630871548.99968505,64428385,0.11,0.09,0.12,0.14,352.72,352.73,0.0,0.0
1630871549.09964514,64528345,0.13,0.1,0.11,0.12,352.72,352.73,0.0,0.0
1630871549.19960499,64628305,0.17,0.12,0.11,0.1,352.72,352.73,0.0,0.0
1630871549.29956508,64728265,0.2,0.17,0.11,0.1,352.72,352.73,0.0,0.0
1630871549.39952493,64828225,0.2,0.19,0.1,0.08,352.72,352.73,0.0,0.0
1630871549.49948502,64928185,0.22,0.22,0.1,0.08,352.72,352.72,0.0,0.0
1630871549.60027814,65028978,0.22,0.23,0.12,0.09,352.72,352.72,0.0,0.0
1630871549.70023799,65128938,0.22,0.22,0.13,0.11,352.72,352.72,0.0,0.0
1630871549.80019808,65228898,0.23,0.23,0.14,0.12,352.72,352.72,0.0,0.0
1630871549.90015793,65328858,0.19,0.21,0.14,0.13,352.72,352.72,0.0,0.0
1630871550.00011802,65428818,0.12,0.15,0.17,0.15,352.72,352.72,0.0,0.0
1630871550.10007811,65528778,0.09,0.09,0.19,0.17,352.72,352.72,0.0,0.0
1630871550.20003796,65628738,0.07,0.04,0.19,0.19,352.72,352.72,0.0,0.0
1630871550.29999804,65728698,0.08,0.03,0.14,0.17,352.72,352.72,0.0,0.0
1630871550.39995813,65828658,0.08,0.03,0.12,0.13,352.72,352.72,0.0,0.0
1630871550.49991798,65928618,0.09,0.05,0.1,0.1,352.72,352.72,0.0,0.0
1630871550.59987807,66028578,0.1,0.07,0.07,0.07,352.72,352.72,0.0,0.0
1630871550.69983792,66128538,0.09,0.08,0.05,0.04,352.72,352.72,0.0,0.0
1630871550.79979801,66228498,0.06,0.07,0.04,0.02,352.72,352.72,0.0,0.0
1630871550.89975810,66328458,0.05,0.06,0.07,0.03,352.72,352.72,0.0,0.0
1630871550.99971795,66428418,0.06,0.06,0.09,0.07,352.72,352.72,0.0,0.0
1630871551.09967804,66528378,0.05,0.05,0.11,0.1,352.72,352.72,0.0,0.0
1630871551.19963813,66628338,0.05,0.04,0.11,0.11,352.72,352.72,0.0,0.0
1630871551.29959798,66728298,0.04,0.03,0.11,0.12,352.72,352.72,0.0,0.0
1630871551.39955807,66828258,0.05,0.03,0.1,0.12,352.72,352.72,0.0,0.0
1630871551.49951792,66928218,0.06,0.04,0.07,0.1,352.72,352.72,0.0,0.0
1630871551.59947801,67028178,0.06,0.05,0.04,0.06,352.72,352.72,0.0,0.0
1630871551.70027113,67128971,0.05,0.04,0.02,0.02,352.72,352.72,0.0,0.0
1630871551.80023098,67228931,0.06,0.04,0.05,0.01,352.72,352.72,0.0,0.0
1630871551.90019107,67328891,0.11,0.08,0.08,0.04,352.72,352.72,0.0,0.0
1630871552.00015092,67428851,0.16,0.13,0.09,0.06,352.72,352.71,0.0,0.0
1630871552.10011101,67528811,0.18,0.17,0.08,0.07,352.72,352.71,0.0,0.0
1630871552.20007110,67628771,0.16,0.18,0.08,0.08,352.72,352.71,0.0,0.0
1630871552.30003095,67728731,0.15,0.17,0.09,0.09,352.72,352.71,0.0,0.0
1630871552.39999104,67828691,0.14,0.16,0.07,0.09,352.72,352.71,0.0,0.0
1630871552.49995112,67928651,0.11,0.13,0.05,0.07,352.72,352.71,0.0,0.0
1630871552.59991097,68028611,0.09,0.1,0.07,0.07,352.72,352.71,0.0,0.0
1630871552.69987106,68128571,0.06,0.07,0.07,0.07,352.72,352.71,0.0,0.0
1630871552.79983091,68228531,0.07,0.05,0.08,0.06,352.72,352.72,0.0,0.0
1630871552.89979100,68328491,0.11,0.07,0.1,0.08,352.72,352.72,0.0,0.0
1630871552.99975109,68428451,0.15,0.12,0.1,0.09,352.72,352.73,0.0,0.0
1630871553.09971094,68528411,0.17,0.17,0.11,0.1,352.72,352.73,0.0,0.0
1630871553.19967103,68628371,0.16,0.18,0.1,0.11,352.72,352.73,0.0,0.0
1630871553.29963112,68728331,0.15,0.18,0.07,0.1,352.72,352.73,0.0,0.0
1630871553.39959097,68828291,0.1,0.14,0.04,0.06,352.72,352.73,0.0,0.0
1630871553.49955106,68928251,0.1,0.1,0.04,0.03,352.72,352.73,0.0,0.0
1630871553.59951115,69028211,0.1,0.08,0.06,0.02,352.72,352.73,0.0,0.0
1630871553.69947100,69128171,0.12,0.08,0.08,0.04,352.72,352.73,0.0,0.0
1630871553.80026412,69228964,0.14,0.1,0.1,0.07,352.72,352.73,0.0,0.0
1630871553.90022397,69328924,0.14,0.13,0.15,0.12,352.72,352.73,0.0,0.0
1630871554.00018406,69428884,0.1,0.12,0.17,0.16,352.72,352.73,0.0,0.0
1630871554.10014415,69528844,0.09,0.09,0.17,0.17,352.72,352.73,0.0,0.0
1630871554.20010400,69628804,0.11,0.08,0.17,0.17,352.72,352.73,0.0,0.0
1630871554.30006409,69728764,0.13,0.1,0.15,0.16,352.72,352.73,0.0,0.0
1630871554.40002394,69828724,0.14,0.12,0.15,0.14,352.72,352.72,0.0,0.0
1630871554.49998403,69928684,0.12,0.12,0.17,0.15,352.72,352.72,0.0,0.0
1630871554.59994411,70028644,0.08,0.1,0.18,0.17,352.72,352.72,0.0,0.0
1630871554.69990396,70128604,0.07,0.08,0.14,0.16,352.72,352.72,0.0,0.0
1630871554.79986405,70228564,0.09,0.06,0.11,0.13,352.72,352.72,0.0,0.0
1630871554.89982414,70328524,0.14,0.09,0.1,0.11,352.72,352.72,0.0,0.0
1630871554.99978399,70428484,0.16,0.13,0.08,0.08,352.72,352.72,0.0,0.0
1630871555.09974408,70528444,0.15,0.15,0.08,0.07,352.72,352.72,0.0,0.0
1630871555.19970393,70628404,0.14,0.15,0.1,0.07,352.72,352.72,0.0,0.0
1630871555.29966402,70728364,0.13,0.14,0.09,0.08,352.72,352.72,0.0,0.0
1630871555.39962411,70828324,0.11,0.12,0.07,0.07,352.72,352.72,0.0,0.0
1630871555.49958396,70928284,0.11,0.11,0.08,0.07,352.72,352.72,0.0,0.0
1630871555.59954405,71028244,0.1,0.09,0.1,0.08,352.72,352.72,0.0,0.0
1630871555.69950414,71128204,0.08,0.07,0.13,0.1,352.72,352.72,0.0,0.0
1630871555.79946399,71228164,0.06,0.04,0.13,0.12,352.72,352.72,0.0,0.0
1630871555.90025711,71328957,0.06,0.04,0.12,0.11,352.72,352.72,0.0,0.0
1630871556.00021696,71428917,0.09,0.06,0.11,0.11,352.72,352.72,0.0,0.0
1630871556.10017705,71528877,0.12,0.09,0.1,0.1,352.72,352.72,0.0,0.0
1630871556.20013714,71628837,0.13,0.12,0.11,0.09,352.72,352.73,0.0,0.0
1630871556.30009699,71728797,0.15,0.15,0.12,0.1,352.72,352.73,0.0,0.0
1630871556.40005708,71828757,0.18,0.17,0.15,0.12,352.72,352.73,0.0,0.0
1630871556.50001693,71928717,0.15,0.17,0.16,0.15,352.72,352.73,0.0,0.0
1630871556.59997702,72028677,0.1,0.13,0.12,0.15,352.72,352.72,0.0,0.0
1630871556.69993711,72128637,0.08,0.09,0.09,0.12,352.72,352.72,0.0,0.0
1630871556.79989696,72228597,0.07,0.06,0.08,0.09,352.72,352.72,0.0,0.0
1630871556.89985704,72328557,0.07,0.04,0.09,0.08,352.72,352.72,0.0,0.0
1630871556.99981713,72428517,0.09,0.05,0.09,0.08,352.72,352.72,0.0,0.0
1630871557.09977698,72528477,0.12,0.08,0.09,0.08,352.72,352.72,0.0,0.0
1630871557.19973707,72628437,0.11,0.09,0.08,0.07,352.72,352.72,0.0,0.0
1630871557.29969692,72728397,0.06,0.08,0.11,0.07,352.72,352.72,0.0,0.0
1630871557.39965701,72828357,0.0,0.03,0.13,0.1,352.72,352.72,0.0,0.0
1630871557.49961710,72928317,-0.01,-0.01,0.1,0.11,352.72,352.72,0.0,0.0
1630871557.59957695,73028277,0.03,-0.01,0.07,0.09,352.72,352.73,0.0,0.0
1630871557.69953704,73128237,0.07,0.01,0.05,0.07,352.72,352.73,0.0,0.0
1630871557.79949713,73228197,0.09,0.05,0.02,0.04,352.72,352.73,0.0,0.0
1630871557.89945698,73328157,0.1,0.08,0.0,0.0,352.72,352.73,0.0,0.0
1630871558.00025010,73428950,0.12,0.11,0.02,0.0,352.72,352.73,0.0,0.0
1630871558.10020995,73528910,0.14,0.14,0.05,0.01,352.72,352.73,0.0,0.0
1630871558.20017004,73628870,0.13,0.14,0.04,0.03,352.72,352.73,0.0,0.0
1630871558.30013013,73728830,0.17,0.16,0.02,0.02,352.72,352.73,0.0,0.0
1630871558.40008998,73828790,0.19,0.18,0.01,0.0,352.72,352.73,0.0,0.0
1630871558.50005007,73928750,0.19,0.2,0.02,0.0,352.72,352.73,0.0,0.0
1630871558.60000992,74028710,0.16,0.18,0.03,0.01,352.72,352.73,0.0,0.0
1630871558.69997001,74128670,0.17,0.17,0.06,0.03,352.72,352.73,0.0,0.0
1630871558.79993010,74228630,0.19,0.17,0.1,0.06,352.72,352.73,0.0,0.0
1630871558.89988995,74328590,0.2,0.18,0.09,0.09,352.72,352.73,0.0,0.0
1630871558.99985003,74428550,0.19,0.18,0.08,0.09,352.72,352.72,0.0,0.0
1630871559.09981012,74528510,0.19,0.18,0.06,0.07,352.72,352.72,0.0,0.0
1630871559.19976997,74628470,0.18,0.18,0.02,0.04,352.72,352.72,0.0,0.0
1630871559.29973006,74728430,0.19,0.18,0.02,0.02,352.72,352.72,0.0,0.0
1630871559.39968991,74828390,0.19,0.18,0.02,0.01,352.72,352.72,0.0,0.0
1630871559.49965000,74928350,0.15,0.16,0.02,0.0,352.72,352.72,0.0,0.0
1630871559.59961009,75028310,0.1,0.11,0.06,0.02,352.72,352.72,0.0,0.0
1630871559.69956994,75128270,0.1,0.09,0.07,0.05,352.72,352.72,0.0,0.0
1630871559.79953003,75228230,0.14,0.11,0.07,0.05,352.72,352.72,0.0,0.0
1630871559.89949012,75328190,0.16,0.14,0.08,0.07,352.72,352.72,0.0,0.0
1630871560.00028300,75428983,0.19,0.17,0.09,0.08,352.72,352.72,0.0,0.0
1630871560.10024309,75528943,0.22,0.21,0.09,0.1,352.72,352.72,0.0,0.0
1630871560.20020294,75628903,0.2,0.23,0.05,0.08,352.72,352.72,0.0,0.0
1630871560.30016303,75728863,0.15,0.19,0.06,0.06,352.72,352.72,0.0,0.0
1630871560.40012312,75828823,0.12,0.14,0.08,0.06,352.72,352.72,0.0,0.0
1630871560.50008297,75928783,0.12,0.1,0.09,0.07,352.72,352.72,0.0,0.0
1630871560.60004306,76028743,0.15,0.11,0.1,0.08,352.72,352.72,0.0,0.0
1630871560.70000315,76128703,0.15,0.11,0.12,0.09,352.72,352.73,0.0,0.0
1630871560.79996300,76228663,0.16,0.12,0.15,0.12,352.72,352.73,0.0,0.0
1630871560.89992309,76328623,0.19,0.16,0.13,0.13,352.72,352.73,0.0,0.0
1630871560.99988294,76428583,0.23,0.21,0.12,0.12,352.72,352.72,0.0,0.0
1630871561.09984303,76528543,0.23,0.24,0.15,0.14,352.72,352.72,0.0,0.0
1630871561.19980311,76628503,0.23,0.25,0.15,0.15,352.72,352.72,0.0,0.0
1630871561.29976296,76728463,0.2,0.23,0.15,0.16,352.72,352.72,0.0,0.0
1630871561.39972305,76828423,0.16,0.19,0.14,0.16,352.72,352.72,0.0,0.0
1630871561.49968314,76928383,0.13,0.14,0.15,0.16,352.72,352.72,0.0,0.0
1630871561.59964299,77028343,0.11,0.1,0.13,0.15,352.72,352.73,0.0,0.0
1630871561.69960308,77128303,0.14,0.1,0.12,0.13,352.72,352.73,0.0,0.0
1630871561.79956293,77228263,0.19,0.14,0.14,0.12,352.72,352.73,0.0,0.0
1630871561.89952302,77328223,0.23,0.19,0.14,0.13,352.72,352.73,0.0,0.0
1630871561.99948311,77428183,0.22,0.23,0.11,0.12,352.72,352.73,0.0,0.0
1630871562.10027599,77528976,0.18,0.22,0.13,0.11,352.72,352.73,0.0,0.0
1630871562.20023608,77628936,0.14,0.17,0.12,0.1,352.72,352.73,0.0,0.0
1630871562.30019593,77728896,0.13,0.13,0.09,0.08,352.72,352.72,0.0,0.0
1630871562.40015602,77828856,0.15,0.12,0.1,0.07,352.72,352.72,0.0,0.0
1630871562.50011611,77928816,0.16,0.13,0.14,0.1,352.72,352.72,0.0,0.0
1630871562.60007596,78028776,0.18,0.15,0.16,0.13,352.72,352.72,0.0,0.0
1630871562.70003605,78128736,0.17,0.16,0.12,0.14,352.72,352.72,0.0,0.0
1630871562.79999614,78228696,0.15,0.16,0.05,0.09,352.72,352.72,0.0,0.0
1630871562.89995599,78328656,0.12,0.14,0.0,0.02,352.72,352.72,0.0,0.0
1630871562.99991608,78428616,0.1,0.11,0.02,0.0,352.72,352.72,0.0,0.0
1630871563.09987593,78528576,0.1,0.09,0.09,0.03,352.72,352.72,0.0,0.0
1630871563.19983602,78628536,0.09,0.07,0.14,0.1,352.72,352.72,0.0,0.0
1630871563.29979610,78728496,0.08,0.06,0.17,0.15,352.72,352.72,0.0,0.0
1630871563.39975595,78828456,0.06,0.05,0.17,0.18,352.72,352.73,0.0,0.0
1630871563.49971604,78928416,0.07,0.05,0.15,0.17,352.72,352.73,0.0,0.0
1630871563.59967613,79028376,0.07,0.05,0.14,0.14,352.72,352.72,0.0,0.0
1630871563.69963598,79128336,0.09,0.06,0.12,0.12,352.72,352.72,0.0,0.0
1630871563.79959607,79228296,0.11,0.08,0.1,0.09,352.72,352.72,0.0,0.0
1630871563.89955592,79328256,0.08,0.08,0.1,0.08,352.72,352.72,0.0,0.0
1630871563.99951601,79428216,0.06,0.06,0.14,0.1,352.72,352.72,0.0,0.0
1630871564.09947610,79528176,0.05,0.04,0.18,0.14,352.72,352.72,0.0,0.0
1630871564.20026898,79628969,0.08,0.05,0.19,0.18,352.72,352.72,0.0,0.0
1630871564.30022907,79728929,0.11,0.08,0.18,0.2,352.72,352.72,0.0,0.0
1630871564.40018892,79828889,0.11,0.11,0.17,0.19,352.72,352.72,0.0,0.0
1630871564.50014901,79928849,0.07,0.1,0.13,0.16,352.72,352.72,0.0,0.0
1630871564.60010910,80028809,0.03,0.05,0.1,0.12,352.72,352.72,0.0,0.0
1630871564.70006895,80128769,0.02,0.01,0.09,0.09,352.72,352.72,0.0,0.0
1630871564.80002904,80228729,0.04,0.01,0.1,0.08,352.72,352.72,0.0,0.0
1630871564.89998913,80328689,0.08,0.03,0.13,0.09,352.72,352.72,0.0,0.0
1630871564.99994898,80428649,0.11,0.06,0.15,0.11,352.72,352.72,0.0,0.0
1630871565.09990907,80528609,0.14,0.11,0.13,0.12,352.72,352.72,0.0,0.0
1630871565.19986892,80628569,0.16,0.15,0.13,0.12,352.72,352.72,0.0,0.0
1630871565.29982901,80728529,0.19,0.18,0.14,0.13,352.72,352.72,0.0,0.0
1630871565.39978909,80828489,0.18,0.2,0.15,0.14,352.72,352.72,0.0,0.0
1630871565.49974895,80928449,0.16,0.19,0.15,0.15,352.72,352.72,0.0,0.0
1630871565.59970903,81028409,0.15,0.16,0.16,0.16,352.72,352.72,0.0,0.0
1630871565.69966912,81128369,0.14,0.15,0.14,0.15,352.72,352.72,0.0,0.0
1630871565.79962897,81228329,0.14,0.14,0.12,0.13,352.72,352.72,0.0,0.0
1630871565.89958906,81328289,0.13,0.14,0.09,0.1,352.72,352.72,0.0,0.0
1630871565.99954891,81428249,0.13,0.14,0.07,0.08,352.72,352.73,0.0,0.0
1630871566.09950900,81528209,0.15,0.14,0.09,0.07,352.72,352.73,0.0,0.0
1630871566.19946909,81628169,0.17,0.15,0.1,0.08,352.72,352.73,0.0,0.0
1630871566.30026197,81728962,0.17,0.16,0.13,0.11,352.72,352.73,0.0,0.0
1630871566.40022206,81828922,0.18,0.17,0.17,0.15,352.72,352.73,0.0,0.0
1630871566.50018191,81928882,0.17,0.16,0.2,0.2,352.72,352.73,0.0,0.0
1630871566.60014200,82028842,0.18,0.16,0.2,0.22,352.72,352.72,0.0,0.0
1630871566.70010209,82128802,0.15,0.16,0.18,0.23,352.72,352.72,0.0,0.0
1630871566.80006194,82228762,0.1,0.12,0.13,0.18,352.72,352.72,0.0,0.0
1630871566.90002203,82328722,0.1,0.09,0.09,0.12,352.72,352.72,0.0,0.0
1630871566.99998212,82428682,0.1,0.08,0.09,0.08,352.72,352.71,0.0,0.0
1630871567.09994197,82528642,0.11,0.07,0.13,0.09,352.72,352.71,0.0,0.0
1630871567.19990206,82628602,0.14,0.09,0.15,0.11,352.72,352.71,0.0,0.0
1630871567.29986215,82728562,0.16,0.13,0.17,0.14,352.72,352.72,0.0,0.0
1630871567.39982200,82828522,0.17,0.16,0.14,0.15,352.72,352.72,0.0,0.0
1630871567.49978209,82928482,0.18,0.19,0.11,0.13,352.72,352.72,0.0,0.0
1630871567.59974194,83028442,0.17,0.2,0.1,0.11,352.72,352.72,0.0,0.0
1630871567.69970202,83128402,0.12,0.16,0.09,0.09,352.72,352.72,0.0,0.0
1630871567.79966211,83228362,0.08,0.11,0.1,0.08,352.72,352.72,0.0,0.0
1630871567.89962196,83328322,0.08,0.08,0.11,0.09,352.72,352.72,0.0,0.0
1630871567.99958205,83428282,0.08,0.07,0.12,0.09,352.72,352.72,0.0,0.0
1630871568.09954214,83528242,0.08,0.07,0.14,0.11,352.72,352.72,0.0,0.0
1630871568.19950199,83628202,0.09,0.07,0.16,0.13,352.72,352.72,0.0,0.0
1630871568.29946208,83728162,0.1,0.08,0.17,0.15,352.72,352.73,0.0,0.0
1630871568.40025496,83828955,0.13,0.1,0.17,0.17,352.72,352.73,0.0,0.0
1630871568.50021505,83928915,0.15,0.12,0.15,0.16,352.72,352.73,0.0,0.0
1630871568.60017514,84028875,0.17,0.15,0.14,0.15,352.72,352.72,0.0,0.0
1630871568.70013499,84128835,0.2,0.18,0.13,0.13,352.72,352.72,0.0,0.0
1630871568.80009508,84228795,0.21,0.22,0.09,0.1,352.72,352.72,0.0,0.0
1630871568.90005493,84328755,0.19,0.22,0.09,0.09,352.72,352.72,0.0,0.0
1630871569.00001502,84428715,0.17,0.2,0.11,0.09,352.72,352.72,0.0,0.0
1630871569.09997511,84528675,0.14,0.16,0.1,0.1,352.72,352.71,0.0,0.0
1630871569.19993496,84628635,0.14,0.14,0.08,0.08,352.72,352.71,0.0,0.0
1630871569.29989505,84728595,0.13,0.12,0.06,0.06,352.72,352.71,0.0,0.0
1630871569.39985514,84828555,0.15,0.12,0.06,0.05,352.72,352.71,0.0,0.0
1630871569.49981499,84928515,0.17,0.14,0.09,0.06,352.72,352.71,0.0,0.0
1630871569.59977508,85028475,0.14,0.14,0.11,0.08,352.72,352.71,0.0,0.0
1630871569.69973493,85128435,0.13,0.13,0.15,0.12,352.72,352.71,0.0,0.0
1630871569.79969501,85228395,0.11,0.11,0.19,0.17,352.72,352.71,0.0,0.0
1630871569.89965510,85328355,0.11,0.09,0.22,0.22,352.72,352.71,0.0,0.0
1630871569.99961495,85428315,0.13,0.09,0.23,0.25,352.72,352.71,0.0,0.0
1630871570.09957504,85528275,0.17,0.12,0.17,0.23,352.72,352.71,0.0,0.0
1630871570.19953513,85628235,0.16,0.15,0.1,0.15,352.72,352.71,0.0,0.0
1630871570.29949498,85728195,0.14,0.15,0.06,0.07,352.72,352.71,0.0,0.0
1630871570.39945507,85828155,0.14,0.14,0.05,0.03,352.72,352.72,0.0,0.0
1630871570.50024796,85928948,0.14,0.14,0.06,0.02,352.72,352.72,0.0,0.0
1630871570.60020804,86028908,0.14,0.13,0.09,0.03,352.72,352.71,0.0,0.0
1630871570.70016813,86128868,0.13,0.12,0.12,0.07,352.72,352.72,0.0,0.0
1630871570.80012798,86228828,0.14,0.12,0.14,0.11,352.72,352.72,0.0,0.0
1630871570.90008807,86328788,0.16,0.14,0.12,0.12,352.72,352.72,0.0,0.0
1630871571.00004792,86428748,0.17,0.16,0.11,0.11,352.72,352.72,0.0,0.0
1630871571.10000801,86528708,0.17,0.17,0.07,0.08,352.72,352.72,0.0,0.0
1630871571.19996810,86628668,0.14,0.16,0.06,0.05,352.72,352.72,0.0,0.0
1630871571.29992795,86728628,0.1,0.12,0.11,0.07,352.72,352.72,0.0,0.0
1630871571.39988804,86828588,0.05,0.06,0.14,0.11,352.72,352.72,0.0,0.0
1630871571.49984813,86928548,0.04,0.01,0.14,0.15,352.72,352.72,0.0,0.0
1630871571.59980798,87028508,0.07,0.01,0.13,0.16,352.72,352.72,0.0,0.0
1630871571.69976807,87128468,0.13,0.06,0.12,0.16,352.72,352.72,0.0,0.0
1630871571.79972792,87228428,0.17,0.14,0.12,0.14,352.72,352.72,0.0,0.0
1630871571.89968801,87328388,0.15,0.16,0.1,0.11,352.72,352.72,0.0,0.0
1630871571.99964809,87428348,0.14,0.16,0.07,0.07,352.72,352.72,0.0,0.0
1630871572.09960794,87528308,0.12,0.14,0.04,0.03,352.72,352.72,0.0,0.0
1630871572.19956803,87628268,0.11,0.12,0.05,0.01,352.72,352.72,0.0,0.0
1630871572.29952812,87728228,0.12,0.11,0.07,0.02,352.72,352.72,0.0,0.0
1630871572.39948797,87828188,0.13,0.12,0.11,0.06,352.72,352.72,0.0,0.0
1630871572.50028110,87928981,0.09,0.11,0.13,0.11,352.72,352.72,0.0,0.0
1630871572.60024095,88028941,0.05,0.07,0.14,0.14,352.72,352.73,0.0,0.0
1630871572.70020103,88128901,0.05,0.04,0.14,0.15,352.72,352.73,0.0,0.0
1630871572.80016112,88228861,0.08,0.05,0.14,0.14,352.72,352.73,0.0,0.0
1630871572.90012097,88328821,0.09,0.07,0.13,0.14,352.72,352.73,0.0,0.0
1630871573.00008106,88428781,0.09,0.09,0.11,0.13,352.72,352.73,0.0,0.0
1630871573.10004091,88528741,0.08,0.09,0.1,0.11,352.72,352.72,0.0,0.0
1630871573.20000100,88628701,0.06,0.06,0.1,0.11,352.72,352.72,0.0,0.0
1630871573.29996109,88728661,0.07,0.05,0.09,0.1,352.72,352.72,0.0,0.0
1630871573.39992094,88828621,0.09,0.06,0.08,0.08,352.72,352.72,0.0,0.0
1630871573.49988103,88928581,0.12,0.08,0.12,0.08,352.72,352.72,0.0,0.0
1630871573.59984112,89028541,0.17,0.13,0.16,0.12,352.72,352.71,0.0,0.0
1630871573.69980097,89128501,0.21,0.19,0.17,0.15,352.72,352.71,0.0,0.0
1630871573.79976106,89228461,0.22,0.23,0.18,0.17,352.72,352.71,0.0,0.0
1630871573.89972115,89328421,0.2,0.24,0.18,0.19,352.72,352.71,0.0,0.0
1630871573.99968100,89428381,0.18,0.22,0.18,0.19,352.72,352.71,0.0,0.0
1630871574.09964108,89528341,0.17,0.19,0.17,0.19,352.72,352.72,0.0,0.0
1630871574.19960093,89628301,0.18,0.18,0.15,0.17,352.72,352.72,0.0,0.0
1630871574.29956102,89728261,0.16,0.16,0.16,0.16,352.72,352.72,0.0,0.0
1630871574.39952111,89828221,0.15,0.14,0.16,0.16,352.72,352.72,0.0,0.0
1630871574.49948096,89928181,0.16,0.12,0.17,0.15,352.72,352.72,0.0,0.0
1630871574.60027409,90028974,0.19,0.14,0.17,0.15,352.72,352.72,0.0,0.0
1630871574.70023394,90128934,0.21,0.18,0.18,0.16,352.72,352.72,0.0,0.0
1630871574.80019403,90228894,0.22,0.2,0.18,0.17,352.72,352.72,0.0,0.0
1630871574.90015411,90328854,0.23,0.22,0.19,0.18,352.72,352.72,0.0,0.0
1630871575.00011396,90428814,0.2,0.21,0.2,0.19,352.72,352.72,0.0,0.0
1630871575.10007405,90528774,0.18,0.2,0.21,0.19,352.72,352.72,0.0,0.0
1630871575.20003414,90628734,0.16,0.19,0.18,0.18,352.72,352.72,0.0,0.0
1630871575.29999399,90728694,0.14,0.16,0.16,0.16,352.72,352.71,0.0,0.0
1630871575.39995408,90828654,0.16,0.15,0.13,0.12,352.72,352.71,0.0,0.0
1630871575.49991393,90928614,0.18,0.16,0.13,0.11,352.72,352.71,0.0,0.0
1630871575.59987402,91028574,0.16,0.17,0.16,0.12,352.72,352.72,0.0,0.0
1630871575.69983411,91128534,0.11,0.14,0.17,0.13,352.72,352.72,0.0,0.0
1630871575.79979396,91228494,0.07,0.08,0.2,0.16,352.72,352.72,0.0,0.0
1630871575.89975405,91328454,0.08,0.05,0.2,0.19,352.72,352.71,0.0,0.0
1630871575.99971414,91428414,0.08,0.05,0.18,0.18,352.72,352.71,0.0,0.0
1630871576.09967399,91528374,0.08,0.05,0.15,0.17,352.72,352.72,0.0,0.0
1630871576.19963408,91628334,0.09,0.06,0.13,0.15,352.72,352.72,0.0,0.0
1630871576.29959393,91728294,0.09,0.08,0.15,0.15,352.72,352.72,0.0,0.0
1630871576.39955401,91828254,0.11,0.09,0.15,0.15,352.72,352.72,0.0,0.0
1630871576.49951410,91928214,0.16,0.13,0.12,0.13,352.72,352.72,0.0,0.0
1630871576.59947395,92028174,0.18,0.17,0.11,0.11,352.72,352.72,0.0,0.0
1630871576.70026708,92128967,0.17,0.19,0.11,0.1,352.72,352.72,0.0,0.0
1630871576.80022693,92228927,0.16,0.18,0.13,0.11,352.72,352.72,0.0,0.0
1630871576.90018702,92328887,0.17,0.17,0.17,0.14,352.72,352.72,0.0,0.0
1630871577.00014710,92428847,0.18,0.17,0.17,0.17,352.72,352.72,0.0,0.0
1630871577.10010695,92528807,0.18,0.17,0.15,0.16,352.72,352.72,0.0,0.0
1630871577.20006704,92628767,0.19,0.16,0.15,0.15,352.72,352.72,0.0,0.0
1630871577.30002713,92728727,0.19,0.17,0.16,0.15,352.72,352.72,0.0,0.0
1630871577.39998698,92828687,0.17,0.17,0.11,0.12,352.72,352.72,0.0,0.0
1630871577.49994707,92928647,0.17,0.17,0.07,0.08,352.72,352.72,0.0,0.0
1630871577.59990692,93028607,0.18,0.16,0.07,0.06,352.72,352.72,0.0,0.0
1630871577.69986701,93128567,0.16,0.15,0.07,0.05,352.72,352.72,0.0,0.0
1630871577.79982710,93228527,0.14,0.14,0.1,0.06,352.72,352.72,0.0,0.0
1630871577.89978695,93328487,0.15,0.13,0.11,0.09,352.72,352.72,0.0,0.0
1630871577.99974704,93428447,0.17,0.14,0.11,0.1,352.72,352.73,0.0,0.0
1630871578.09970713,93528407,0.2,0.17,0.1,0.1,352.72,352.73,0.0,0.0
1630871578.19966698,93628367,0.18,0.18,0.09,0.1,352.72,352.72,0.0,0.0
1630871578.29962707,93728327,0.16,0.16,0.09,0.09,352.72,352.72,0.0,0.0
1630871578.39958692,93828287,0.15,0.15,0.11,0.09,352.72,352.72,0.0,0.0
1630871578.49954700,93928247,0.16,0.15,0.11,0.1,352.72,352.71,0.0,0.0
1630871578.59950709,94028207,0.17,0.16,0.12,0.11,352.72,352.71,0.0,0.0
1630871578.69946694,94128167,0.18,0.17,0.14,0.13,352.72,352.71,0.0,0.0
1630871578.80026007,94228960,0.2,0.18,0.14,0.15,352.72,352.71,0.0,0.0
1630871578.90021992,94328920,0.24,0.21,0.14,0.15,352.72,352.71,0.0,0.0
1630871579.00018001,94428880,0.25,0.24,0.15,0.14,352.72,352.72,0.0,0.0
1630871579.10014009,94528840,0.23,0.25,0.16,0.14,352.72,352.72,0.0,0.0
1630871579.20009995,94628800,0.21,0.23,0.17,0.15,352.72,352.71,0.0,0.0
1630871579.30006003,94728760,0.21,0.22,0.15,0.15,352.72,352.71,0.0,0.0
1630871579.40002012,94828720,0.22,0.21,0.13,0.13,352.72,352.71,0.0,0.0
1630871579.49997997,94928680,0.22,0.21,0.11,0.1,352.72,352.71,0.0,0.0
1630871579.59994006,95028640,0.2,0.2,0.1,0.08,352.72,352.72,0.0,0.0
1630871579.69989991,95128600,0.18,0.18,0.11,0.08,352.72,352.72,0.0,0.0
1630871579.79986000,95228560,0.16,0.16,0.1,0.07,352.72,352.72,0.0,0.0
1630871579.89982009,95328520,0.17,0.15,0.11,0.09,352.72,352.72,0.0,0.0
1630871579.99977994,95428480,0.2,0.17,0.12,0.1,352.72,352.72,0.0,0.0
1630871580.09974003,95528440,0.19,0.17,0.16,0.14,352.72,352.72,0.0,0.0
1630871580.19970012,95628400,0.16,0.15,0.2,0.18,352.72,352.72,0.0,0.0
1630871580.29965997,95728360,0.15,0.14,0.22,0.21,352.72,352.72,0.0,0.0
1630871580.39962006,95828320,0.13,0.12,0.23,0.23,352.72,352.72,0.0,0.0
1630871580.49958014,95928280,0.13,0.11,0.21,0.22,352.72,352.72,0.0,0.0
1630871580.59954000,96028240,0.14,0.13,0.16,0.18,352.72,352.72,0.0,0.0
1630871580.69950008,96128200,0.16,0.16,0.15,0.14,352.72,352.72,0.0,0.0
1630871580.79945993,96228160,0.14,0.16,0.17,0.13,352.72,352.72,0.0,0.0
1630871580.90025306,96328953,0.15,0.16,0.19,0.16,352.72,352.72,0.0,0.0
1630871581.00021315,96428913,0.17,0.17,0.2,0.19,352.72,352.72,0.0,0.0
1630871581.10017300,96528873,0.19,0.18,0.23,0.23,352.72,352.72,0.0,0.0
1630871581.20013309,96628833,0.21,0.2,0.22,0.24,352.72,352.72,0.0,0.0
1630871581.30009294,96728793,0.21,0.21,0.19,0.23,352.72,352.72,0.0,0.0
1630871581.40005302,96828753,0.19,0.21,0.16,0.2,352.72,352.72,0.0,0.0
1630871581.50001311,96928713,0.16,0.19,0.17,0.17,352.72,352.72,0.0,0.0
1630871581.59997296,97028673,0.11,0.14,0.16,0.15,352.72,352.72,0.0,0.0
1630871581.69993305,97128633,0.08,0.07,0.16,0.14,352.72,352.72,0.0,0.0
1630871581.79989314,97228593,0.08,0.05,0.16,0.14,352.72,352.72,0.0,0.0
1630871581.89985299,97328553,0.11,0.06,0.19,0.16,352.72,352.72,0.0,0.0
1630871581.99981308,97428513,0.11,0.07,0.21,0.19,352.72,352.72,0.0,0.0
1630871582.09977293,97528473,0.1,0.08,0.21,0.21,352.72,352.72,0.0,0.0
1630871582.19973302,97628433,0.12,0.09,0.21,0.21,352.72,352.72,0.0,0.0
1630871582.29969311,97728393,0.14,0.11,0.21,0.21,352.72,352.72,0.0,0.0
1630871582.39965296,97828353,0.13,0.12,0.2,0.2,352.72,352.72,0.0,0.0
1630871582.49961305,97928313,0.14,0.12,0.16,0.18,352.72,352.72,0.0,0.0
1630871582.59957314,98028273,0.16,0.14,0.12,0.13,352.72,352.72,0.0,0.0
1630871582.69953299,98128233,0.17,0.15,0.13,0.11,352.72,352.72,0.0,0.0
1630871582.79949307,98228193,0.16,0.16,0.15,0.12,352.72,352.72,0.0,0.0
1630871582.90028596,98328986,0.15,0.15,0.15,0.13,352.72,352.72,0.0,0.0
1630871583.00024605,98428946,0.15,0.14,0.16,0.14,352.72,352.72,0.0,0.0
1630871583.10020614,98528906,0.15,0.14,0.19,0.17,352.72,352.72,0.0,0.0
1630871583.20016599,98628866,0.16,0.14,0.18,0.18,352.72,352.72,0.0,0.0
1630871583.30012608,98728826,0.17,0.15,0.18,0.18,352.72,352.72,0.0,0.0
1630871583.40008593,98828786,0.15,0.15,0.17,0.18,352.72,352.72,0.0,0.0
1630871583.50004601,98928746,0.16,0.15,0.17,0.17,352.72,352.72,0.0,0.0
1630871583.60000610,99028706,0.17,0.15,0.15,0.15,352.72,352.72,0.0,0.0
1630871583.69996595,99128666,0.16,0.15,0.14,0.14,352.72,352.72,0.0,0.0
1630871583.79992604,99228626,0.17,0.15,0.15,0.14,352.72,352.72,0.0,0.0
1630871583.89988613,99328586,0.17,0.16,0.17,0.15,352.72,352.72,0.0,0.0
1630871583.99984598,99428546,0.17,0.16,0.17,0.16,352.72,352.71,0.0,0.0
1630871584.09980607,99528506,0.19,0.17,0.15,0.15,352.72,352.71,0.0,0.0
1630871584.19976592,99628466,0.2,0.18,0.14,0.13,352.72,352.71,0.0,0.0
1630871584.29972601,99728426,0.21,0.2,0.14,0.13,352.72,352.71,0.0,0.0
1630871584.39968610,99828386,0.22,0.21,0.15,0.14,352.72,352.71,0.0,0.0
1630871584.49964595,99928346,0.21,0.21,0.15,0.15,352.72,352.72,0.0,0.0
1630871584.59960604,100028306,0.18,0.19,0.13,0.13,352.72,352.72,0.0,0.0
1630871584.69956613,100128266,0.15,0.16,0.12,0.12,352.72,352.72,0.0,0.0
1630871584.79952598,100228226,0.14,0.13,0.1,0.1,352.72,352.72,0.0,0.0
1630871584.89948606,100328186,0.14,0.12,0.1,0.08,352.72,352.72,0.0,0.0
1630871585.00027895,100428979,0.14,0.12,0.11,0.08,352.72,352.72,0.0,0.0
1630871585.10023904,100528939,0.14,0.13,0.15,0.11,352.72,352.72,0.0,0.0
1630871585.20019913,100628899,0.12,0.12,0.18,0.14,352.72,352.72,0.0,0.0
1630871585.30015898,100728859,0.11,0.11,0.17,0.16,352.72,352.72,0.0,0.0
1630871585.40011907,100828819,0.12,0.1,0.14,0.14,352.72,352.71,0.0,0.0
1630871585.50007892,100928779,0.14,0.11,0.13,0.12,352.72,352.71,0.0,0.0
1630871585.60003901,101028739,0.13,0.11,0.12,0.11,352.72,352.71,0.0,0.0
1630871585.69999909,101128699,0.11,0.1,0.14,0.12,352.72,352.71,0.0,0.0
1630871585.79995894,101228659,0.12,0.1,0.15,0.13,352.72,352.71,0.0,0.0
1630871585.89991903,101328619,0.15,0.12,0.14,0.14,352.72,352.71,0.0,0.0
1630871585.99987912,101428579,0.16,0.14,0.13,0.13,352.72,352.71,0.0,0.0
1630871586.09983897,101528539,0.14,0.14,0.12,0.12,352.72,352.72,0.0,0.0
1630871586.19979906,101628499,0.1,0.11,0.1,0.1,352.72,352.72,0.0,0.0
1630871586.29975891,101728459,0.1,0.1,0.12,0.1,352.72,352.72,0.0,0.0
1630871586.39971900,101828419,0.11,0.1,0.16,0.12,352.72,352.72,0.0,0.0
1630871586.49967909,101928379,0.14,0.12,0.22,0.19,352.72,352.73,0.0,0.0
1630871586.59963894,102028339,0.17,0.15,0.23,0.23,352.72,352.73,0.0,0.0
1630871586.69959903,102128299,0.18,0.17,0.21,0.24,352.72,352.73,0.0,0.0
1630871586.79955912,102228259,0.17,0.18,0.17,0.2,352.72,352.73,0.0,0.0
1630871586.89951897,102328219,0.16,0.17,0.14,0.15,352.72,352.72,0.0,0.0
1630871586.99947906,102428179,0.13,0.15,0.11,0.1,352.72,352.72,0.0,0.0
1630871587.10027194,102528972,0.1,0.12,0.12,0.08,352.72,352.71,0.0,0.0
1630871587.20023203,102628932,0.09,0.08,0.14,0.09,352.72,352.71,0.0,0.0
1630871587.30019212,102728892,0.09,0.06,0.16,0.12,352.72,352.71,0.0,0.0
1630871587.40015197,102828852,0.11,0.07,0.18,0.15,352.72,352.71,0.0,0.0
1630871587.50011206,102928812,0.16,0.11,0.18,0.17,352.72,352.71,0.0,0.0
1630871587.60007215,103028772,0.2,0.16,0.16,0.18,352.72,352.71,0.0,0.0
1630871587.70003200,103128732,0.22,0.21,0.14,0.17,352.72,352.71,0.0,0.0
1630871587.79999208,103228692,0.24,0.24,0.13,0.15,352.72,352.71,0.0,0.0
1630871587.89995193,103328652,0.26,0.26,0.13,0.14,352.72,352.71,0.0,0.0
1630871587.99991202,103428612,0.2,0.24,0.0,0.07,352.72,352.72,0.0,0.0
1630871588.09987211,103528572,0.0,0.11,-0.34,-0.16,352.72,352.72,0.0,0.0
1630871588.19983196,103628532,-0.35,-0.18,-0.91,-0.65,352.72,352.72,0.0,0.0
1630871588.29979205,103728492,-0.84,-0.64,-1.61,-1.35,352.72,352.72,0.0,0.0
1630871588.39975214,103828452,-1.36,-1.21,-2.37,-2.19,352.72,352.73,0.0,0.0
1630871588.49971199,103928412,-1.8,-1.77,-3.04,-3.0,352.72,352.75,0.0,0.0
1630871588.59967208,104028372,-2.15,-2.23,-3.58,-3.69,352.72,352.76,0.0,0.0
1630871588.69963193,104128332,-2.4,-2.56,-3.98,-4.19,352.72,352.77,0.0,0.0
1630871588.79959202,104228292,-2.59,-2.77,-4.3,-4.53,352.72,352.76,0.0,0.0
1630871588.89955211,104328252,-2.78,-2.92,-4.62,-4.79,352.72,352.75,0.0,0.0
1630871588.99951196,104428212,-2.98,-3.06,-4.96,-5.06,352.72,352.74,0.0,0.0
1630871589.09947205,104528172,-3.21,-3.23,-5.31,-5.36,352.72,352.74,0.0,0.0
1630871589.20026493,104628965,-3.47,-3.45,-5.68,-5.69,352.72,352.73,0.0,0.0
1630871589.30022502,104728925,-3.71,-3.7,-6.04,-6.04,352.72,352.73,0.0,0.0
1630871589.40018511,104828885,-3.92,-3.93,-6.35,-6.38,352.72,352.73,0.0,0.0
1630871589.50014496,104928845,-4.06,-4.11,-6.58,-6.65,352.72,352.72,0.0,0.0
1630871589.60010505,105028805,-4.12,-4.2,-6.75,-6.84,352.72,352.72,0.0,0.0
1630871589.70006514,105128765,-4.16,-4.23,-6.86,-6.97,352.72,352.71,0.0,0.0
1630871589.80002499,105228725,-4.21,-4.25,-6.98,-7.06,352.72,352.7,0.0,0.0
1630871589.89998507,105328685,-4.3,-4.3,-7.13,-7.15,352.72,352.7,0.0,0.0
1630871589.99994493,105428645,-4.47,-4.45,-7.36,-7.29,351.93,352.7,0.0,0.0
1630871590.09990501,105528605,-4.66,-4.87,-7.7,-7.42,348.51,352.46,0.0,0.0
1630871590.19986510,105628565,-4.79,-5.57,-8.15,-7.56,342.79,351.36,0.0,0.0
1630871590.29982495,105728525,-4.67,-6.15,-8.7,-7.85,336.79,348.71,0.0,0.0
1630871590.39978504,105828485,-4.15,-6.21,-9.41,-8.42,330.79,344.36,0.0,0.01
1630871590.49974513,105928445,-3.18,-5.47,-10.21,-9.26,326.19,338.5,0.0,0.02
1630871590.59970498,106028405,-1.81,-3.71,-11.0,-10.24,323.93,331.72,0.0,0.02
1630871590.69966507,106128365,-0.22,-1.15,-11.65,-11.13,322.88,324.87,0.0,0.02
1630871590.79962492,106228325,1.25,1.65,-12.13,-11.77,322.44,318.75,0.0,0.02
1630871590.89958501,106328285,2.35,4.1,-12.43,-12.1,322.29,314.0,0.0,0.02
1630871590.99954510,106428245,2.94,5.73,-12.69,-12.24,322.23,310.98,0.0,0.02
1630871591.09950495,106528205,2.98,6.36,-12.96,-12.34,322.18,309.68,0.0,0.01
1630871591.19946504,106628165,2.6,6.05,-13.32,-12.55,322.09,309.86,0.0,0.01
1630871591.30025792,106728958,1.94,5.01,-13.74,-12.92,321.95,311.2,0.0,0.01
1630871591.40021801,106828918,1.19,3.52,-14.21,-13.45,321.78,313.34,0.0,0.0
1630871591.50017810,106928878,0.43,1.87,-14.65,-14.06,321.58,315.95,0.0,0.0
1630871591.60013795,107028838,-0.23,0.26,-15.0,-14.63,321.39,318.69,0.0,0.0
1630871591.70009804,107128798,-0.77,-1.11,-15.21,-15.05,321.2,321.23,0.0,0.0
1630871591.80005813,107228758,-1.12,-2.13,-15.31,-15.29,321.04,323.29,0.0,0.0
1630871591.90001798,107328718,-1.3,-2.74,-15.34,-15.37,320.92,324.71,0.0,0.0
1630871591.99997807,107428678,-1.33,-2.95,-15.36,-15.36,320.82,325.42,0.0,0.0
1630871592.09993792,107528638,-1.18,-2.79,-15.4,-15.34,320.76,325.46,0.0,0.0
1630871592.19989800,107628598,-0.9,-2.33,-15.46,-15.35,320.73,324.95,0.0,0.0
1630871592.29985809,107728558,-0.59,-1.69,-15.56,-15.42,320.73,324.04,0.0,0.0
1630871592.39981794,107828518,-0.27,-0.96,-15.67,-15.53,320.74,322.92,0.0,0.0
1630871592.49977803,107928478,0.01,-0.26,-15.77,-15.66,320.76,321.74,0.0,0.0
1630871592.59973812,108028438,0.25,0.34,-15.87,-15.8,320.79,320.66,0.0,0.0
1630871592.69969797,108128398,0.45,0.82,-15.96,-15.92,320.82,319.79,0.0,0.0
1630871592.79965806,108228358,0.54,1.14,-16.03,-16.01,320.84,319.19,0.0,0.0
1630871592.89961815,108328318,0.55,1.25,-16.07,-16.05,320.85,318.89,0.0,0.0
1630871592.99957800,108428278,0.53,1.21,-16.11,-16.1,320.87,318.87,0.0,0.0
1630871593.09953809,108528238,0.47,1.07,-16.15,-16.14,320.87,319.08,0.0,0.0
1630871593.19949794,108628198,0.34,0.82,-16.19,-16.18,320.88,319.46,0.0,0.0
1630871593.29945803,108728158,0.2,0.52,-16.22,-16.22,320.87,319.93,0.0,0.0
1630871593.40025091,108828951,0.06,0.2,-16.24,-16.25,320.87,320.43,0.0,0.0
1630871593.50021100,108928911,-0.05,-0.07,-16.26,-16.26,320.86,320.9,0.0,0.0
1630871593.60017109,109028871,-0.14,-0.3,-16.29,-16.28,320.86,321.27,0.0,0.0
1630871593.70013094,109128831,-0.16,-0.43,-16.34,-16.32,320.85,321.54,0.0,0.0
1630871593.80009103,109228791,-0.14,-0.46,-16.38,-16.37,320.85,321.68,0.0,0.0
1630871593.90005112,109328751,-0.08,-0.4,-16.45,-16.44,320.86,321.71,0.0,0.0
1630871594.00001097,109428711,0.0,-0.28,-16.52,-16.52,320.87,321.63,0.0,0.0
1630871594.09997106,109528671,0.08,-0.13,-16.56,-16.58,320.88,321.48,0.0,0.0
1630871594.19993114,109628631,0.15,0.02,-16.56,-16.6,320.9,321.3,0.0,0.0
1630871594.29989100,109728591,0.2,0.16,-16.56,-16.59,320.91,321.1,0.0,0.0
1630871594.39985108,109828551,0.24,0.27,-16.6,-16.6,320.93,320.93,0.0,0.0
1630871594.49981093,109928511,0.28,0.36,-16.66,-16.64,320.95,320.78,0.0,0.0
1630871594.59977102,110028471,0.3,0.42,-16.73,-16.72,320.96,320.69,0.0,0.0
1630871594.69973111,110128431,0.31,0.44,-16.8,-16.79,320.98,320.64,0.0,0.0
1630871594.79969096,110228391,0.32,0.45,-16.86,-16.87,320.99,320.65,0.0,0.0
1630871594.89965105,110328351,0.29,0.42,-16.91,-16.93,321.0,320.7,0.0,0.0
1630871594.99961114,110428311,0.26,0.35,-16.92,-16.96,321.01,320.77,0.0,0.0
1630871595.09957099,110528271,0.23,0.29,-16.93,-16.96,321.02,320.86,0.0,0.0
1630871595.19953108,110628231,0.2,0.23,-16.96,-16.97,321.02,320.96,0.0,0.0
1630871595.29949093,110728191,0.17,0.16,-16.99,-17.0,321.03,321.05,0.0,0.0
1630871595.40028405,110828984,0.14,0.11,-17.01,-17.03,321.03,321.12,0.0,0.0
1630871595.50024414,110928944,0.13,0.06,-17.02,-17.04,321.03,321.17,0.0,0.0
1630871595.60020399,111028904,0.13,0.04,-17.02,-17.04,321.03,321.19,0.0,0.0
1630871595.70016408,111128864,0.14,0.06,-17.05,-17.04,321.03,321.2,0.0,0.0
1630871595.80012393,111228824,0.18,0.1,-17.09,-17.08,321.04,321.19,0.0,0.0
1630871595.90008402,111328784,0.2,0.15,-17.13,-17.13,321.04,321.16,0.0,0.0
1630871596.00004411,111428744,0.22,0.2,-17.16,-17.17,321.05,321.12,0.0,0.0
1630871596.10000396,111528704,0.21,0.23,-17.18,-17.2,321.05,321.08,0.0,0.0
1630871596.19996405,111628664,0.2,0.22,-17.19,-17.23,321.05,321.05,0.0,0.0
1630871596.29992414,111728624,0.22,0.23,-17.2,-17.24,321.06,321.02,0.0,0.0
1630871596.39988399,111828584,0.24,0.24,-17.21,-17.24,321.06,321.0,0.0,0.0
1630871596.49984407,111928544,0.25,0.27,-17.24,-17.25,321.06,321.0,0.0,0.0
1630871596.59980392,112028504,0.25,0.28,-17.29,-17.28,321.06,321.0,0.0,0.0
1630871596.69976401,112128464,0.25,0.28,-17.33,-17.33,321.07,321.01,0.0,0.0
1630871596.79972410,112228424,0.26,0.28,-17.35,-17.37,321.07,321.02,0.0,0.0
1630871596.89968395,112328384,0.28,0.29,-17.35,-17.38,321.07,321.04,0.0,0.0
1630871596.99964404,112428344,0.28,0.29,-17.36,-17.39,321.07,321.06,0.0,0.0
1630871597.09960413,112528304,0.28,0.29,-17.4,-17.41,321.07,321.07,0.0,0.0
1630871597.19956398,112628264,0.26,0.28,-17.43,-17.45,321.07,321.09,0.0,0.0
1630871597.29952407,112728224,0.23,0.25,-17.45,-17.47,321.07,321.1,0.0,0.0
1630871597.39948392,112828184,0.23,0.22,-17.46,-17.49,321.07,321.1,0.0,0.0
1630871597.50027704,112928977,0.23,0.2,-17.47,-17.5,321.07,321.11,0.0,0.0
1630871597.60023713,113028937,0.25,0.21,-17.48,-17.5,321.07,321.11,0.0,0.0
1630871597.70019698,113128897,0.27,0.24,-17.5,-17.51,321.07,321.1,0.0,0.0
1630871597.80015707,113228857,0.29,0.27,-17.52,-17.53,321.07,321.1,0.0,0.0
1630871597.90011692,113328817,0.3,0.3,-17.52,-17.53,321.07,321.09,0.0,0.0
1630871598.00007701,113428777,0.28,0.31,-17.54,-17.55,321.08,321.08,0.0,0.0
1630871598.10003710,113528737,0.26,0.3,-17.56,-17.56,321.08,321.07,0.0,0.0
1630871598.19999695,113628697,0.24,0.28,-17.57,-17.58,321.08,321.06,0.0,0.0
1630871598.29995704,113728657,0.23,0.25,-17.56,-17.58,321.08,321.06,0.0,0.0
1630871598.39991713,113828617,0.26,0.24,-17.57,-17.58,321.08,321.06,0.0,0.0
1630871598.49987698,113928577,0.31,0.26,-17.58,-17.59,321.08,321.05,0.0,0.0
1630871598.59983706,114028537,0.34,0.32,-17.59,-17.6,321.08,321.06,0.0,0.0
1630871598.69979692,114128497,0.34,0.34,-17.62,-17.62,321.08,321.06,0.0,0.0
1630871598.79975700,114228457,0.36,0.36,-17.68,-17.65,321.09,321.06,0.0,0.0
1630871598.89971709,114328417,0.38,0.38,-17.71,-17.7,321.09,321.07,0.0,0.0
1630871598.99967694,114428377,0.38,0.39,-17.74,-17.74,321.09,321.08,0.0,0.0
1630871599.09963703,114528337,0.39,0.39,-17.78,-17.77,321.1,321.09,0.0,0.0
1630871599.19959712,114628297,0.38,0.39,-17.8,-17.8,321.1,321.09,0.0,0.0
1630871599.29955697,114728257,0.37,0.37,-17.81,-17.83,321.1,321.1,0.0,0.0
1630871599.39951706,114828217,0.34,0.35,-17.81,-17.83,321.1,321.11,0.0,0.0
1630871599.49947715,114928177,0.32,0.32,-17.8,-17.82,321.11,321.11,0.0,0.0
1630871599.60027003,115028970,0.31,0.3,-17.78,-17.8,321.11,321.12,0.0,0.0
1630871599.70023012,115128930,0.32,0.3,-17.8,-17.8,321.11,321.12,0.0,0.0
1630871599.80018997,115228890,0.34,0.32,-17.82,-17.81,321.11,321.12,0.0,0.0
1630871599.90015006,115328850,0.37,0.35,-17.83,-17.83,321.11,321.12,0.0,0.0
1630871600.00010991,115428810,0.4,0.39,-17.85,-17.85,321.12,321.12,0.0,0.0
1630871600.10007000,115528770,0.41,0.41,-17.86,-17.88,321.12,321.11,0.0,0.0
1630871600.20003009,115628730,0.38,0.4,-17.88,-17.9,321.12,321.11,0.0,0.0
1630871600.29998994,115728690,0.36,0.38,-17.87,-17.9,321.12,321.12,0.0,0.0
1630871600.39995003,115828650,0.36,0.36,-17.87,-17.89,321.12,321.12,0.0,0.0
1630871600.49991012,115928610,0.39,0.37,-17.88,-17.89,321.12,321.12,0.0,0.0
1630871600.59986997,116028570,0.39,0.39,-17.9,-17.9,321.13,321.12,0.0,0.0
1630871600.69983006,116128530,0.37,0.39,-17.93,-17.92,321.13,321.13,0.0,0.0
1630871600.79979014,116228490,0.38,0.39,-17.97,-17.97,321.13,321.13,0.0,0.0
1630871600.89974999,116328450,0.37,0.39,-17.96,-17.99,321.13,321.13,0.0,0.0
1630871600.99971008,116428410,0.36,0.37,-17.95,-17.99,321.13,321.13,0.0,0.0
1630871601.09966993,116528370,0.34,0.35,-17.96,-17.98,321.13,321.13,0.0,0.0
1630871601.19963002,116628330,0.36,0.34,-17.97,-17.98,321.13,321.13,0.0,0.0
1630871601.29959011,116728290,0.38,0.36,-17.96,-17.97,321.13,321.13,0.0,0.0
1630871601.39954996,116828250,0.38,0.37,-17.95,-17.96,321.13,321.14,0.0,0.0
1630871601.49951005,116928210,0.39,0.38,-17.96,-17.96,321.13,321.14,0.0,0.0
1630871601.59947014,117028170,0.4,0.39,-17.98,-17.98,321.13,321.13,0.0,0.0
1630871601.70026302,117128963,0.42,0.41,-17.98,-17.99,321.14,321.13,0.0,0.0
1630871601.80022311,117228923,0.43,0.43,-17.99,-17.99,321.14,321.13,0.0,0.0
1630871601.90018296,117328883,0.44,0.45,-18.02,-18.01,321.14,321.13,0.0,0.0
1630871602.00014305,117428843,0.45,0.46,-18.05,-18.05,321.15,321.13,0.0,0.0
1630871602.10010314,117528803,0.44,0.45,-18.03,-18.06,321.15,321.14,0.0,0.0
1630871602.20006299,117628763,0.43,0.43,-18.02,-18.05,321.16,321.14,0.0,0.0
1630871602.30002308,117728723,0.42,0.42,-18.02,-18.04,321.16,321.14,0.0,0.0
1630871602.39998293,117828683,0.41,0.41,-18.04,-18.04,321.16,321.15,0.0,0.0
1630871602.49994302,117928643,0.39,0.4,-18.06,-18.04,321.16,321.15,0.0,0.0
1630871602.59990311,118028603,0.39,0.4,-18.08,-18.06,321.16,321.16,0.0,0.0
1630871602.69986296,118128563,0.39,0.39,-18.08,-18.08,321.16,321.16,0.0,0.0
1630871602.79982305,118228523,0.4,0.38,-18.07,-18.08,321.16,321.16,0.0,0.0
1630871602.89978313,118328483,0.41,0.39,-18.05,-18.08,321.16,321.17,0.0,0.0
1630871602.99974298,118428443,0.44,0.4,-18.05,-18.06,321.17,321.17,0.0,0.0
1630871603.09970307,118528403,0.44,0.42,-18.07,-18.07,321.17,321.17,0.0,0.0
1630871603.19966292,118628363,0.43,0.43,-18.1,-18.09,321.17,321.17,0.0,0.0
1630871603.29962301,118728323,0.42,0.43,-18.12,-18.11,321.17,321.17,0.0,0.0
1630871603.39958310,118828283,0.4,0.42,-18.12,-18.13,321.17,321.17,0.0,0.0
1630871603.49954295,118928243,0.4,0.4,-18.13,-18.15,321.17,321.17,0.0,0.0
1630871603.59950304,119028203,0.39,0.39,-18.15,-18.18,321.18,321.17,0.0,0.0
1630871603.69946313,119128163,0.35,0.36,-18.17,-18.19,321.18,321.17,0.0,0.0
1630871603.80025601,119228956,0.33,0.33,-18.17,-18.2,321.17,321.17,0.0,0.0
1630871603.90021610,119328916,0.34,0.32,-18.12,-18.17,321.17,321.17,0.0,0.0
1630871604.00017595,119428876,0.4,0.35,-18.08,-18.11,321.17,321.18,0.0,0.0
1630871604.10013604,119528836,0.46,0.41,-18.1,-18.08,321.18,321.18,0.0,0.0
1630871604.20009613,119628796,0.47,0.46,-18.13,-18.1,321.18,321.18,0.0,0.0
1630871604.30005598,119728756,0.46,0.48,-18.14,-18.12,321.18,321.18,0.0,0.0
1630871604.40001607,119828716,0.46,0.48,-18.11,-18.12,321.19,321.18,0.0,0.0
1630871604.49997592,119928676,0.46,0.47,-18.09,-18.1,321.19,321.19,0.0,0.0
1630871604.59993601,120028636,0.47,0.48,-18.1,-18.11,321.19,321.19,0.0,0.0
1630871604.69989610,120128596,0.46,0.47,-18.13,-18.13,321.19,321.19,0.0,0.0
1630871604.79985595,120228556,0.44,0.45,-18.16,-18.17,321.2,321.2,0.0,0.0
1630871604.89981604,120328516,0.44,0.44,-18.18,-18.2,321.2,321.2,0.0,0.0
1630871604.99977612,120428476,0.46,0.44,-18.17,-18.21,321.2,321.2,0.0,0.0
1630871605.09973598,120528436,0.49,0.47,-18.14,-18.18,321.21,321.2,0.0,0.0
1630871605.19969606,120628396,0.52,0.5,-18.13,-18.15,321.21,321.21,0.0,0.0
1630871605.29965591,120728356,0.51,0.52,-18.16,-18.16,321.21,321.21,0.0,0.0
1630871605.39961600,120828316,0.49,0.51,-18.17,-18.18,321.22,321.21,0.0,0.0
1630871605.49957609,120928276,0.48,0.49,-18.17,-18.19,321.22,321.21,0.0,0.0
1630871605.59953594,121028236,0.5,0.49,-18.17,-18.19,321.22,321.22,0.0,0.0
1630871605.69949603,121128196,0.49,0.49,-18.17,-18.19,321.23,321.22,0.0,0.0
1630871605.79945612,121228156,0.46,0.47,-18.16,-18.19,321.23,321.22,0.0,0.0
1630871605.90024900,121328949,0.45,0.45,-18.14,-18.17,321.23,321.22,0.0,0.0
1630871606.00020909,121428909,0.44,0.43,-18.14,-18.15,321.23,321.23,0.0,0.0
1630871606.10016894,121528869,0.46,0.43,-18.14,-18.14,321.23,321.23,0.0,0.0
1630871606.20012903,121628829,0.49,0.46,-18.15,-18.15,321.24,321.23,0.0,0.0
1630871606.30008912,121728789,0.52,0.49,-18.17,-18.16,321.24,321.24,0.0,0.0
1630871606.40004897,121828749,0.54,0.52,-18.18,-18.18,321.24,321.24,0.0,0.0
1630871606.50000906,121928709,0.52,0.52,-18.2,-18.21,321.24,321.24,0.0,0.0
1630871606.59996915,122028669,0.51,0.52,-18.23,-18.24,321.25,321.24,0.0,0.0
1630871606.69992900,122128629,0.49,0.5,-18.25,-18.26,321.25,321.25,0.0,0.0
1630871606.79988909,122228589,0.46,0.48,-18.25,-18.28,321.25,321.25,0.0,0.0
1630871606.89984894,122328549,0.46,0.46,-18.25,-18.28,321.25,321.25,0.0,0.0
1630871606.99980903,122428509,0.48,0.47,-18.21,-18.25,321.25,321.25,0.0,0.0
1630871607.09976912,122528469,0.51,0.49,-18.17,-18.2,321.25,321.25,0.0,0.0
1630871607.19972897,122628429,0.53,0.52,-18.17,-18.17,321.25,321.26,0.0,0.0
1630871607.29968905,122728389,0.52,0.53,-18.2,-18.17,321.25,321.26,0.0,0.0
1630871607.39964914,122828349,0.5,0.51,-18.23,-18.2,321.25,321.26,0.0,0.0
1630871607.49960899,122928309,0.46,0.48,-18.25,-18.24,321.25,321.25,0.0,0.0
1630871607.59956908,123028269,0.41,0.43,-18.26,-18.27,321.25,321.25,0.0,0.0
1630871607.69952893,123128229,0.43,0.4,-18.26,-18.28,321.25,321.26,0.0,0.0
1630871607.79948902,123228189,0.47,0.42,-18.23,-18.28,321.25,321.26,0.0,0.0
1630871607.90028214,123328982,0.49,0.45,-18.24,-18.26,321.25,321.26,0.0,0.0
1630871608.00024199,123428942,0.51,0.49,-18.24,-18.25,321.25,321.25,0.0,0.0
1630871608.10020208,123528902,0.54,0.53,-18.23,-18.24,321.24,321.25,0.0,0.0
1630871608.20016193,123628862,0.58,0.57,-18.24,-18.25,321.25,321.25,0.0,0.0
1630871608.30012202,123728822,0.58,0.59,-18.24,-18.25,321.25,321.24,0.0,0.0
1630871608.40008211,123828782,0.54,0.57,-18.23,-18.25,321.25,321.24,0.0,0.0
1630871608.50004196,123928742,0.5,0.52,-18.22,-18.24,321.25,321.24,0.0,0.0
1630871608.60000205,124028702,0.48,0.48,-18.22,-18.23,321.24,321.24,0.0,0.0
1630871608.69996214,124128662,0.48,0.45,-18.21,-18.22,321.24,321.24,0.0,0.0
1630871608.79992199,124228622,0.5,0.45,-18.22,-18.22,321.24,321.24,0.0,0.0
1630871608.89988208,124328582,0.51,0.47,-18.24,-18.23,321.24,321.23,0.0,0.0
1630871608.99984193,124428542,0.51,0.49,-18.25,-18.25,321.24,321.23,0.0,0.0
1630871609.09980202,124528502,0.53,0.51,-18.22,-18.25,321.24,321.23,0.0,0.0
1630871609.19976211,124628462,0.54,0.53,-18.21,-18.23,321.24,321.23,0.0,0.0
1630871609.29972196,124728422,0.56,0.55,-18.19,-18.21,321.24,321.24,0.0,0.0
1630871609.39968204,124828382,0.6,0.57,-18.19,-18.2,321.24,321.24,0.0,0.0
1630871609.49964213,124928342,0.61,0.61,-18.18,-18.18,321.25,321.24,0.0,0.0
1630871609.59960198,125028302,0.59,0.62,-18.18,-18.18,321.25,321.24,0.0,0.0
1630871609.69956207,125128262,0.58,0.61,-18.19,-18.17,321.25,321.24,0.0,0.0
1630871609.79952192,125228222,0.57,0.59,-18.2,-18.19,321.25,321.24,0.0,0.0
1630871609.89948201,125328182,0.55,0.57,-18.21,-18.21,321.25,321.25,0.0,0.0
1630871610.00027514,125428975,0.52,0.53,-18.21,-18.22,321.25,321.25,0.0,0.0
1630871610.10023499,125528935,0.51,0.51,-18.19,-18.21,321.25,321.25,0.0,0.0
1630871610.20019507,125628895,0.52,0.51,-18.18,-18.19,321.25,321.25,0.0,0.0
1630871610.30015492,125728855,0.56,0.54,-18.17,-18.18,321.25,321.25,0.0,0.0
1630871610.40011501,125828815,0.58,0.58,-18.15,-18.17,321.24,321.25,0.0,0.0
1630871610.50007510,125928775,0.58,0.59,-18.17,-18.17,321.24,321.25,0.0,0.0
1630871610.60003495,126028735,0.57,0.59,-18.19,-18.18,321.24,321.24,0.0,0.0
1630871610.69999504,126128695,0.57,0.58,-18.21,-18.2,321.24,321.24,0.0,0.0
1630871610.79995513,126228655,0.57,0.57,-18.21,-18.22,321.24,321.24,0.0,0.0
1630871610.89991498,126328615,0.57,0.57,-18.22,-18.23,321.23,321.23,0.0,0.0
1630871610.99987507,126428575,0.56,0.55,-18.22,-18.24,321.23,321.23,0.0,0.0
1630871611.09983492,126528535,0.54,0.54,-18.23,-18.24,321.23,321.23,0.0,0.0
1630871611.19979501,126628495,0.5,0.5,-18.26,-18.28,321.23,321.22,0.0,0.0
1630871611.29975510,126728455,0.49,0.46,-18.28,-18.3,321.22,321.22,0.0,0.0
1630871611.39971495,126828415,0.53,0.48,-18.28,-18.31,321.22,321.22,0.0,0.0
1630871611.49967504,126928375,0.55,0.52,-18.27,-18.3,321.22,321.22,0.0,0.0
1630871611.59963512,127028335,0.56,0.54,-18.27,-18.29,321.22,321.22,0.0,0.0
1630871611.69959497,127128295,0.56,0.56,-18.29,-18.3,321.22,321.21,0.0,0.0
1630871611.79955506,127228255,0.53,0.54,-18.31,-18.32,321.21,321.21,0.0,0.0
1630871611.89951491,127328215,0.51,0.51,-18.31,-18.34,321.21,321.21,0.0,0.0
1630871611.99947500,127428175,0.51,0.49,-18.27,-18.32,321.21,321.21,0.0,0.0
1630871612.10026813,127528968,0.51,0.48,-18.23,-18.27,321.21,321.21,0.0,0.0
1630871612.20022798,127628928,0.51,0.48,-18.2,-18.22,321.2,321.21,0.0,0.0
1630871612.30018806,127728888,0.51,0.48,-18.2,-18.19,321.2,321.21,0.0,0.0
1630871612.40014791,127828848,0.51,0.48,-18.24,-18.21,321.2,321.21,0.0,0.0
1630871612.50010800,127928808,0.52,0.5,-18.26,-18.24,321.2,321.21,0.0,0.0
1630871612.60006809,128028768,0.53,0.51,-18.26,-18.27,321.2,321.2,0.0,0.0
1630871612.70002794,128128728,0.54,0.53,-18.26,-18.27,321.2,321.2,0.0,0.0
1630871612.79998803,128228688,0.54,0.54,-18.27,-18.28,321.2,321.2,0.0,0.0
1630871612.89994812,128328648,0.52,0.54,-18.27,-18.29,321.19,321.19,0.0,0.0
1630871612.99990797,128428608,0.52,0.52,-18.27,-18.29,321.19,321.19,0.0,0.0
1630871613.09986806,128528568,0.54,0.53,-18.26,-18.28,321.19,321.19,0.0,0.0
1630871613.19982815,128628528,0.55,0.54,-18.24,-18.26,321.19,321.19,0.0,0.0
1630871613.29978800,128728488,0.57,0.55,-18.22,-18.24,321.19,321.19,0.0,0.0
1630871613.39974809,128828448,0.61,0.59,-18.19,-18.21,321.2,321.19,0.0,0.0
1630871613.49970794,128928408,0.63,0.62,-18.19,-18.19,321.2,321.19,0.0,0.0
1630871613.59966803,129028368,0.61,0.63,-18.19,-18.19,321.2,321.19,0.0,0.0
1630871613.69962811,129128328,0.58,0.61,-18.2,-18.19,321.2,321.19,0.0,0.0
1630871613.79958797,129228288,0.57,0.59,-18.21,-18.2,321.21,321.2,0.0,0.0
1630871613.89954805,129328248,0.56,0.57,-18.18,-18.2,321.21,321.2,0.0,0.0
1630871613.99950814,129428208,0.56,0.55,-18.17,-18.19,321.21,321.21,0.0,0.0
1630871614.09946799,129528168,0.55,0.54,-18.2,-18.21,321.21,321.21,0.0,0.0
1630871614.20026112,129628961,0.57,0.53,-18.23,-18.24,321.21,321.21,0.0,0.0
1630871614.30022097,129728921,0.59,0.56,-18.24,-18.26,321.21,321.21,0.0,0.0
1630871614.40018106,129828881,0.58,0.58,-18.25,-18.28,321.21,321.21,0.0,0.0
1630871614.50014114,129928841,0.55,0.57,-18.25,-18.29,321.21,321.21,0.0,0.0
1630871614.60010099,130028801,0.51,0.52,-18.24,-18.28,321.21,321.21,0.0,0.0
1630871614.70006108,130128761,0.53,0.5,-18.23,-18.27,321.21,321.21,0.0,0.0
1630871614.80002093,130228721,0.56,0.52,-18.22,-18.25,321.21,321.22,0.0,0.0
1630871614.89998102,130328681,0.56,0.54,-18.23,-18.23,321.21,321.22,0.0,0.0
1630871614.99994111,130428641,0.57,0.55,-18.24,-18.22,321.21,321.22,0.0,0.0
1630871615.09990096,130528601,0.57,0.57,-18.25,-18.23,321.21,321.22,0.0,0.0
1630871615.19986105,130628561,0.54,0.57,-18.28,-18.25,321.21,321.22,0.0,0.0
1630871615.29982114,130728521,0.52,0.54,-18.29,-18.28,321.21,321.22,0.0,0.0
1630871615.39978099,130828481,0.51,0.51,-18.29,-18.3,321.21,321.21,0.0,0.0
1630871615.49974108,130928441,0.51,0.49,-18.28,-18.31,321.21,321.21,0.0,0.0
1630871615.59970093,131028401,0.53,0.49,-18.26,-18.31,321.21,321.21,0.0,0.0
1630871615.69966102,131128361,0.55,0.51,-18.24,-18.28,321.21,321.21,0.0,0.0
1630871615.79962111,131228321,0.54,0.52,-18.23,-18.26,321.21,321.2,0.0,0.0
1630871615.89958096,131328281,0.53,0.53,-18.23,-18.24,321.21,321.21,0.0,0.0
1630871615.99954104,131428241,0.5,0.51,-18.24,-18.23,321.21,321.21,0.0,0.0
1630871616.09950113,131528201,0.5,0.5,-18.24,-18.24,321.21,321.21,0.0,0.0
1630871616.19946098,131628161,0.53,0.51,-18.23,-18.23,321.21,321.21,0.0,0.0
1630871616.30025411,131728954,0.54,0.53,-18.21,-18.22,321.22,321.21,0.0,0.0
1630871616.40021396,131828914,0.56,0.54,-18.2,-18.21,321.22,321.21,0.0,0.0
1630871616.50017405,131928874,0.56,0.56,-18.2,-18.2,321.22,321.22,0.0,0.0
1630871616.60013413,132028834,0.57,0.56,-18.21,-18.21,321.22,321.22,0.0,0.0
1630871616.70009398,132128794,0.56,0.56,-18.21,-18.21,321.22,321.22,0.0,0.0
1630871616.80005407,132228754,0.55,0.55,-18.19,-18.21,321.23,321.22,0.0,0.0
1630871616.90001392,132328714,0.57,0.55,-18.18,-18.19,321.23,321.23,0.0,0.0
1630871616.99997401,132428674,0.58,0.55,-18.17,-18.17,321.23,321.23,0.0,0.0
1630871617.09993410,132528634,0.6,0.58,-18.16,-18.16,321.24,321.23,0.0,0.0
1630871617.19989395,132628594,0.62,0.61,-18.18,-18.18,321.24,321.23,0.0,0.0
1630871617.29985404,132728554,0.6,0.61,-18.22,-18.22,321.24,321.23,0.0,0.0
1630871617.39981413,132828514,0.59,0.59,-18.25,-18.25,321.24,321.24,0.0,0.0
1630871617.49977398,132928474,0.6,0.6,-18.26,-18.28,321.24,321.24,0.0,0.0
1630871617.59973407,133028434,0.58,0.59,-18.26,-18.28,321.25,321.24,0.0,0.0
1630871617.69969392,133128394,0.59,0.58,-18.24,-18.28,321.25,321.25,0.0,0.0
1630871617.79965401,133228354,0.6,0.59,-18.22,-18.26,321.25,321.25,0.0,0.0
1630871617.89961410,133328314,0.59,0.59,-18.22,-18.24,321.25,321.25,0.0,0.0
1630871617.99957395,133428274,0.57,0.58,-18.22,-18.23,321.25,321.25,0.0,0.0
1630871618.09953403,133528234,0.55,0.56,-18.21,-18.22,321.25,321.25,0.0,0.0
1630871618.19949412,133628194,0.55,0.53,-18.2,-18.21,321.25,321.25,0.0,0.0
1630871618.29945397,133728154,0.59,0.54,-18.2,-18.2,321.25,321.25,0.0,0.0
1630871618.40024710,133828947,0.61,0.58,-18.19,-18.2,321.25,321.24,0.0,0.0
1630871618.50020695,133928907,0.61,0.6,-18.17,-18.18,321.25,321.24,0.0,0.0
1630871618.60016704,134028867,0.6,0.6,-18.19,-18.2,321.25,321.24,0.0,0.0
1630871618.70012712,134128827,0.62,0.61,-18.22,-18.23,321.25,321.24,0.0,0.0
1630871618.80008698,134228787,0.63,0.62,-18.22,-18.25,321.25,321.24,0.0,0.0
1630871618.90004706,134328747,0.63,0.63,-18.2,-18.24,321.25,321.24,0.0,0.0
1630871619.00000691,134428707,0.64,0.63,-18.19,-18.22,321.25,321.24,0.0,0.0
1630871619.09996700,134528667,0.64,0.63,-18.21,-18.22,321.25,321.24,0.0,0.0
1630871619.19992709,134628627,0.65,0.64,-18.25,-18.25,321.25,321.24,0.0,0.0
1630871619.29988694,134728587,0.66,0.65,-18.27,-18.28,321.25,321.24,0.0,0.0
1630871619.39984703,134828547,0.66,0.65,-18.25,-18.28,321.25,321.25,0.0,0.0
1630871619.49980712,134928507,0.64,0.64,-18.22,-18.25,321.25,321.25,0.0,0.0
1630871619.59976697,135028467,0.61,0.6,-18.21,-18.23,321.25,321.25,0.0,0.0
1630871619.69972706,135128427,0.59,0.58,-18.23,-18.23,321.25,321.25,0.0,0.0
1630871619.79968715,135228387,0.6,0.56,-18.22,-18.23,321.25,321.25,0.0,0.0
1630871619.89964700,135328347,0.6,0.58,-18.21,-18.22,321.24,321.25,0.0,0.0
1630871619.99960709,135428307,0.59,0.58,-18.24,-18.24,321.24,321.25,0.0,0.0
1630871620.09956694,135528267,0.56,0.57,-18.27,-18.27,321.24,321.24,0.0,0.0
1630871620.19952703,135628227,0.55,0.56,-18.28,-18.29,321.23,321.24,0.0,0.0
