timestamp,TimeUS,DesRoll,Roll,DesPitch,Pitch,DesYaw,Yaw,ErrRP,ErrYaw
1630878413.00000000,40828662,0.0,0.09,0.0,0.07,352.89,352.9,0.0,0.0
1630878413.09996009,40928622,0.0,0.09,0.0,0.07,352.89,352.9,0.0,0.0
1630878413.19992018,41028582,0.0,0.09,0.0,0.07,352.89,352.9,0.0,0.0
1630878413.29988003,41128542,0.0,0.09,0.0,0.08,352.89,352.9,0.0,0.0
1630878413.39984012,41228502,0.0,0.09,0.0,0.08,352.89,352.9,0.0,0.0
1630878413.49979997,41328462,0.0,0.1,0.0,0.08,352.89,352.9,0.0,0.0
1630878413.59976006,41428422,0.0,0.1,0.0,0.08,352.89,352.9,0.0,0.0
1630878413.69972014,41528382,0.0,0.1,0.0,0.08,352.89,352.9,0.0,0.0
1630878413.79967999,41628342,0.0,0.1,0.0,0.08,352.89,352.9,0.0,0.0
1630878413.89964008,41728302,0.0,0.1,0.0,0.08,352.88,352.89,0.0,0.0
1630878413.99960017,41828262,0.0,0.1,0.0,0.08,352.88,352.89,0.0,0.0
1630878414.09956002,41928222,0.0,0.1,0.0,0.08,352.88,352.89,0.0,0.0
1630878414.19952011,42028182,0.0,0.1,0.0,0.08,352.88,352.89,0.0,0.0
1630878414.30031300,42128975,0.0,0.1,0.0,0.08,352.88,352.89,0.0,0.0
1630878414.40027308,42228935,0.0,0.1,0.0,0.08,352.88,352.89,0.0,0.0
1630878414.50023317,42328895,0.0,0.1,0.0,0.09,352.88,352.89,0.0,0.0
1630878414.60019302,42428855,0.0,0.1,0.0,0.09,352.88,352.89,0.0,0.0
1630878414.70015311,42528815,0.0,0.1,0.0,0.09,352.88,352.89,0.0,0.0
1630878414.80011296,42628775,0.0,0.1,0.0,0.08,352.88,352.89,0.0,0.0
1630878414.90007305,42728735,0.0,0.1,0.0,0.09,352.88,352.89,0.0,0.0
1630878415.00003314,42828695,0.0,0.1,0.0,0.08,352.88,352.89,0.0,0.0
1630878415.09999299,42928655,0.0,0.1,0.0,0.08,352.88,352.89,0.0,0.0
1630878415.19995308,43028615,0.0,0.1,0.0,0.08,352.87,352.88,0.0,0.0
1630878415.29991317,43128575,0.0,0.1,0.0,0.08,352.87,352.88,0.0,0.0
1630878415.39987302,43228535,0.0,0.1,0.0,0.08,352.87,352.88,0.0,0.0
1630878415.49983311,43328495,0.0,0.1,0.0,0.08,352.87,352.88,0.0,0.0
1630878415.59979320,43428455,0.0,0.1,0.0,0.08,352.87,352.88,0.0,0.0
1630878415.69975305,43528415,0.0,0.1,0.0,0.08,352.87,352.88,0.0,0.0
1630878415.79971313,43628375,0.0,0.1,0.0,0.08,352.87,352.88,0.0,0.0
1630878415.89967299,43728335,0.0,0.1,0.0,0.08,352.87,352.88,0.0,0.0
1630878415.99963307,43828295,0.0,0.1,0.0,0.08,352.87,352.88,0.0,0.0
1630878416.09959316,43928255,0.0,0.1,0.0,0.08,352.87,352.88,0.0,0.0
1630878416.19955301,44028215,0.0,0.1,0.0,0.08,352.87,352.88,0.0,0.0
1630878416.29951310,44128175,0.0,0.1,0.0,0.08,352.87,352.88,0.0,0.0
1630878416.40030599,44228968,0.0,0.09,0.0,0.08,352.87,352.88,0.0,0.0
1630878416.50026608,44328928,0.0,0.09,0.0,0.08,352.87,352.88,0.0,0.0
1630878416.60022616,44428888,0.0,0.09,0.0,0.07,352.87,352.88,0.0,0.0
1630878416.70018601,44528848,0.0,0.09,0.0,0.07,352.87,352.88,0.0,0.0
1630878416.80014610,44628808,-0.09,0.09,-0.08,0.07,352.87,352.88,0.0,0.0
1630878416.90010619,44728768,-0.06,0.09,-0.06,0.07,352.87,352.88,0.0,0.0
1630878417.00006604,44828728,-0.11,0.09,-0.11,0.07,352.87,352.88,0.0,0.0
1630878417.10002613,44928688,-0.16,0.09,-0.16,0.07,352.87,352.88,0.0,0.0
1630878417.19998598,45028648,-0.21,0.09,-0.21,0.07,352.87,352.88,0.0,0.0
1630878417.29994607,45128608,-0.24,0.09,-0.25,0.07,352.87,352.88,0.0,0.0
1630878417.39990616,45228568,-0.26,0.09,-0.26,0.07,352.87,352.88,0.0,0.0
1630878417.49986601,45328528,-0.26,0.09,-0.26,0.07,352.87,352.88,0.0,0.0
1630878417.59982610,45428488,-0.27,0.09,-0.26,0.07,352.87,352.88,0.0,0.0
1630878417.69978619,45528448,-0.29,0.09,-0.27,0.07,352.87,352.88,0.0,0.0
1630878417.79974604,45628408,-0.29,0.08,-0.28,0.07,352.87,352.88,0.0,0.0
1630878417.89970613,45728368,-0.31,0.08,-0.31,0.07,352.87,352.88,0.0,0.0
1630878417.99966598,45828328,-0.34,0.08,-0.32,0.07,352.87,352.88,0.0,0.0
1630878418.09962606,45928288,-0.37,0.08,-0.33,0.07,352.87,352.88,0.0,0.0
1630878418.19958615,46028248,-0.42,0.08,-0.33,0.07,352.87,352.88,0.0,0.0
1630878418.29954600,46128208,-0.42,0.08,-0.31,0.06,352.87,352.88,0.0,0.0
1630878418.39950609,46228168,-0.44,-0.12,-0.31,-0.09,352.87,352.88,0.0,0.0
1630878418.50029898,46328961,-0.45,-0.43,-0.34,-0.35,352.87,352.88,0.0,0.0
1630878418.60025907,46428921,-0.39,-0.66,-0.32,-0.55,352.87,352.88,0.0,0.0
1630878418.70021915,46528881,-0.24,-0.71,-0.22,-0.62,352.87,352.88,0.0,0.0
1630878418.80017900,46628841,-0.02,-0.57,-0.07,-0.55,352.87,352.88,0.0,0.0
1630878418.90013909,46728801,0.2,-0.32,0.08,-0.37,352.87,352.88,0.0,0.0
1630878419.00009918,46828761,0.34,-0.07,0.22,-0.16,352.87,352.88,0.0,0.0
1630878419.10005903,46928721,0.41,0.1,0.32,0.01,352.87,352.88,0.0,0.0
1630878419.20001912,47028681,0.45,0.21,0.38,0.14,352.87,352.88,0.0,0.0
1630878419.29997897,47128641,0.43,0.24,0.38,0.21,352.87,352.88,0.0,0.0
1630878419.39993906,47228601,0.41,0.23,0.35,0.21,352.87,352.88,0.0,0.0
1630878419.49989915,47328561,0.39,0.21,0.35,0.19,352.87,352.88,0.0,0.0
1630878419.59985900,47428521,0.42,0.2,0.31,0.17,352.87,352.88,0.0,0.0
1630878419.69981909,47528481,0.47,0.25,0.28,0.14,352.87,352.88,0.0,0.0
1630878419.79977918,47628441,0.48,0.3,0.28,0.12,352.87,352.88,0.0,0.0
1630878419.89973903,47728401,0.45,0.32,0.31,0.14,352.87,352.88,0.0,0.0
1630878419.99969912,47828361,0.4,0.29,0.33,0.17,352.87,352.88,0.0,0.0
1630878420.09965897,47928321,0.4,0.27,0.3,0.19,352.8,352.81,0.0,0.0
1630878420.19961905,48028281,0.4,0.27,0.26,0.18,352.8,352.81,0.0,0.0
1630878420.29957914,48128241,0.38,0.27,0.23,0.15,352.8,352.81,0.0,0.0
1630878420.39953899,48228201,0.34,0.25,0.21,0.13,352.8,352.8,0.0,0.0
1630878420.49949908,48328161,0.29,0.22,0.2,0.12,352.8,352.8,0.0,0.0
1630878420.60029197,48428954,0.23,0.16,0.21,0.12,352.8,352.8,0.0,0.0
1630878420.70025206,48528914,0.18,0.11,0.22,0.14,352.8,352.8,0.0,0.0
1630878420.80021214,48628874,0.15,0.07,0.21,0.16,352.8,352.8,0.0,0.0
1630878420.90017200,48728834,0.12,0.04,0.19,0.16,352.8,352.8,0.0,0.0
1630878421.00013208,48828794,0.11,0.04,0.15,0.13,352.8,352.8,0.0,0.0
1630878421.10009217,48928754,0.13,0.04,0.1,0.09,352.8,352.8,0.0,0.0
1630878421.20005202,49028714,0.16,0.08,0.06,0.03,352.8,352.8,0.0,0.0
1630878421.30001211,49128674,0.18,0.12,0.04,0.0,352.8,352.8,0.0,0.0
1630878421.39997220,49228634,0.19,0.15,0.04,-0.02,352.8,352.81,0.0,0.0
1630878421.49993205,49328594,0.16,0.15,0.03,-0.01,352.8,352.81,0.0,0.0
1630878421.59989214,49428554,0.11,0.11,0.01,-0.02,352.8,352.81,0.0,0.0
1630878421.69985199,49528514,0.08,0.07,-0.02,-0.03,352.8,352.81,0.0,0.0
1630878421.79981208,49628474,0.05,0.03,-0.05,-0.06,352.8,352.81,0.0,0.0
1630878421.89977217,49728434,0.03,0.0,-0.03,-0.08,352.8,352.81,0.0,0.0
1630878421.99973202,49828394,0.0,-0.02,0.03,-0.04,352.8,352.81,0.0,0.0
1630878422.09969211,49928354,0.01,-0.01,0.11,0.04,352.8,352.82,0.0,0.0
1630878422.19965219,50028314,0.03,0.0,0.13,0.11,352.8,352.82,0.0,0.0
1630878422.29961205,50128274,0.05,0.01,0.1,0.12,352.8,352.82,0.0,0.0
1630878422.39957213,50228234,0.05,0.03,0.05,0.09,352.8,352.81,0.0,0.0
1630878422.49953198,50328194,0.07,0.05,0.0,0.04,352.8,352.81,0.0,0.0
1630878422.59949207,50428154,0.07,0.06,-0.05,-0.03,352.8,352.81,0.0,0.0
1630878422.70028520,50528947,0.08,0.07,-0.09,-0.09,352.8,352.81,0.0,0.0
1630878422.80024505,50628907,0.07,0.06,-0.07,-0.12,352.8,352.81,0.0,0.0
1630878422.90020514,50728867,0.07,0.06,-0.01,-0.08,352.8,352.81,0.0,0.0
1630878423.00016499,50828827,0.07,0.06,0.06,-0.01,352.8,352.8,0.0,0.0
1630878423.10012507,50928787,0.12,0.09,0.13,0.08,352.8,352.8,0.0,0.0
1630878423.20008516,51028747,0.14,0.13,0.14,0.14,352.8,352.8,0.0,0.0
1630878423.30004501,51128707,0.15,0.15,0.11,0.15,352.8,352.8,0.0,0.0
1630878423.40000510,51228667,0.17,0.17,0.07,0.12,352.8,352.79,0.0,0.0
1630878423.49996519,51328627,0.21,0.2,0.05,0.08,352.8,352.79,0.0,0.0
1630878423.59992504,51428587,0.19,0.21,0.06,0.06,352.8,352.79,0.0,0.0
1630878423.69988513,51528547,0.15,0.18,0.1,0.08,352.8,352.79,0.0,0.0
1630878423.79984498,51628507,0.11,0.13,0.1,0.1,352.8,352.79,0.0,0.0
1630878423.89980507,51728467,0.08,0.08,0.09,0.1,352.8,352.79,0.0,0.0
1630878423.99976516,51828427,0.06,0.04,0.08,0.09,352.8,352.8,0.0,0.0
1630878424.09972501,51928387,0.06,0.03,0.09,0.08,352.8,352.8,0.0,0.0
1630878424.19968510,52028347,0.05,0.03,0.12,0.1,352.8,352.8,0.0,0.0
1630878424.29964519,52128307,0.05,0.03,0.13,0.12,352.8,352.81,0.0,0.0
1630878424.39960504,52228267,0.04,0.03,0.11,0.12,352.8,352.81,0.0,0.0
1630878424.49956512,52328227,0.06,0.03,0.11,0.11,352.8,352.82,0.0,0.0
1630878424.59952497,52428187,0.08,0.05,0.11,0.11,352.8,352.82,0.0,0.0
1630878424.70031810,52528980,0.1,0.07,0.1,0.11,352.8,352.82,0.0,0.0
1630878424.80027819,52628940,0.1,0.08,0.09,0.09,352.8,352.82,0.0,0.0
1630878424.90023804,52728900,0.08,0.08,0.09,0.07,352.8,352.82,0.0,0.0
1630878425.00019813,52828860,0.09,0.09,0.11,0.08,352.8,352.82,0.0,0.0
1630878425.10015798,52928820,0.09,0.09,0.16,0.12,352.8,352.82,0.0,0.0
1630878425.20011806,53028780,0.07,0.07,0.19,0.17,352.8,352.81,0.0,0.0
1630878425.30007815,53128740,0.08,0.07,0.17,0.18,352.8,352.81,0.0,0.0
1630878425.40003800,53228700,0.07,0.06,0.15,0.17,352.8,352.8,0.0,0.0
1630878425.49999809,53328660,0.05,0.06,0.11,0.14,352.8,352.8,0.0,0.0
1630878425.59995818,53428620,0.05,0.05,0.09,0.09,352.8,352.8,0.0,0.0
1630878425.69991803,53528580,0.06,0.05,0.1,0.07,352.8,352.8,0.0,0.0
1630878425.79987812,53628540,0.06,0.05,0.15,0.11,352.8,352.8,0.0,0.0
1630878425.89983797,53728500,0.1,0.07,0.16,0.14,352.8,352.8,0.0,0.0
1630878425.99979806,53828460,0.13,0.1,0.19,0.18,352.8,352.81,0.0,0.0
1630878426.09975815,53928420,0.15,0.14,0.18,0.19,352.8,352.81,0.0,0.0
1630878426.19971800,54028380,0.15,0.15,0.14,0.16,352.8,352.81,0.0,0.0
1630878426.29967809,54128340,0.1,0.14,0.09,0.12,352.8,352.81,0.0,0.0
1630878426.39963818,54228300,0.05,0.08,0.05,0.07,352.8,352.81,0.0,0.0
1630878426.49959803,54328260,0.01,0.02,0.02,0.03,352.8,352.81,0.0,0.0
1630878426.59955812,54428220,0.01,0.0,0.05,0.01,352.8,352.81,0.0,0.0
1630878426.69951797,54528180,0.05,0.0,0.09,0.04,352.8,352.81,0.0,0.0
1630878426.80031109,54628973,0.06,0.03,0.1,0.08,352.8,352.81,0.0,0.0
1630878426.90027118,54728933,0.07,0.06,0.06,0.07,352.8,352.81,0.0,0.0
1630878427.00023103,54828893,0.11,0.1,0.03,0.04,352.8,352.81,0.0,0.0
1630878427.10019112,54928853,0.11,0.12,0.01,0.01,352.8,352.81,0.0,0.0
1630878427.20015097,55028813,0.09,0.13,0.0,0.0,352.8,352.81,0.0,0.0
1630878427.30011106,55128773,0.04,0.09,0.0,0.0,352.8,352.81,0.0,0.0
1630878427.40007114,55228733,0.0,0.04,-0.01,-0.01,352.8,352.81,0.0,0.0
1630878427.50003099,55328693,0.0,0.0,0.01,0.0,352.8,352.81,0.0,0.0
1630878427.59999108,55428653,0.02,0.0,0.07,0.04,352.8,352.81,0.0,0.0
1630878427.69995117,55528613,0.06,0.03,0.08,0.08,352.8,352.8,0.0,0.0
1630878427.79991102,55628573,0.08,0.06,0.06,0.08,352.8,352.8,0.0,0.0
1630878427.89987111,55728533,0.07,0.08,0.04,0.06,352.8,352.79,0.0,0.0
1630878427.99983120,55828493,0.05,0.06,0.02,0.03,352.8,352.79,0.0,0.0
1630878428.09979105,55928453,0.06,0.05,0.02,0.01,352.8,352.79,0.0,0.0
1630878428.19975114,56028413,0.08,0.07,0.02,0.0,352.8,352.79,0.0,0.0
1630878428.29971099,56128373,0.09,0.08,0.02,0.0,352.8,352.79,0.0,0.0
1630878428.39967108,56228333,0.09,0.08,0.01,0.0,352.8,352.8,0.0,0.0
1630878428.49963117,56328293,0.09,0.08,0.0,0.0,352.8,352.8,0.0,0.0
1630878428.59959102,56428253,0.07,0.06,0.02,0.01,352.8,352.8,0.0,0.0
1630878428.69955111,56528213,0.07,0.06,0.03,0.03,352.8,352.81,0.0,0.0
1630878428.79951119,56628173,0.1,0.07,0.03,0.03,352.8,352.81,0.0,0.0
1630878428.90030408,56728966,0.12,0.09,0.02,0.04,352.8,352.81,0.0,0.0
1630878429.00026417,56828926,0.12,0.12,0.02,0.04,352.8,352.81,0.0,0.0
1630878429.10022402,56928886,0.1,0.12,0.03,0.04,352.8,352.81,0.0,0.0
1630878429.20018411,57028846,0.08,0.1,0.05,0.04,352.8,352.81,0.0,0.0
1630878429.30014420,57128806,0.06,0.07,0.07,0.06,352.8,352.81,0.0,0.0
1630878429.40010405,57228766,0.06,0.05,0.08,0.08,352.8,352.81,0.0,0.0
1630878429.50006413,57328726,0.07,0.04,0.11,0.09,352.8,352.81,0.0,0.0
1630878429.60002398,57428686,0.07,0.05,0.14,0.12,352.8,352.8,0.0,0.0
1630878429.69998407,57528646,0.05,0.04,0.16,0.15,352.8,352.8,0.0,0.0
1630878429.79994416,57628606,0.05,0.03,0.15,0.16,352.8,352.8,0.0,0.0
1630878429.89990401,57728566,0.09,0.06,0.16,0.17,352.8,352.8,0.0,0.0
1630878429.99986410,57828526,0.1,0.1,0.17,0.17,352.8,352.8,0.0,0.0
1630878430.09982419,57928486,0.11,0.11,0.15,0.16,352.8,352.8,0.0,0.0
1630878430.19978404,58028446,0.09,0.11,0.12,0.13,352.8,352.8,0.0,0.0
1630878430.29974413,58128406,0.05,0.07,0.09,0.09,352.8,352.8,0.0,0.0
1630878430.39970398,58228366,0.04,0.04,0.07,0.05,352.8,352.8,0.0,0.0
1630878430.49966407,58328326,0.01,0.01,0.08,0.05,352.8,352.8,0.0,0.0
1630878430.59962416,58428286,0.03,0.01,0.1,0.07,352.8,352.8,0.0,0.0
1630878430.69958401,58528246,0.04,0.02,0.11,0.1,352.8,352.8,0.0,0.0
1630878430.79954410,58628206,0.05,0.03,0.12,0.11,352.8,352.8,0.0,0.0
1630878430.89950418,58728166,0.06,0.05,0.14,0.13,352.8,352.8,0.0,0.0
1630878431.00029707,58828959,0.05,0.06,0.14,0.15,352.8,352.8,0.0,0.0
1630878431.10025716,58928919,0.06,0.07,0.11,0.14,352.8,352.8,0.0,0.0
1630878431.20021701,59028879,0.09,0.08,0.06,0.1,352.8,352.8,0.0,0.0
1630878431.30017710,59128839,0.11,0.09,0.04,0.06,352.8,352.8,0.0,0.0
1630878431.40013719,59228799,0.12,0.11,0.02,0.02,352.8,352.8,0.0,0.0
1630878431.50009704,59328759,0.14,0.12,0.05,0.02,352.8,352.8,0.0,0.0
1630878431.60005713,59428719,0.14,0.14,0.08,0.03,352.8,352.8,0.0,0.0
1630878431.70001698,59528679,0.13,0.14,0.07,0.05,352.8,352.8,0.0,0.0
1630878431.79997706,59628639,0.12,0.13,0.07,0.05,352.8,352.8,0.0,0.0
1630878431.89993715,59728599,0.09,0.11,0.05,0.04,352.8,352.8,0.0,0.0
1630878431.99989700,59828559,0.07,0.07,0.04,0.02,352.8,352.8,0.0,0.0
1630878432.09985709,59928519,0.07,0.05,0.02,0.01,352.8,352.8,0.0,0.0
1630878432.19981718,60028479,0.1,0.06,0.01,0.0,352.8,352.8,0.0,0.0
1630878432.29977703,60128439,0.1,0.08,-0.01,-0.01,352.8,352.8,0.0,0.0
1630878432.39973712,60228399,0.1,0.08,0.01,0.0,352.8,352.8,0.0,0.0
1630878432.49969697,60328359,0.09,0.08,0.04,0.01,352.8,352.81,0.0,0.0
1630878432.59965706,60428319,0.09,0.08,0.07,0.05,352.8,352.81,0.0,0.0
1630878432.69961715,60528279,0.08,0.1,0.07,0.07,352.8,352.81,0.0,0.0
1630878432.79957700,60628239,0.08,0.09,0.05,0.08,352.8,352.81,0.0,0.0
1630878432.89953709,60728199,0.09,0.09,0.02,0.05,352.8,352.81,0.0,0.0
1630878432.99949718,60828159,0.12,0.1,0.03,0.04,352.8,352.8,0.0,0.0
1630878433.10029006,60928952,0.12,0.12,0.01,0.02,352.8,352.8,0.0,0.0
1630878433.20025015,61028912,0.09,0.11,0.0,0.0,352.8,352.8,0.0,0.0
1630878433.30021000,61128872,0.06,0.08,0.01,0.0,352.8,352.8,0.0,0.0
1630878433.40017009,61228832,0.08,0.06,0.04,0.01,352.8,352.8,0.0,0.0
1630878433.50013018,61328792,0.11,0.07,0.06,0.04,352.8,352.8,0.0,0.0
1630878433.60009003,61428752,0.13,0.1,0.08,0.06,352.8,352.8,0.0,0.0
1630878433.70005012,61528712,0.12,0.12,0.09,0.08,352.8,352.8,0.0,0.0
1630878433.80000997,61628672,0.12,0.12,0.09,0.09,352.8,352.8,0.0,0.0
1630878433.89997005,61728632,0.13,0.14,0.12,0.1,352.8,352.8,0.0,0.0
1630878433.99993014,61828592,0.12,0.13,0.14,0.13,352.8,352.8,0.0,0.0
1630878434.09988999,61928552,0.14,0.13,0.13,0.14,352.8,352.8,0.0,0.0
1630878434.19985008,62028512,0.13,0.14,0.07,0.11,352.8,352.8,0.0,0.0
1630878434.29981017,62128472,0.1,0.12,0.04,0.06,352.8,352.8,0.0,0.0
1630878434.39977002,62228432,0.1,0.11,0.06,0.04,352.8,352.8,0.0,0.0
1630878434.49973011,62328392,0.13,0.11,0.09,0.06,352.8,352.8,0.0,0.0
1630878434.59969020,62428352,0.15,0.13,0.11,0.08,352.8,352.8,0.0,0.0
1630878434.69965005,62528312,0.15,0.15,0.13,0.11,352.8,352.8,0.0,0.0
1630878434.79961014,62628272,0.13,0.15,0.12,0.13,352.8,352.8,0.0,0.0
1630878434.89956999,62728232,0.09,0.11,0.1,0.12,352.8,352.8,0.0,0.0
1630878434.99953008,62828192,0.08,0.08,0.08,0.08,352.8,352.81,0.0,0.0
1630878435.10032320,62928985,0.08,0.07,0.08,0.07,352.8,352.81,0.0,0.0
1630878435.20028305,63028945,0.08,0.07,0.09,0.07,352.8,352.81,0.0,0.0
1630878435.30024314,63128905,0.07,0.07,0.11,0.08,352.8,352.81,0.0,0.0
1630878435.40020299,63228865,0.06,0.07,0.12,0.1,352.8,352.81,0.0,0.0
1630878435.50016308,63328825,0.04,0.05,0.16,0.14,352.8,352.81,0.0,0.0
1630878435.60012317,63428785,0.04,0.04,0.21,0.19,352.8,352.81,0.0,0.0
1630878435.70008302,63528745,0.06,0.05,0.21,0.23,352.8,352.81,0.0,0.0
1630878435.80004311,63628705,0.08,0.05,0.19,0.22,352.8,352.81,0.0,0.0
1630878435.90000319,63728665,0.1,0.08,0.18,0.2,352.8,352.81,0.0,0.0
1630878435.99996305,63828625,0.11,0.09,0.16,0.18,352.8,352.81,0.0,0.0
1630878436.09992313,63928585,0.12,0.11,0.14,0.15,352.8,352.81,0.0,0.0
1630878436.19988298,64028545,0.11,0.11,0.13,0.12,352.8,352.8,0.0,0.0
1630878436.29984307,64128505,0.09,0.1,0.15,0.12,352.8,352.8,0.0,0.0
1630878436.39980316,64228465,0.08,0.08,0.14,0.12,352.8,352.8,0.0,0.0
1630878436.49976301,64328425,0.08,0.07,0.11,0.1,352.8,352.8,0.0,0.0
1630878436.59972310,64428385,0.08,0.07,0.1,0.08,352.8,352.8,0.0,0.0
1630878436.69968319,64528345,0.08,0.07,0.09,0.07,352.8,352.8,0.0,0.0
1630878436.79964304,64628305,0.11,0.09,0.09,0.07,352.8,352.8,0.0,0.0
1630878436.89960313,64728265,0.13,0.12,0.09,0.08,352.8,352.81,0.0,0.0
1630878436.99956298,64828225,0.13,0.13,0.08,0.08,352.8,352.81,0.0,0.0
1630878437.09952307,64928185,0.15,0.13,0.07,0.07,352.8,352.81,0.0,0.0
1630878437.20031619,65028978,0.15,0.13,0.07,0.07,352.8,352.81,0.0,0.0
1630878437.30027604,65128938,0.16,0.13,0.07,0.07,352.8,352.81,0.0,0.0
1630878437.40023613,65228898,0.18,0.15,0.07,0.07,352.8,352.81,0.0,0.0
1630878437.50019598,65328858,0.16,0.16,0.08,0.07,352.8,352.81,0.0,0.0
1630878437.60015607,65428818,0.1,0.12,0.11,0.09,352.8,352.81,0.0,0.0
1630878437.70011616,65528778,0.07,0.08,0.14,0.12,352.8,352.81,0.0,0.0
1630878437.80007601,65628738,0.06,0.05,0.15,0.14,352.8,352.8,0.0,0.0
1630878437.90003610,65728698,0.07,0.05,0.11,0.13,352.8,352.8,0.0,0.0
1630878437.99999619,65828658,0.07,0.05,0.1,0.1,352.8,352.8,0.0,0.0
1630878438.09995604,65928618,0.07,0.06,0.08,0.09,352.8,352.8,0.0,0.0
1630878438.19991612,66028578,0.08,0.06,0.05,0.06,352.8,352.8,0.0,0.0
1630878438.29987597,66128538,0.07,0.06,0.03,0.03,352.8,352.8,0.0,0.0
1630878438.39983606,66228498,0.05,0.04,0.02,0.01,352.8,352.8,0.0,0.0
1630878438.49979615,66328458,0.04,0.02,0.05,0.02,352.8,352.8,0.0,0.0
1630878438.59975600,66428418,0.06,0.02,0.07,0.04,352.8,352.8,0.0,0.0
1630878438.69971609,66528378,0.06,0.04,0.09,0.06,352.8,352.8,0.0,0.0
1630878438.79967618,66628338,0.07,0.05,0.1,0.09,352.8,352.8,0.0,0.0
1630878438.89963603,66728298,0.07,0.05,0.1,0.1,352.8,352.8,0.0,0.0
1630878438.99959612,66828258,0.07,0.06,0.1,0.1,352.8,352.8,0.0,0.0
1630878439.09955597,66928218,0.08,0.08,0.07,0.08,352.8,352.81,0.0,0.0
1630878439.19951606,67028178,0.07,0.08,0.05,0.05,352.8,352.81,0.0,0.0
1630878439.30030918,67128971,0.05,0.06,0.04,0.03,352.8,352.81,0.0,0.0
1630878439.40026903,67228931,0.05,0.05,0.08,0.04,352.8,352.81,0.0,0.0
1630878439.50022912,67328891,0.12,0.07,0.12,0.08,352.8,352.81,0.0,0.0
1630878439.60018897,67428851,0.17,0.13,0.14,0.12,352.8,352.81,0.0,0.0
1630878439.70014906,67528811,0.21,0.2,0.13,0.14,352.8,352.8,0.0,0.0
1630878439.80010915,67628771,0.19,0.22,0.12,0.14,352.8,352.8,0.0,0.0
1630878439.90006900,67728731,0.18,0.21,0.12,0.13,352.8,352.8,0.0,0.0
1630878440.00002909,67828691,0.18,0.19,0.1,0.11,352.8,352.8,0.0,0.0
1630878440.09998918,67928651,0.16,0.17,0.08,0.08,352.8,352.8,0.0,0.0
1630878440.19994903,68028611,0.13,0.15,0.11,0.08,352.8,352.8,0.0,0.0
1630878440.29990911,68128571,0.09,0.12,0.12,0.09,352.8,352.8,0.0,0.0
1630878440.39986897,68228531,0.1,0.08,0.13,0.11,352.8,352.81,0.0,0.0
1630878440.49982905,68328491,0.12,0.09,0.15,0.14,352.8,352.81,0.0,0.0
1630878440.59978914,68428451,0.16,0.11,0.15,0.15,352.8,352.81,0.0,0.0
1630878440.69974899,68528411,0.19,0.15,0.15,0.16,352.8,352.81,0.0,0.0
1630878440.79970908,68628371,0.19,0.17,0.13,0.14,352.8,352.81,0.0,0.0
1630878440.89966917,68728331,0.17,0.17,0.1,0.12,352.8,352.81,0.0,0.0
1630878440.99962902,68828291,0.14,0.15,0.06,0.07,352.8,352.81,0.0,0.0
1630878441.09958911,68928251,0.13,0.14,0.06,0.05,352.8,352.81,0.0,0.0
1630878441.19954920,69028211,0.13,0.13,0.09,0.06,352.8,352.81,0.0,0.0
1630878441.29950905,69128171,0.14,0.13,0.11,0.09,352.8,352.8,0.0,0.0
1630878441.40030217,69228964,0.14,0.13,0.12,0.1,352.8,352.8,0.0,0.0
1630878441.50026202,69328924,0.14,0.14,0.15,0.12,352.8,352.8,0.0,0.0
1630878441.60022211,69428884,0.1,0.12,0.16,0.15,352.8,352.8,0.0,0.0
1630878441.70018220,69528844,0.08,0.09,0.14,0.17,352.8,352.8,0.0,0.0
1630878441.80014205,69628804,0.1,0.08,0.14,0.15,352.8,352.8,0.0,0.0
1630878441.90010214,69728764,0.13,0.09,0.11,0.14,352.8,352.8,0.0,0.0
1630878442.00006199,69828724,0.14,0.1,0.1,0.12,352.8,352.8,0.0,0.0
1630878442.10002208,69928684,0.13,0.11,0.12,0.12,352.8,352.8,0.0,0.0
1630878442.19998217,70028644,0.1,0.09,0.13,0.12,352.8,352.8,0.0,0.0
1630878442.29994202,70128604,0.1,0.08,0.09,0.1,352.8,352.8,0.0,0.0
1630878442.39990211,70228564,0.12,0.1,0.07,0.07,352.8,352.8,0.0,0.0
1630878442.49986219,70328524,0.17,0.14,0.06,0.05,352.8,352.8,0.0,0.0
1630878442.59982204,70428484,0.18,0.18,0.05,0.04,352.8,352.8,0.0,0.0
1630878442.69978213,70528444,0.16,0.18,0.06,0.04,352.8,352.8,0.0,0.0
1630878442.79974198,70628404,0.15,0.17,0.09,0.05,352.8,352.81,0.0,0.0
1630878442.89970207,70728364,0.13,0.14,0.07,0.07,352.8,352.81,0.0,0.0
1630878442.99966216,70828324,0.11,0.12,0.05,0.05,352.8,352.81,0.0,0.0
1630878443.09962201,70928284,0.1,0.1,0.06,0.04,352.8,352.81,0.0,0.0
1630878443.19958210,71028244,0.1,0.08,0.08,0.06,352.8,352.81,0.0,0.0
1630878443.29954219,71128204,0.07,0.07,0.11,0.09,352.8,352.8,0.0,0.0
1630878443.39950204,71228164,0.03,0.04,0.11,0.11,352.8,352.8,0.0,0.0
1630878443.50029516,71328957,0.03,0.02,0.09,0.11,352.8,352.8,0.0,0.0
1630878443.60025501,71428917,0.05,0.02,0.08,0.09,352.8,352.8,0.0,0.0
1630878443.70021510,71528877,0.08,0.04,0.07,0.06,352.8,352.8,0.0,0.0
1630878443.80017519,71628837,0.09,0.07,0.08,0.06,352.8,352.8,0.0,0.0
1630878443.90013504,71728797,0.12,0.1,0.1,0.08,352.8,352.8,0.0,0.0
1630878444.00009513,71828757,0.14,0.13,0.13,0.1,352.8,352.8,0.0,0.0
1630878444.10005498,71928717,0.12,0.15,0.14,0.14,352.8,352.8,0.0,0.0
1630878444.20001507,72028677,0.07,0.11,0.1,0.12,352.8,352.8,0.0,0.0
1630878444.29997516,72128637,0.04,0.06,0.07,0.08,352.8,352.8,0.0,0.0
1630878444.39993501,72228597,0.03,0.02,0.07,0.06,352.8,352.8,0.0,0.0
1630878444.49989510,72328557,0.03,0.0,0.08,0.06,352.8,352.8,0.0,0.0
1630878444.59985518,72428517,0.05,0.02,0.08,0.07,352.8,352.8,0.0,0.0
1630878444.69981503,72528477,0.07,0.05,0.09,0.08,352.8,352.8,0.0,0.0
1630878444.79977512,72628437,0.06,0.07,0.08,0.09,352.8,352.8,0.0,0.0
1630878444.89973497,72728397,0.01,0.05,0.1,0.09,352.8,352.8,0.0,0.0
1630878444.99969506,72828357,-0.04,-0.01,0.13,0.11,352.8,352.8,0.0,0.0
1630878445.09965515,72928317,-0.05,-0.06,0.1,0.12,352.8,352.8,0.0,0.0
1630878445.19961500,73028277,0.0,-0.06,0.08,0.09,352.8,352.8,0.0,0.0
1630878445.29957509,73128237,0.03,-0.02,0.08,0.07,352.8,352.81,0.0,0.0
1630878445.39953518,73228197,0.06,0.02,0.06,0.06,352.8,352.81,0.0,0.0
1630878445.49949503,73328157,0.08,0.06,0.05,0.04,352.8,352.81,0.0,0.0
1630878445.60028815,73428950,0.11,0.09,0.08,0.04,352.8,352.81,0.0,0.0
1630878445.70024800,73528910,0.12,0.12,0.1,0.07,352.8,352.81,0.0,0.0
1630878445.80020809,73628870,0.12,0.13,0.09,0.09,352.8,352.81,0.0,0.0
1630878445.90016818,73728830,0.16,0.16,0.07,0.09,352.8,352.8,0.0,0.0
1630878446.00012803,73828790,0.19,0.19,0.04,0.06,352.8,352.8,0.0,0.0
1630878446.10008812,73928750,0.18,0.2,0.04,0.04,352.8,352.8,0.0,0.0
1630878446.20004797,74028710,0.15,0.18,0.05,0.04,352.8,352.8,0.0,0.0
1630878446.30000806,74128670,0.16,0.15,0.07,0.04,352.8,352.8,0.0,0.0
1630878446.39996815,74228630,0.18,0.16,0.12,0.07,352.8,352.8,0.0,0.0
1630878446.49992800,74328590,0.19,0.18,0.12,0.1,352.8,352.8,0.0,0.0
1630878446.59988809,74428550,0.2,0.2,0.11,0.11,352.8,352.8,0.0,0.0
1630878446.69984818,74528510,0.2,0.21,0.08,0.1,352.8,352.8,0.0,0.0
1630878446.79980803,74628470,0.2,0.21,0.03,0.06,352.8,352.8,0.0,0.0
1630878446.89976811,74728430,0.21,0.21,0.01,0.03,352.8,352.8,0.0,0.0
1630878446.99972796,74828390,0.21,0.21,0.0,0.0,352.8,352.8,0.0,0.0
1630878447.09968805,74928350,0.17,0.2,-0.01,-0.01,352.8,352.8,0.0,0.0
1630878447.19964814,75028310,0.13,0.15,0.01,-0.01,352.8,352.8,0.0,0.0
1630878447.29960799,75128270,0.13,0.12,0.02,0.0,352.8,352.8,0.0,0.0
1630878447.39956808,75228230,0.16,0.13,0.02,0.01,352.8,352.8,0.0,0.0
1630878447.49952817,75328190,0.18,0.15,0.04,0.02,352.8,352.8,0.0,0.0
1630878447.60032105,75428983,0.21,0.18,0.06,0.04,352.8,352.79,0.0,0.0
1630878447.70028114,75528943,0.25,0.22,0.06,0.06,352.8,352.79,0.0,0.0
1630878447.80024099,75628903,0.24,0.24,0.02,0.04,352.8,352.79,0.0,0.0
1630878447.90020108,75728863,0.19,0.21,0.03,0.03,352.8,352.79,0.0,0.0
1630878448.00016117,75828823,0.15,0.18,0.06,0.04,352.8,352.79,0.0,0.0
1630878448.10012102,75928783,0.16,0.16,0.07,0.04,352.8,352.79,0.0,0.0
1630878448.20008111,76028743,0.17,0.15,0.08,0.06,352.8,352.79,0.0,0.0
1630878448.30004120,76128703,0.15,0.15,0.1,0.08,352.8,352.79,0.0,0.0
1630878448.40000105,76228663,0.14,0.14,0.13,0.11,352.8,352.79,0.0,0.0
1630878448.49996114,76328623,0.15,0.14,0.11,0.11,352.8,352.8,0.0,0.0
1630878448.59992099,76428583,0.18,0.16,0.1,0.09,352.8,352.8,0.0,0.0
1630878448.69988108,76528543,0.19,0.18,0.13,0.1,352.8,352.8,0.0,0.0
1630878448.79984117,76628503,0.19,0.19,0.14,0.12,352.8,352.81,0.0,0.0
1630878448.89980102,76728463,0.17,0.18,0.14,0.13,352.8,352.81,0.0,0.0
1630878448.99976110,76828423,0.14,0.15,0.13,0.13,352.8,352.81,0.0,0.0
1630878449.09972119,76928383,0.11,0.12,0.15,0.13,352.8,352.81,0.0,0.0
1630878449.19968104,77028343,0.1,0.09,0.13,0.13,352.8,352.81,0.0,0.0
1630878449.29964113,77128303,0.12,0.09,0.12,0.13,352.8,352.81,0.0,0.0
1630878449.39960098,77228263,0.16,0.12,0.14,0.13,352.8,352.81,0.0,0.0
1630878449.49956107,77328223,0.2,0.18,0.13,0.15,352.8,352.81,0.0,0.0
1630878449.59952116,77428183,0.19,0.2,0.1,0.12,352.8,352.8,0.0,0.0
1630878449.70031404,77528976,0.15,0.18,0.11,0.11,352.8,352.8,0.0,0.0
1630878449.80027413,77628936,0.11,0.14,0.1,0.11,352.8,352.8,0.0,0.0
1630878449.90023398,77728896,0.11,0.11,0.07,0.07,352.8,352.8,0.0,0.0
1630878450.00019407,77828856,0.13,0.11,0.07,0.05,352.8,352.8,0.0,0.0
1630878450.10015416,77928816,0.14,0.12,0.12,0.07,352.8,352.8,0.0,0.0
1630878450.20011401,78028776,0.16,0.13,0.15,0.11,352.8,352.8,0.0,0.0
1630878450.30007410,78128736,0.16,0.15,0.13,0.13,352.8,352.8,0.0,0.0
1630878450.40003419,78228696,0.15,0.15,0.06,0.1,352.8,352.8,0.0,0.0
1630878450.49999404,78328656,0.12,0.15,0.02,0.05,352.8,352.8,0.0,0.0
1630878450.59995413,78428616,0.11,0.13,0.04,0.02,352.8,352.81,0.0,0.0
1630878450.69991398,78528576,0.12,0.11,0.1,0.05,352.8,352.81,0.0,0.0
1630878450.79987407,78628536,0.12,0.1,0.15,0.11,352.8,352.81,0.0,0.0
1630878450.89983416,78728496,0.11,0.09,0.18,0.16,352.8,352.8,0.0,0.0
1630878450.99979401,78828456,0.09,0.08,0.18,0.18,352.8,352.8,0.0,0.0
1630878451.09975410,78928416,0.1,0.09,0.16,0.17,352.8,352.8,0.0,0.0
1630878451.19971418,79028376,0.1,0.09,0.14,0.15,352.8,352.8,0.0,0.0
1630878451.29967403,79128336,0.11,0.09,0.12,0.12,352.8,352.8,0.0,0.0
1630878451.39963412,79228296,0.13,0.11,0.09,0.1,352.8,352.8,0.0,0.0
1630878451.49959397,79328256,0.1,0.11,0.09,0.07,352.8,352.8,0.0,0.0
1630878451.59955406,79428216,0.08,0.08,0.12,0.08,352.8,352.79,0.0,0.0
1630878451.69951415,79528176,0.07,0.07,0.16,0.12,352.8,352.79,0.0,0.0
1630878451.80030704,79628969,0.1,0.08,0.17,0.16,352.8,352.79,0.0,0.0
1630878451.90026712,79728929,0.13,0.11,0.17,0.17,352.8,352.8,0.0,0.0
1630878452.00022697,79828889,0.12,0.13,0.15,0.17,352.8,352.8,0.0,0.0
1630878452.10018706,79928849,0.08,0.12,0.12,0.16,352.8,352.8,0.0,0.0
1630878452.20014715,80028809,0.04,0.07,0.09,0.11,352.8,352.8,0.0,0.0
1630878452.30010700,80128769,0.02,0.03,0.07,0.07,352.8,352.8,0.0,0.0
1630878452.40006709,80228729,0.05,0.01,0.08,0.05,352.8,352.8,0.0,0.0
1630878452.50002718,80328689,0.08,0.03,0.11,0.06,352.8,352.8,0.0,0.0
1630878452.59998703,80428649,0.11,0.06,0.13,0.09,352.8,352.8,0.0,0.0
1630878452.69994712,80528609,0.13,0.11,0.11,0.1,352.8,352.8,0.0,0.0
1630878452.79990697,80628569,0.15,0.13,0.11,0.1,352.8,352.8,0.0,0.0
1630878452.89986706,80728529,0.17,0.16,0.13,0.11,352.8,352.8,0.0,0.0
1630878452.99982715,80828489,0.15,0.16,0.14,0.12,352.8,352.8,0.0,0.0
1630878453.09978700,80928449,0.13,0.14,0.14,0.13,352.8,352.8,0.0,0.0
1630878453.19974709,81028409,0.12,0.12,0.14,0.13,352.8,352.8,0.0,0.0
1630878453.29970717,81128369,0.12,0.12,0.12,0.13,352.8,352.8,0.0,0.0
1630878453.39966702,81228329,0.12,0.11,0.1,0.11,352.8,352.8,0.0,0.0
1630878453.49962711,81328289,0.11,0.12,0.07,0.09,352.8,352.8,0.0,0.0
1630878453.59958696,81428249,0.11,0.12,0.06,0.07,352.8,352.81,0.0,0.0
1630878453.69954705,81528209,0.13,0.12,0.08,0.06,352.8,352.81,0.0,0.0
1630878453.79950714,81628169,0.14,0.12,0.09,0.08,352.8,352.81,0.0,0.0
1630878453.90030003,81728962,0.15,0.13,0.12,0.11,352.8,352.81,0.0,0.0
1630878454.00026011,81828922,0.15,0.14,0.17,0.15,352.8,352.81,0.0,0.0
1630878454.10021996,81928882,0.14,0.13,0.2,0.2,352.8,352.81,0.0,0.0
1630878454.20018005,82028842,0.15,0.13,0.21,0.23,352.8,352.81,0.0,0.0
1630878454.30014014,82128802,0.13,0.13,0.19,0.23,352.8,352.8,0.0,0.0
1630878454.40009999,82228762,0.08,0.09,0.14,0.19,352.8,352.8,0.0,0.0
1630878454.50006008,82328722,0.07,0.06,0.1,0.13,352.8,352.8,0.0,0.0
1630878454.60002017,82428682,0.08,0.05,0.11,0.09,352.8,352.8,0.0,0.0
1630878454.69998002,82528642,0.09,0.05,0.14,0.11,352.8,352.8,0.0,0.0
1630878454.79994011,82628602,0.11,0.07,0.16,0.12,352.8,352.8,0.0,0.0
1630878454.89990020,82728562,0.14,0.1,0.18,0.15,352.8,352.8,0.0,0.0
1630878454.99986005,82828522,0.15,0.14,0.15,0.16,352.8,352.8,0.0,0.0
1630878455.09982014,82928482,0.16,0.17,0.12,0.14,352.8,352.8,0.0,0.0
1630878455.19977999,83028442,0.15,0.18,0.11,0.12,352.8,352.8,0.0,0.0
1630878455.29974008,83128402,0.1,0.14,0.1,0.1,352.8,352.79,0.0,0.0
1630878455.39970016,83228362,0.07,0.09,0.1,0.08,352.8,352.79,0.0,0.0
1630878455.49966002,83328322,0.07,0.06,0.11,0.08,352.8,352.79,0.0,0.0
1630878455.59962010,83428282,0.07,0.06,0.12,0.09,352.8,352.8,0.0,0.0
1630878455.69958019,83528242,0.06,0.05,0.15,0.11,352.8,352.8,0.0,0.0
1630878455.79954004,83628202,0.08,0.06,0.17,0.14,352.8,352.8,0.0,0.0
1630878455.89950013,83728162,0.08,0.07,0.18,0.17,352.8,352.8,0.0,0.0
1630878456.00029302,83828955,0.11,0.08,0.18,0.18,352.8,352.81,0.0,0.0
1630878456.10025311,83928915,0.14,0.11,0.16,0.18,352.8,352.81,0.0,0.0
1630878456.20021319,84028875,0.16,0.13,0.14,0.15,352.8,352.81,0.0,0.0
1630878456.30017304,84128835,0.19,0.17,0.12,0.12,352.8,352.81,0.0,0.0
1630878456.40013313,84228795,0.2,0.2,0.08,0.09,352.8,352.8,0.0,0.0
1630878456.50009298,84328755,0.17,0.2,0.08,0.07,352.8,352.8,0.0,0.0
1630878456.60005307,84428715,0.15,0.18,0.1,0.07,352.8,352.8,0.0,0.0
1630878456.70001316,84528675,0.13,0.14,0.1,0.08,352.8,352.8,0.0,0.0
1630878456.79997301,84628635,0.13,0.12,0.08,0.08,352.8,352.8,0.0,0.0
1630878456.89993310,84728595,0.13,0.11,0.06,0.06,352.8,352.8,0.0,0.0
1630878456.99989319,84828555,0.15,0.12,0.06,0.05,352.8,352.8,0.0,0.0
1630878457.09985304,84928515,0.17,0.14,0.09,0.06,352.8,352.8,0.0,0.0
1630878457.19981313,85028475,0.15,0.15,0.1,0.07,352.8,352.79,0.0,0.0
1630878457.29977298,85128435,0.13,0.14,0.14,0.1,352.8,352.79,0.0,0.0
1630878457.39973307,85228395,0.12,0.12,0.17,0.15,352.8,352.8,0.0,0.0
1630878457.49969316,85328355,0.12,0.11,0.2,0.19,352.8,352.8,0.0,0.0
1630878457.59965301,85428315,0.14,0.11,0.21,0.22,352.8,352.8,0.0,0.0
1630878457.69961309,85528275,0.17,0.14,0.16,0.2,352.8,352.8,0.0,0.0
1630878457.79957318,85628235,0.16,0.15,0.09,0.14,352.8,352.8,0.0,0.0
1630878457.89953303,85728195,0.14,0.15,0.06,0.07,352.8,352.8,0.0,0.0
1630878457.99949312,85828155,0.14,0.13,0.05,0.03,352.8,352.8,0.0,0.0
1630878458.10028601,85928948,0.14,0.13,0.06,0.03,352.8,352.8,0.0,0.0
1630878458.20024610,86028908,0.15,0.13,0.09,0.05,352.8,352.8,0.0,0.0
1630878458.30020618,86128868,0.14,0.13,0.12,0.09,352.8,352.8,0.0,0.0
1630878458.40016603,86228828,0.15,0.14,0.14,0.12,352.8,352.8,0.0,0.0
1630878458.50012612,86328788,0.17,0.15,0.13,0.14,352.8,352.8,0.0,0.0
1630878458.60008597,86428748,0.18,0.17,0.13,0.14,352.8,352.8,0.0,0.0
1630878458.70004606,86528708,0.2,0.19,0.1,0.12,352.8,352.8,0.0,0.0
1630878458.80000615,86628668,0.18,0.19,0.1,0.1,352.8,352.8,0.0,0.0
1630878458.89996600,86728628,0.14,0.16,0.14,0.11,352.8,352.8,0.0,0.0
1630878458.99992609,86828588,0.1,0.12,0.17,0.15,352.8,352.8,0.0,0.0
1630878459.09988618,86928548,0.08,0.07,0.17,0.17,352.8,352.8,0.0,0.0
1630878459.19984603,87028508,0.1,0.06,0.16,0.17,352.8,352.8,0.0,0.0
1630878459.29980612,87128468,0.14,0.09,0.16,0.16,352.8,352.8,0.0,0.0
1630878459.39976597,87228428,0.17,0.13,0.17,0.16,352.8,352.8,0.0,0.0
1630878459.49972606,87328388,0.15,0.15,0.15,0.16,352.8,352.8,0.0,0.0
1630878459.59968615,87428348,0.15,0.15,0.12,0.13,352.8,352.8,0.0,0.0
1630878459.69964600,87528308,0.14,0.15,0.09,0.1,352.8,352.8,0.0,0.0
1630878459.79960608,87628268,0.13,0.14,0.08,0.07,352.8,352.8,0.0,0.0
1630878459.89956617,87728228,0.14,0.13,0.09,0.06,352.8,352.8,0.0,0.0
1630878459.99952602,87828188,0.14,0.13,0.11,0.08,352.8,352.8,0.0,0.0
1630878460.10031915,87928981,0.1,0.11,0.13,0.11,352.8,352.8,0.0,0.0
1630878460.20027900,88028941,0.06,0.07,0.13,0.13,352.8,352.8,0.0,0.0
1630878460.30023909,88128901,0.05,0.04,0.13,0.13,352.8,352.8,0.0,0.0
1630878460.40019917,88228861,0.07,0.04,0.14,0.13,352.8,352.8,0.0,0.0
1630878460.50015903,88328821,0.08,0.06,0.14,0.13,352.8,352.8,0.0,0.0
1630878460.60011911,88428781,0.08,0.06,0.12,0.12,352.8,352.8,0.0,0.0
1630878460.70007896,88528741,0.07,0.07,0.11,0.11,352.8,352.8,0.0,0.0
1630878460.80003905,88628701,0.05,0.05,0.12,0.11,352.8,352.8,0.0,0.0
1630878460.89999914,88728661,0.06,0.04,0.1,0.1,352.8,352.8,0.0,0.0
1630878460.99995899,88828621,0.07,0.03,0.1,0.09,352.8,352.8,0.0,0.0
1630878461.09991908,88928581,0.09,0.05,0.13,0.11,352.8,352.8,0.0,0.0
1630878461.19987917,89028541,0.13,0.09,0.15,0.13,352.8,352.8,0.0,0.0
1630878461.29983902,89128501,0.16,0.14,0.16,0.16,352.8,352.8,0.0,0.0
1630878461.39979911,89228461,0.14,0.17,0.14,0.17,352.8,352.8,0.0,0.0
1630878461.49975920,89328421,0.0,0.1,-0.04,0.07,352.8,352.8,0.0,0.0
1630878461.59971905,89428381,-0.3,-0.13,-0.44,-0.22,352.8,352.8,0.0,0.0
1630878461.69967914,89528341,-0.73,-0.53,-1.03,-0.76,352.8,352.8,0.0,0.0
1630878461.79963899,89628301,-1.24,-1.06,-1.76,-1.51,352.8,352.82,0.0,0.0
1630878461.89959908,89728261,-1.8,-1.67,-2.48,-2.34,352.8,352.83,0.0,0.0
1630878461.99955916,89828221,-2.29,-2.28,-3.1,-3.11,352.8,352.85,0.0,0.0
1630878462.09951901,89928181,-2.65,-2.76,-3.56,-3.72,352.8,352.86,0.0,0.01
1630878462.20031214,90028974,-2.9,-3.08,-3.92,-4.15,352.8,352.86,0.0,0.01
1630878462.30027199,90128934,-3.11,-3.3,-4.22,-4.44,352.8,352.85,0.0,0.0
1630878462.40023208,90228894,-3.32,-3.46,-4.52,-4.68,352.8,352.83,0.0,0.0
1630878462.50019217,90328854,-3.54,-3.62,-4.84,-4.92,352.8,352.82,0.0,0.0
1630878462.60015202,90428814,-3.82,-3.83,-5.19,-5.22,352.8,352.81,0.0,0.0
1630878462.70011210,90528774,-4.11,-4.09,-5.55,-5.55,352.8,352.81,0.0,0.0
1630878462.80007219,90628734,-4.37,-4.35,-5.9,-5.89,352.8,352.8,0.0,0.0
1630878462.90003204,90728694,-4.57,-4.59,-6.16,-6.19,352.8,352.8,0.0,0.0
1630878462.99999213,90828654,-4.69,-4.75,-6.34,-6.42,352.8,352.79,0.0,0.0
1630878463.09995198,90928614,-4.76,-4.84,-6.45,-6.57,352.8,352.78,0.0,0.0
1630878463.19991207,91028574,-4.86,-4.9,-6.54,-6.64,352.8,352.77,0.0,0.0
1630878463.29987216,91128534,-4.99,-5.0,-6.65,-6.71,352.8,352.76,0.0,0.0
1630878463.39983201,91228494,-5.15,-5.14,-6.79,-6.8,352.62,352.77,0.0,0.0
1630878463.49979210,91328454,-5.33,-5.43,-7.05,-6.87,350.28,352.68,0.0,0.0
1630878463.59975219,91428414,-5.52,-6.01,-7.42,-6.92,345.26,352.01,0.0,0.0
1630878463.69971204,91528374,-5.59,-6.71,-7.94,-7.06,339.26,350.03,0.0,0.0
1630878463.79967213,91628334,-5.34,-7.07,-8.66,-7.51,333.26,346.35,0.0,0.01
1630878463.89963198,91728294,-4.65,-6.83,-9.51,-8.29,327.26,341.05,0.0,0.01
1630878463.99959207,91828254,-3.46,-5.8,-10.44,-9.33,322.04,334.4,0.0,0.02
1630878464.09955215,91928214,-1.85,-3.73,-11.31,-10.47,319.3,326.91,0.0,0.02
1630878464.19951200,92028174,-0.09,-0.87,-11.97,-11.43,318.03,319.42,0.0,0.03
1630878464.30030513,92128967,1.47,2.16,-12.37,-12.01,317.49,312.78,0.0,0.03
1630878464.40026498,92228927,2.63,4.74,-12.6,-12.23,317.28,307.7,0.0,0.02
1630878464.50022507,92328887,3.22,6.41,-12.79,-12.24,317.18,304.53,0.0,0.02
1630878464.60018516,92428847,3.25,7.0,-13.08,-12.27,317.11,303.21,0.0,0.02
1630878464.70014501,92528807,2.82,6.61,-13.48,-12.49,316.99,303.47,0.0,0.01
1630878464.80010509,92628767,2.11,5.46,-13.96,-12.92,316.84,304.94,0.0,0.01
1630878464.90006518,92728727,1.3,3.86,-14.46,-13.52,316.64,307.25,0.0,0.01
1630878465.00002503,92828687,0.47,2.07,-14.91,-14.2,316.43,310.05,0.0,0.0
1630878465.09998512,92928647,-0.25,0.33,-15.23,-14.8,316.21,313.02,0.0,0.0
1630878465.19994497,93028607,-0.81,-1.14,-15.39,-15.21,316.01,315.8,0.0,0.0
1630878465.29990506,93128567,-1.21,-2.26,-15.45,-15.41,315.84,318.07,0.0,0.0
1630878465.39986515,93228527,-1.43,-2.95,-15.44,-15.45,315.7,319.67,0.0,0.0
1630878465.49982500,93328487,-1.44,-3.2,-15.45,-15.42,315.6,320.49,0.0,0.0
1630878465.59978509,93428447,-1.28,-3.04,-15.49,-15.39,315.53,320.6,0.0,0.0
1630878465.69974518,93528407,-1.0,-2.56,-15.58,-15.42,315.5,320.1,0.0,0.0
1630878465.79970503,93628367,-0.68,-1.88,-15.68,-15.51,315.49,319.15,0.0,0.0
1630878465.89966512,93728327,-0.34,-1.11,-15.8,-15.64,315.5,317.95,0.0,0.0
1630878465.99962497,93828287,0.0,-0.34,-15.89,-15.79,315.52,316.68,0.0,0.0
1630878466.09958506,93928247,0.28,0.34,-15.98,-15.91,315.55,315.5,0.0,0.0
1630878466.19954515,94028207,0.49,0.89,-16.04,-16.0,315.58,314.53,0.0,0.0
1630878466.29950500,94128167,0.61,1.24,-16.07,-16.06,315.6,313.86,0.0,0.0
1630878466.40029812,94228960,0.65,1.4,-16.09,-16.08,315.62,313.51,0.0,0.0
1630878466.50025797,94328920,0.62,1.39,-16.13,-16.1,315.64,313.46,0.0,0.0
1630878466.60021806,94428880,0.52,1.22,-16.16,-16.14,315.64,313.68,0.0,0.0
1630878466.70017815,94528840,0.36,0.92,-16.2,-16.17,315.64,314.08,0.0,0.0
1630878466.80013800,94628800,0.2,0.56,-16.25,-16.22,315.64,314.59,0.0,0.0
1630878466.90009809,94728760,0.06,0.21,-16.33,-16.3,315.63,315.12,0.0,0.0
1630878467.00005817,94828720,-0.02,-0.07,-16.4,-16.38,315.63,315.62,0.0,0.0
1630878467.10001802,94928680,-0.09,-0.28,-16.46,-16.46,315.62,316.04,0.0,0.0
1630878467.19997811,95028640,-0.14,-0.42,-16.5,-16.52,315.62,316.33,0.0,0.0
1630878467.29993796,95128600,-0.16,-0.48,-16.53,-16.56,315.62,316.49,0.0,0.0
1630878467.39989805,95228560,-0.14,-0.47,-16.57,-16.59,315.62,316.52,0.0,0.0
1630878467.49985814,95328520,-0.07,-0.38,-16.6,-16.61,315.62,316.44,0.0,0.0
1630878467.59981799,95428480,0.01,-0.22,-16.63,-16.63,315.64,316.29,0.0,0.0
1630878467.69977808,95528440,0.07,-0.06,-16.64,-16.65,315.65,316.08,0.0,0.0
1630878467.79973817,95628400,0.11,0.06,-16.64,-16.66,315.66,315.87,0.0,0.0
1630878467.89969802,95728360,0.14,0.17,-16.67,-16.67,315.67,315.68,0.0,0.0
1630878467.99965811,95828320,0.17,0.24,-16.69,-16.68,315.69,315.52,0.0,0.0
1630878468.09961820,95928280,0.19,0.31,-16.74,-16.72,315.7,315.4,0.0,0.0
1630878468.19957805,96028240,0.21,0.35,-16.79,-16.76,315.71,315.35,0.0,0.0
1630878468.29953814,96128200,0.22,0.37,-16.83,-16.82,315.72,315.35,0.0,0.0
1630878468.39949799,96228160,0.19,0.33,-16.84,-16.86,315.72,315.39,0.0,0.0
1630878468.50029111,96328953,0.17,0.28,-16.85,-16.87,315.73,315.46,0.0,0.0
1630878468.60025120,96428913,0.16,0.23,-16.87,-16.89,315.73,315.55,0.0,0.0
1630878468.70021105,96528873,0.15,0.18,-16.87,-16.9,315.74,315.64,0.0,0.0
1630878468.80017114,96628833,0.16,0.15,-16.91,-16.92,315.74,315.73,0.0,0.0
1630878468.90013099,96728793,0.14,0.13,-16.96,-16.96,315.75,315.81,0.0,0.0
1630878469.00009108,96828753,0.13,0.11,-17.0,-17.02,315.75,315.86,0.0,0.0
1630878469.10005116,96928713,0.1,0.09,-17.03,-17.05,315.76,315.89,0.0,0.0
1630878469.20001101,97028673,0.07,0.06,-17.06,-17.09,315.76,315.91,0.0,0.0
1630878469.29997110,97128633,0.06,0.02,-17.09,-17.11,315.77,315.9,0.0,0.0
1630878469.39993119,97228593,0.08,0.02,-17.12,-17.15,315.77,315.88,0.0,0.0
1630878469.49989104,97328553,0.11,0.05,-17.13,-17.17,315.78,315.85,0.0,0.0
1630878469.59985113,97428513,0.12,0.09,-17.15,-17.17,315.78,315.82,0.0,0.0
1630878469.69981098,97528473,0.13,0.12,-17.18,-17.19,315.78,315.79,0.0,0.0
1630878469.79977107,97628433,0.15,0.14,-17.2,-17.22,315.79,315.76,0.0,0.0
1630878469.89973116,97728393,0.17,0.17,-17.22,-17.25,315.79,315.75,0.0,0.0
1630878469.99969101,97828353,0.17,0.19,-17.25,-17.27,315.8,315.74,0.0,0.0
1630878470.09965110,97928313,0.17,0.19,-17.29,-17.29,315.8,315.74,0.0,0.0
1630878470.19961119,98028273,0.19,0.2,-17.35,-17.34,315.81,315.75,0.0,0.0
1630878470.29957104,98128233,0.19,0.21,-17.38,-17.38,315.81,315.76,0.0,0.0
1630878470.39953113,98228193,0.17,0.2,-17.38,-17.4,315.81,315.78,0.0,0.0
1630878470.50032401,98328986,0.17,0.18,-17.4,-17.42,315.81,315.79,0.0,0.0
1630878470.60028410,98428946,0.17,0.17,-17.39,-17.42,315.82,315.81,0.0,0.0
1630878470.70024419,98528906,0.16,0.16,-17.38,-17.4,315.82,315.82,0.0,0.0
1630878470.80020404,98628866,0.17,0.16,-17.42,-17.41,315.82,315.84,0.0,0.0
1630878470.90016413,98728826,0.18,0.17,-17.46,-17.44,315.82,315.84,0.0,0.0
1630878471.00012398,98828786,0.18,0.18,-17.49,-17.48,315.83,315.85,0.0,0.0
1630878471.10008407,98928746,0.19,0.18,-17.52,-17.51,315.83,315.85,0.0,0.0
1630878471.20004416,99028706,0.2,0.2,-17.54,-17.54,315.84,315.85,0.0,0.0
1630878471.30000401,99128666,0.2,0.21,-17.57,-17.57,315.84,315.84,0.0,0.0
1630878471.39996409,99228626,0.21,0.21,-17.59,-17.6,315.85,315.84,0.0,0.0
1630878471.49992418,99328586,0.22,0.23,-17.59,-17.61,315.85,315.84,0.0,0.0
1630878471.59988403,99428546,0.22,0.24,-17.6,-17.62,315.85,315.84,0.0,0.0
1630878471.69984412,99528506,0.24,0.24,-17.64,-17.64,315.86,315.84,0.0,0.0
1630878471.79980397,99628466,0.25,0.25,-17.66,-17.67,315.86,315.84,0.0,0.0
1630878471.89976406,99728426,0.26,0.26,-17.68,-17.69,315.86,315.84,0.0,0.0
1630878471.99972415,99828386,0.28,0.27,-17.68,-17.7,315.87,315.85,0.0,0.0
1630878472.09968400,99928346,0.27,0.28,-17.69,-17.7,315.87,315.85,0.0,0.0
1630878472.19964409,100028306,0.24,0.27,-17.72,-17.71,315.88,315.86,0.0,0.0
1630878472.29960418,100128266,0.23,0.25,-17.73,-17.73,315.88,315.87,0.0,0.0
1630878472.39956403,100228226,0.22,0.24,-17.76,-17.75,315.88,315.87,0.0,0.0
1630878472.49952412,100328186,0.23,0.23,-17.78,-17.78,315.88,315.88,0.0,0.0
1630878472.60031700,100428979,0.23,0.23,-17.79,-17.8,315.89,315.89,0.0,0.0
1630878472.70027709,100528939,0.23,0.23,-17.76,-17.79,315.89,315.89,0.0,0.0
1630878472.80023718,100628899,0.22,0.22,-17.74,-17.77,315.89,315.9,0.0,0.0
1630878472.90019703,100728859,0.21,0.21,-17.77,-17.78,315.9,315.9,0.0,0.0
1630878473.00015712,100828819,0.23,0.21,-17.81,-17.81,315.9,315.9,0.0,0.0
1630878473.10011697,100928779,0.26,0.24,-17.83,-17.84,315.9,315.9,0.0,0.0
1630878473.20007706,101028739,0.25,0.26,-17.84,-17.86,315.91,315.9,0.0,0.0
1630878473.30003715,101128699,0.23,0.25,-17.84,-17.87,315.91,315.9,0.0,0.0
1630878473.39999700,101228659,0.25,0.25,-17.84,-17.88,315.91,315.9,0.0,0.0
1630878473.49995708,101328619,0.27,0.27,-17.87,-17.89,315.92,315.91,0.0,0.0
1630878473.59991717,101428579,0.28,0.28,-17.89,-17.91,315.92,315.91,0.0,0.0
1630878473.69987702,101528539,0.26,0.28,-17.91,-17.92,315.93,315.91,0.0,0.0
1630878473.79983711,101628499,0.23,0.26,-17.93,-17.94,315.93,315.92,0.0,0.0
1630878473.89979696,101728459,0.23,0.23,-17.94,-17.95,315.93,315.92,0.0,0.0
1630878473.99975705,101828419,0.25,0.23,-17.92,-17.95,315.94,315.93,0.0,0.0
1630878474.09971714,101928379,0.28,0.24,-17.88,-17.92,315.94,315.93,0.0,0.0
1630878474.19967699,102028339,0.3,0.28,-17.89,-17.9,315.94,315.94,0.0,0.0
1630878474.29963708,102128299,0.31,0.31,-17.92,-17.9,315.94,315.94,0.0,0.0
1630878474.39959717,102228259,0.31,0.32,-17.96,-17.94,315.95,315.94,0.0,0.0
1630878474.49955702,102328219,0.29,0.32,-18.0,-17.99,315.95,315.95,0.0,0.0
1630878474.59951711,102428179,0.27,0.29,-18.03,-18.03,315.95,315.95,0.0,0.0
1630878474.70030999,102528972,0.24,0.26,-18.02,-18.06,315.95,315.95,0.0,0.0
1630878474.80027008,102628932,0.23,0.24,-18.0,-18.04,315.96,315.95,0.0,0.0
1630878474.90023017,102728892,0.24,0.23,-17.99,-18.01,315.96,315.95,0.0,0.0
1630878475.00019002,102828852,0.25,0.23,-17.99,-17.99,315.96,315.95,0.0,0.0
1630878475.10015011,102928812,0.29,0.26,-18.01,-18.0,315.96,315.95,0.0,0.0
1630878475.20011020,103028772,0.32,0.29,-18.05,-18.02,315.97,315.96,0.0,0.0
1630878475.30007005,103128732,0.34,0.32,-18.07,-18.06,315.97,315.96,0.0,0.0
1630878475.40003014,103228692,0.35,0.35,-18.08,-18.09,315.98,315.97,0.0,0.0
1630878475.49998999,103328652,0.35,0.36,-18.08,-18.09,315.98,315.97,0.0,0.0
1630878475.59995008,103428612,0.36,0.36,-18.07,-18.09,315.99,315.98,0.0,0.0
1630878475.69991016,103528572,0.38,0.37,-18.06,-18.07,315.99,315.98,0.0,0.0
1630878475.79987001,103628532,0.37,0.38,-18.06,-18.07,316.0,315.99,0.0,0.0
1630878475.89983010,103728492,0.34,0.36,-18.06,-18.07,316.0,315.99,0.0,0.0
1630878475.99979019,103828452,0.33,0.34,-18.05,-18.07,316.0,316.0,0.0,0.0
1630878476.09975004,103928412,0.34,0.33,-18.04,-18.06,316.0,316.0,0.0,0.0
1630878476.19971013,104028372,0.35,0.34,-18.05,-18.06,316.01,316.0,0.0,0.0
1630878476.29966998,104128332,0.35,0.35,-18.07,-18.07,316.01,316.01,0.0,0.0
1630878476.39963007,104228292,0.36,0.36,-18.08,-18.08,316.01,316.01,0.0,0.0
1630878476.49959016,104328252,0.37,0.36,-18.1,-18.1,316.01,316.01,0.0,0.0
1630878476.59955001,104428212,0.38,0.37,-18.1,-18.12,316.02,316.01,0.0,0.0
1630878476.69951010,104528172,0.38,0.37,-18.1,-18.12,316.02,316.01,0.0,0.0
1630878476.80030298,104628965,0.36,0.37,-18.08,-18.11,316.02,316.02,0.0,0.0
1630878476.90026307,104728925,0.35,0.36,-18.06,-18.08,316.02,316.02,0.0,0.0
1630878477.00022316,104828885,0.34,0.34,-18.07,-18.07,316.03,316.02,0.0,0.0
1630878477.10018301,104928845,0.34,0.33,-18.09,-18.07,316.03,316.02,0.0,0.0
1630878477.20014310,105028805,0.37,0.35,-18.11,-18.09,316.03,316.03,0.0,0.0
1630878477.30010319,105128765,0.42,0.38,-18.13,-18.12,316.03,316.03,0.0,0.0
1630878477.40006304,105228725,0.44,0.42,-18.14,-18.14,316.03,316.03,0.0,0.0
1630878477.50002313,105328685,0.44,0.44,-18.15,-18.16,316.03,316.03,0.0,0.0
1630878477.59998298,105428645,0.42,0.43,-18.17,-18.18,316.04,316.03,0.0,0.0
1630878477.69994307,105528605,0.4,0.42,-18.19,-18.2,316.04,316.04,0.0,0.0
1630878477.79990315,105628565,0.41,0.41,-18.2,-18.22,316.04,316.04,0.0,0.0
1630878477.89986300,105728525,0.44,0.42,-18.17,-18.21,316.04,316.04,0.0,0.0
1630878477.99982309,105828485,0.46,0.45,-18.14,-18.17,316.05,316.04,0.0,0.0
1630878478.09978318,105928445,0.46,0.47,-18.13,-18.15,316.05,316.05,0.0,0.0
1630878478.19974303,106028405,0.43,0.45,-18.14,-18.14,316.05,316.05,0.0,0.0
1630878478.29970312,106128365,0.43,0.42,-18.17,-18.16,316.05,316.05,0.0,0.0
1630878478.39966297,106228325,0.42,0.42,-18.22,-18.2,316.05,316.06,0.0,0.0
1630878478.49962306,106328285,0.42,0.41,-18.24,-18.24,316.05,316.06,0.0,0.0
1630878478.59958315,106428245,0.43,0.41,-18.24,-18.27,316.05,316.06,0.0,0.0
1630878478.69954300,106528205,0.43,0.41,-18.22,-18.27,316.05,316.06,0.0,0.0
1630878478.79950309,106628165,0.43,0.42,-18.19,-18.24,316.05,316.06,0.0,0.0
1630878478.90029597,106728958,0.43,0.43,-18.14,-18.19,316.05,316.06,0.0,0.0
1630878479.00025606,106828918,0.44,0.43,-18.11,-18.14,316.05,316.06,0.0,0.0
1630878479.10021615,106928878,0.43,0.43,-18.12,-18.12,316.05,316.05,0.0,0.0
1630878479.20017600,107028838,0.42,0.42,-18.17,-18.14,316.05,316.05,0.0,0.0
1630878479.30013609,107128798,0.4,0.41,-18.2,-18.18,316.04,316.05,0.0,0.0
1630878479.40009618,107228758,0.4,0.4,-18.22,-18.22,316.04,316.04,0.0,0.0
1630878479.50005603,107328718,0.39,0.39,-18.23,-18.24,316.04,316.04,0.0,0.0
1630878479.60001612,107428678,0.36,0.36,-18.22,-18.24,316.04,316.03,0.0,0.0
1630878479.69997597,107528638,0.37,0.36,-18.22,-18.24,316.03,316.03,0.0,0.0
1630878479.79993606,107628598,0.39,0.38,-18.2,-18.22,316.03,316.03,0.0,0.0
1630878479.89989614,107728558,0.39,0.38,-18.19,-18.2,316.03,316.03,0.0,0.0
1630878479.99985600,107828518,0.37,0.38,-18.19,-18.2,316.03,316.02,0.0,0.0
1630878480.09981608,107928478,0.36,0.36,-18.18,-18.19,316.03,316.02,0.0,0.0
1630878480.19977617,108028438,0.35,0.34,-18.2,-18.2,316.02,316.02,0.0,0.0
1630878480.29973602,108128398,0.37,0.35,-18.23,-18.22,316.02,316.02,0.0,0.0
1630878480.39969611,108228358,0.37,0.37,-18.24,-18.24,316.02,316.02,0.0,0.0
1630878480.49965620,108328318,0.36,0.37,-18.24,-18.26,316.02,316.02,0.0,0.0
1630878480.59961605,108428278,0.4,0.38,-18.25,-18.27,316.02,316.02,0.0,0.0
1630878480.69957614,108528238,0.43,0.41,-18.25,-18.27,316.02,316.02,0.0,0.0
1630878480.79953599,108628198,0.43,0.44,-18.23,-18.26,316.02,316.02,0.0,0.0
1630878480.89949608,108728158,0.42,0.44,-18.22,-18.24,316.02,316.02,0.0,0.0
1630878481.00028896,108828951,0.41,0.42,-18.18,-18.21,316.02,316.01,0.0,0.0
1630878481.10024905,108928911,0.39,0.4,-18.16,-18.17,316.02,316.01,0.0,0.0
1630878481.20020914,109028871,0.37,0.36,-18.15,-18.14,316.02,316.01,0.0,0.0
1630878481.30016899,109128831,0.39,0.36,-18.16,-18.14,316.02,316.01,0.0,0.0
1630878481.40012908,109228791,0.42,0.38,-18.17,-18.15,316.02,316.01,0.0,0.0
1630878481.50008917,109328751,0.45,0.41,-18.21,-18.18,316.02,316.01,0.0,0.0
1630878481.60004902,109428711,0.48,0.45,-18.25,-18.23,316.02,316.01,0.0,0.0
1630878481.70000911,109528671,0.5,0.49,-18.26,-18.26,316.02,316.02,0.0,0.0
1630878481.79996920,109628631,0.5,0.52,-18.22,-18.27,316.03,316.02,0.0,0.0
1630878481.89992905,109728591,0.48,0.51,-18.19,-18.23,316.03,316.02,0.0,0.0
1630878481.99988914,109828551,0.46,0.49,-18.18,-18.21,316.03,316.03,0.0,0.0
1630878482.09984899,109928511,0.46,0.47,-18.21,-18.2,316.03,316.03,0.0,0.0
1630878482.19980907,110028471,0.45,0.45,-18.24,-18.23,316.04,316.03,0.0,0.0
1630878482.29976916,110128431,0.46,0.45,-18.27,-18.27,316.04,316.03,0.0,0.0
1630878482.39972901,110228391,0.48,0.46,-18.31,-18.31,316.04,316.03,0.0,0.0
1630878482.49968910,110328351,0.47,0.47,-18.33,-18.34,316.04,316.04,0.0,0.0
1630878482.59964919,110428311,0.46,0.46,-18.31,-18.35,316.04,316.04,0.0,0.0
1630878482.69960904,110528271,0.45,0.45,-18.29,-18.33,316.04,316.04,0.0,0.0
1630878482.79956913,110628231,0.44,0.44,-18.28,-18.29,316.04,316.04,0.0,0.0
1630878482.89952898,110728191,0.43,0.42,-18.29,-18.29,316.04,316.04,0.0,0.0
1630878483.00032210,110828984,0.41,0.4,-18.29,-18.29,316.04,316.04,0.0,0.0
1630878483.10028219,110928944,0.4,0.39,-18.28,-18.29,316.04,316.04,0.0,0.0
1630878483.20024204,111028904,0.4,0.38,-18.25,-18.29,316.03,316.04,0.0,0.0
1630878483.30020213,111128864,0.4,0.39,-18.26,-18.28,316.03,316.04,0.0,0.0
1630878483.40016198,111228824,0.42,0.4,-18.26,-18.28,316.03,316.03,0.0,0.0
1630878483.50012207,111328784,0.44,0.42,-18.27,-18.28,316.03,316.03,0.0,0.0
1630878483.60008216,111428744,0.44,0.43,-18.26,-18.28,316.03,316.02,0.0,0.0
1630878483.70004201,111528704,0.42,0.43,-18.26,-18.27,316.03,316.02,0.0,0.0
1630878483.80000210,111628664,0.4,0.4,-18.25,-18.26,316.03,316.02,0.0,0.0
1630878483.89996219,111728624,0.41,0.39,-18.25,-18.25,316.03,316.02,0.0,0.0
1630878483.99992204,111828584,0.43,0.4,-18.24,-18.25,316.03,316.02,0.0,0.0
1630878484.09988213,111928544,0.44,0.43,-18.26,-18.24,316.03,316.02,0.0,0.0
1630878484.19984198,112028504,0.44,0.44,-18.28,-18.26,316.03,316.02,0.0,0.0
1630878484.29980206,112128464,0.44,0.45,-18.3,-18.28,316.03,316.02,0.0,0.0
1630878484.39976215,112228424,0.46,0.46,-18.3,-18.3,316.03,316.02,0.0,0.0
1630878484.49972200,112328384,0.47,0.47,-18.27,-18.3,316.03,316.03,0.0,0.0
1630878484.59968209,112428344,0.48,0.47,-18.26,-18.28,316.04,316.03,0.0,0.0
1630878484.69964218,112528304,0.48,0.48,-18.27,-18.28,316.04,316.04,0.0,0.0
1630878484.79960203,112628264,0.47,0.47,-18.28,-18.3,316.04,316.04,0.0,0.0
1630878484.89956212,112728224,0.44,0.44,-18.28,-18.3,316.04,316.04,0.0,0.0
1630878484.99952197,112828184,0.42,0.41,-18.27,-18.3,316.04,316.04,0.0,0.0
1630878485.10031509,112928977,0.43,0.4,-18.25,-18.3,316.04,316.05,0.0,0.0
1630878485.20027518,113028937,0.44,0.41,-18.24,-18.27,316.04,316.05,0.0,0.0
1630878485.30023503,113128897,0.46,0.43,-18.24,-18.25,316.04,316.04,0.0,0.0
1630878485.40019512,113228857,0.48,0.46,-18.24,-18.24,316.04,316.04,0.0,0.0
1630878485.50015497,113328817,0.48,0.48,-18.23,-18.24,316.04,316.04,0.0,0.0
1630878485.60011506,113428777,0.46,0.48,-18.24,-18.24,316.04,316.03,0.0,0.0
1630878485.70007515,113528737,0.43,0.45,-18.24,-18.25,316.04,316.03,0.0,0.0
1630878485.80003500,113628697,0.4,0.42,-18.24,-18.25,316.04,316.03,0.0,0.0
1630878485.89999509,113728657,0.39,0.39,-18.22,-18.24,316.04,316.03,0.0,0.0
1630878485.99995518,113828617,0.42,0.41,-18.21,-18.22,316.04,316.03,0.0,0.0
1630878486.09991503,113928577,0.46,0.45,-18.2,-18.21,316.03,316.03,0.0,0.0
1630878486.19987512,114028537,0.48,0.48,-18.2,-18.2,316.04,316.03,0.0,0.0
1630878486.29983497,114128497,0.47,0.49,-18.22,-18.2,316.04,316.03,0.0,0.0
1630878486.39979506,114228457,0.49,0.5,-18.26,-18.24,316.04,316.03,0.0,0.0
1630878486.49975514,114328417,0.5,0.51,-18.28,-18.27,316.04,316.04,0.0,0.0
1630878486.59971499,114428377,0.5,0.51,-18.3,-18.31,316.04,316.04,0.0,0.0
1630878486.69967508,114528337,0.52,0.52,-18.32,-18.34,316.05,316.04,0.0,0.0
1630878486.79963517,114628297,0.51,0.51,-18.33,-18.35,316.05,316.04,0.0,0.0
1630878486.89959502,114728257,0.5,0.5,-18.32,-18.35,316.05,316.05,0.0,0.0
1630878486.99955511,114828217,0.47,0.47,-18.3,-18.33,316.05,316.05,0.0,0.0
1630878487.09951520,114928177,0.45,0.45,-18.27,-18.31,316.05,316.06,0.0,0.0
1630878487.20030808,115028970,0.44,0.43,-18.25,-18.28,316.05,316.06,0.0,0.0
1630878487.30026817,115128930,0.45,0.43,-18.25,-18.25,316.05,316.06,0.0,0.0
1630878487.40022802,115228890,0.46,0.43,-18.26,-18.25,316.05,316.06,0.0,0.0
1630878487.50018811,115328850,0.49,0.45,-18.27,-18.25,316.05,316.06,0.0,0.0
1630878487.60014796,115428810,0.51,0.48,-18.28,-18.27,316.05,316.05,0.0,0.0
1630878487.70010805,115528770,0.52,0.51,-18.29,-18.29,316.05,316.05,0.0,0.0
1630878487.80006814,115628730,0.5,0.51,-18.3,-18.31,316.05,316.05,0.0,0.0
1630878487.90002799,115728690,0.48,0.49,-18.28,-18.31,316.05,316.04,0.0,0.0
1630878487.99998808,115828650,0.48,0.47,-18.26,-18.29,316.05,316.04,0.0,0.0
1630878488.09994817,115928610,0.51,0.49,-18.26,-18.27,316.05,316.04,0.0,0.0
1630878488.19990802,116028570,0.52,0.51,-18.27,-18.27,316.05,316.04,0.0,0.0
1630878488.29986811,116128530,0.5,0.51,-18.29,-18.28,316.05,316.04,0.0,0.0
1630878488.39982820,116228490,0.5,0.51,-18.31,-18.31,316.05,316.05,0.0,0.0
1630878488.49978805,116328450,0.5,0.51,-18.3,-18.32,316.05,316.05,0.0,0.0
1630878488.59974813,116428410,0.47,0.49,-18.28,-18.31,316.06,316.05,0.0,0.0
1630878488.69970798,116528370,0.46,0.46,-18.28,-18.3,316.06,316.05,0.0,0.0
1630878488.79966807,116628330,0.47,0.45,-18.28,-18.29,316.06,316.06,0.0,0.0
1630878488.89962816,116728290,0.49,0.45,-18.26,-18.28,316.06,316.06,0.0,0.0
1630878488.99958801,116828250,0.48,0.46,-18.25,-18.26,316.05,316.06,0.0,0.0
1630878489.09954810,116928210,0.49,0.47,-18.25,-18.25,316.05,316.06,0.0,0.0
1630878489.19950819,117028170,0.49,0.48,-18.26,-18.26,316.05,316.06,0.0,0.0
1630878489.30030107,117128963,0.51,0.49,-18.25,-18.26,316.05,316.06,0.0,0.0
1630878489.40026116,117228923,0.51,0.5,-18.26,-18.26,316.05,316.05,0.0,0.0
1630878489.50022101,117328883,0.52,0.5,-18.28,-18.28,316.05,316.05,0.0,0.0
1630878489.60018110,117428843,0.52,0.51,-18.31,-18.31,316.05,316.05,0.0,0.0
1630878489.70014119,117528803,0.51,0.52,-18.28,-18.31,316.05,316.04,0.0,0.0
1630878489.80010104,117628763,0.5,0.52,-18.26,-18.31,316.05,316.04,0.0,0.0
1630878489.90006113,117728723,0.49,0.51,-18.26,-18.29,316.05,316.04,0.0,0.0
1630878490.00002098,117828683,0.47,0.48,-18.26,-18.27,316.05,316.04,0.0,0.0
1630878490.09998107,117928643,0.46,0.46,-18.28,-18.28,316.05,316.04,0.0,0.0
1630878490.19994116,118028603,0.46,0.43,-18.29,-18.29,316.05,316.04,0.0,0.0
1630878490.29990101,118128563,0.45,0.43,-18.27,-18.29,316.04,316.04,0.0,0.0
1630878490.39986110,118228523,0.47,0.45,-18.26,-18.27,316.04,316.04,0.0,0.0
1630878490.49982119,118328483,0.5,0.48,-18.25,-18.26,316.04,316.04,0.0,0.0
1630878490.59978104,118428443,0.52,0.51,-18.25,-18.26,316.04,316.04,0.0,0.0
1630878490.69974113,118528403,0.5,0.52,-18.27,-18.27,316.04,316.04,0.0,0.0
1630878490.79970098,118628363,0.48,0.5,-18.29,-18.29,316.04,316.04,0.0,0.0
1630878490.89966106,118728323,0.47,0.48,-18.31,-18.31,316.04,316.04,0.0,0.0
1630878490.99962115,118828283,0.45,0.45,-18.3,-18.32,316.04,316.04,0.0,0.0
1630878491.09958100,118928243,0.45,0.44,-18.31,-18.31,316.04,316.04,0.0,0.0
1630878491.19954109,119028203,0.44,0.43,-18.32,-18.32,316.03,316.04,0.0,0.0
1630878491.29950118,119128163,0.4,0.41,-18.34,-18.32,316.03,316.03,0.0,0.0
1630878491.40029407,119228956,0.38,0.38,-18.34,-18.34,316.03,316.03,0.0,0.0
1630878491.50025415,119328916,0.39,0.37,-18.29,-18.32,316.03,316.03,0.0,0.0
1630878491.60021400,119428876,0.45,0.4,-18.25,-18.28,316.03,316.03,0.0,0.0
1630878491.70017409,119528836,0.5,0.47,-18.25,-18.26,316.03,316.02,0.0,0.0
1630878491.80013418,119628796,0.5,0.51,-18.26,-18.26,316.03,316.02,0.0,0.0
1630878491.90009403,119728756,0.49,0.51,-18.26,-18.27,316.03,316.02,0.0,0.0
1630878492.00005412,119828716,0.48,0.5,-18.22,-18.25,316.03,316.02,0.0,0.0
1630878492.10001397,119928676,0.49,0.49,-18.2,-18.22,316.03,316.02,0.0,0.0
1630878492.19997406,120028636,0.5,0.5,-18.21,-18.22,316.03,316.02,0.0,0.0
1630878492.29993415,120128596,0.5,0.5,-18.24,-18.24,316.03,316.02,0.0,0.0
1630878492.39989400,120228556,0.48,0.48,-18.28,-18.27,316.03,316.02,0.0,0.0
1630878492.49985409,120328516,0.47,0.46,-18.3,-18.3,316.03,316.02,0.0,0.0
1630878492.59981418,120428476,0.49,0.46,-18.28,-18.31,316.03,316.03,0.0,0.0
1630878492.69977403,120528436,0.52,0.48,-18.25,-18.29,316.03,316.03,0.0,0.0
1630878492.79973412,120628396,0.55,0.52,-18.24,-18.27,316.03,316.03,0.0,0.0
1630878492.89969397,120728356,0.54,0.53,-18.25,-18.26,316.03,316.03,0.0,0.0
1630878492.99965405,120828316,0.51,0.51,-18.26,-18.27,316.04,316.03,0.0,0.0
1630878493.09961414,120928276,0.5,0.49,-18.26,-18.27,316.04,316.03,0.0,0.0
1630878493.19957399,121028236,0.52,0.49,-18.27,-18.27,316.04,316.03,0.0,0.0
1630878493.29953408,121128196,0.52,0.51,-18.27,-18.28,316.04,316.03,0.0,0.0
1630878493.39949417,121228156,0.49,0.5,-18.26,-18.27,316.04,316.03,0.0,0.0
1630878493.50028706,121328949,0.46,0.47,-18.24,-18.25,316.04,316.03,0.0,0.0
1630878493.60024714,121428909,0.45,0.45,-18.24,-18.24,316.04,316.04,0.0,0.0
1630878493.70020700,121528869,0.46,0.45,-18.24,-18.24,316.04,316.04,0.0,0.0
1630878493.80016708,121628829,0.49,0.46,-18.24,-18.24,316.04,316.04,0.0,0.0
1630878493.90012717,121728789,0.52,0.5,-18.25,-18.25,316.04,316.04,0.0,0.0
1630878494.00008702,121828749,0.54,0.53,-18.26,-18.26,316.04,316.04,0.0,0.0
1630878494.10004711,121928709,0.52,0.54,-18.27,-18.28,316.05,316.04,0.0,0.0
1630878494.20000720,122028669,0.52,0.54,-18.3,-18.31,316.05,316.04,0.0,0.0
1630878494.29996705,122128629,0.49,0.52,-18.31,-18.32,316.05,316.04,0.0,0.0
1630878494.39992714,122228589,0.46,0.47,-18.32,-18.34,316.05,316.04,0.0,0.0
1630878494.49988699,122328549,0.46,0.45,-18.32,-18.35,316.05,316.04,0.0,0.0
1630878494.59984708,122428509,0.49,0.46,-18.28,-18.33,316.05,316.04,0.0,0.0
1630878494.69980717,122528469,0.51,0.48,-18.24,-18.27,316.05,316.05,0.0,0.0
1630878494.79976702,122628429,0.53,0.51,-18.22,-18.24,316.05,316.05,0.0,0.0
1630878494.89972711,122728389,0.52,0.51,-18.25,-18.24,316.05,316.05,0.0,0.0
1630878494.99968719,122828349,0.52,0.51,-18.3,-18.28,316.05,316.06,0.0,0.0
1630878495.09964705,122928309,0.49,0.5,-18.33,-18.33,316.05,316.06,0.0,0.0
1630878495.19960713,123028269,0.43,0.45,-18.33,-18.35,316.05,316.06,0.0,0.0
1630878495.29956698,123128229,0.42,0.42,-18.3,-18.34,316.05,316.06,0.0,0.0
1630878495.39952707,123228189,0.44,0.41,-18.27,-18.31,316.05,316.05,0.0,0.0
1630878495.50032020,123328982,0.46,0.43,-18.27,-18.28,316.04,316.05,0.0,0.0
1630878495.60028005,123428942,0.5,0.46,-18.3,-18.28,316.04,316.04,0.0,0.0
1630878495.70024014,123528902,0.56,0.51,-18.32,-18.3,316.04,316.04,0.0,0.0
1630878495.80019999,123628862,0.61,0.58,-18.33,-18.33,316.04,316.04,0.0,0.0
1630878495.90016007,123728822,0.59,0.61,-18.31,-18.33,316.05,316.03,0.0,0.0
1630878496.00012016,123828782,0.53,0.58,-18.28,-18.31,316.05,316.03,0.0,0.0
1630878496.10008001,123928742,0.49,0.52,-18.26,-18.28,316.05,316.04,0.0,0.0
1630878496.20004010,124028702,0.47,0.47,-18.27,-18.27,316.05,316.04,0.0,0.0
1630878496.30000019,124128662,0.48,0.45,-18.27,-18.27,316.05,316.04,0.0,0.0
1630878496.39996004,124228622,0.5,0.46,-18.28,-18.27,316.05,316.05,0.0,0.0
