timestamp,TimeUS,DesRoll,Roll,DesPitch,Pitch,DesYaw,Yaw,ErrRP,ErrYaw
1630881173.30004001,40328862,0.0,0.08,0.0,0.06,352.89,352.9,0.0,0.0
1630881173.40000010,40428822,0.0,0.08,0.0,0.06,352.89,352.9,0.0,0.0
1630881173.49995995,40528782,0.0,0.08,0.0,0.07,352.89,352.9,0.0,0.0
1630881173.59992003,40628742,0.0,0.09,0.0,0.07,352.89,352.9,0.0,0.0
1630881173.69988012,40728702,0.0,0.09,0.0,0.07,352.89,352.9,0.0,0.0
1630881173.79983997,40828662,0.0,0.09,0.0,0.07,352.89,352.9,0.0,0.0
1630881173.89980006,40928622,0.0,0.09,0.0,0.07,352.89,352.9,0.0,0.0
1630881173.99976015,41028582,0.0,0.09,0.0,0.07,352.89,352.9,0.0,0.0
1630881174.09972000,41128542,0.0,0.09,0.0,0.08,352.89,352.9,0.0,0.0
1630881174.19968009,41228502,0.0,0.09,0.0,0.08,352.89,352.9,0.0,0.0
1630881174.29963994,41328462,0.0,0.1,0.0,0.08,352.89,352.9,0.0,0.0
1630881174.39960003,41428422,0.0,0.1,0.0,0.08,352.89,352.9,0.0,0.0
1630881174.49956012,41528382,0.0,0.1,0.0,0.08,352.89,352.9,0.0,0.0
1630881174.59951997,41628342,0.0,0.1,0.0,0.08,352.89,352.9,0.0,0.0
1630881174.69948006,41728302,0.0,0.1,0.0,0.08,352.88,352.89,0.0,0.0
1630881174.79944015,41828262,0.0,0.1,0.0,0.08,352.88,352.89,0.0,0.0
1630881174.89940000,41928222,0.0,0.1,0.0,0.08,352.88,352.89,0.0,0.0
1630881174.99936008,42028182,0.0,0.1,0.0,0.08,352.88,352.89,0.0,0.0
1630881175.10015297,42128975,0.0,0.1,0.0,0.08,352.88,352.89,0.0,0.0
1630881175.20011306,42228935,0.0,0.1,0.0,0.08,352.88,352.89,0.0,0.0
1630881175.30007315,42328895,0.0,0.1,0.0,0.09,352.88,352.89,0.0,0.0
1630881175.40003300,42428855,0.0,0.1,0.0,0.09,352.88,352.89,0.0,0.0
1630881175.49999309,42528815,0.0,0.1,0.0,0.09,352.88,352.89,0.0,0.0
1630881175.59995294,42628775,0.0,0.1,0.0,0.08,352.88,352.89,0.0,0.0
1630881175.69991302,42728735,0.0,0.1,0.0,0.09,352.88,352.89,0.0,0.0
1630881175.79987311,42828695,0.0,0.1,0.0,0.08,352.88,352.89,0.0,0.0
1630881175.89983296,42928655,0.0,0.1,0.0,0.08,352.88,352.89,0.0,0.0
1630881175.99979305,43028615,0.0,0.1,0.0,0.08,352.87,352.88,0.0,0.0
1630881176.09975314,43128575,0.0,0.1,0.0,0.08,352.87,352.88,0.0,0.0
1630881176.19971299,43228535,0.0,0.1,0.0,0.08,352.87,352.88,0.0,0.0
1630881176.29967308,43328495,-0.08,0.1,-0.08,0.08,352.87,352.88,0.0,0.0
1630881176.39963317,43428455,-0.07,0.1,-0.07,0.08,352.87,352.88,0.0,0.0
1630881176.49959302,43528415,-0.1,0.1,-0.1,0.08,352.87,352.88,0.0,0.0
1630881176.59955311,43628375,-0.17,0.1,-0.17,0.08,352.87,352.88,0.0,0.0
1630881176.69951296,43728335,-0.23,0.1,-0.23,0.08,352.87,352.88,0.0,0.0
1630881176.79947305,43828295,-0.27,0.1,-0.28,0.08,352.87,352.88,0.0,0.0
1630881176.89943314,43928255,-0.3,0.1,-0.31,0.08,352.87,352.88,0.0,0.0
1630881176.99939299,44028215,-0.33,0.1,-0.32,0.08,352.87,352.88,0.0,0.0
1630881177.09935308,44128175,-0.36,0.1,-0.32,0.08,352.87,352.88,0.0,0.0
1630881177.20014596,44228968,-0.38,0.1,-0.34,0.08,352.87,352.88,0.0,0.0
1630881177.30010605,44328928,-0.39,0.09,-0.36,0.08,352.87,352.88,0.0,0.0
1630881177.40006614,44428888,-0.41,0.09,-0.39,0.07,352.87,352.88,0.0,0.0
1630881177.50002599,44528848,-0.42,0.09,-0.39,0.07,352.87,352.88,0.0,0.0
1630881177.59998608,44628808,-0.46,0.09,-0.39,0.07,352.87,352.88,0.0,0.0
1630881177.69994617,44728768,-0.49,0.09,-0.42,0.07,352.87,352.88,0.0,0.0
1630881177.79990602,44828728,-0.51,0.09,-0.46,0.07,352.87,352.88,0.0,0.0
1630881177.89986610,44928688,-0.52,-0.04,-0.48,-0.05,352.87,352.88,0.0,0.0
1630881177.99982595,45028648,-0.5,-0.37,-0.49,-0.36,352.87,352.88,0.0,0.0
1630881178.09978604,45128608,-0.42,-0.65,-0.46,-0.65,352.87,352.88,0.0,0.0
1630881178.19974613,45228568,-0.28,-0.77,-0.34,-0.78,352.87,352.89,0.0,0.0
1630881178.29970598,45328528,-0.06,-0.69,-0.11,-0.7,352.87,352.89,0.0,0.0
1630881178.39966607,45428488,0.19,-0.45,0.14,-0.47,352.87,352.88,0.0,0.0
1630881178.49962616,45528448,0.4,-0.16,0.38,-0.15,352.87,352.88,0.0,0.0
1630881178.59958601,45628408,0.53,0.09,0.53,0.12,352.87,352.88,0.0,0.0
1630881178.69954610,45728368,0.56,0.26,0.55,0.29,352.87,352.88,0.0,0.0
1630881178.79950595,45828328,0.54,0.32,0.51,0.34,352.87,352.88,0.0,0.0
1630881178.89946604,45928288,0.5,0.3,0.42,0.28,352.87,352.88,0.0,0.0
1630881178.99942613,46028248,0.44,0.24,0.34,0.17,352.87,352.87,0.0,0.0
1630881179.09938598,46128208,0.44,0.19,0.33,0.11,352.87,352.87,0.0,0.0
1630881179.19934607,46228168,0.45,0.19,0.37,0.11,352.87,352.87,0.0,0.0
1630881179.30013895,46328961,0.44,0.2,0.39,0.15,352.87,352.88,0.0,0.0
1630881179.40009904,46428921,0.44,0.21,0.38,0.19,352.87,352.88,0.0,0.0
1630881179.50005913,46528881,0.45,0.24,0.38,0.22,352.87,352.88,0.0,0.0
1630881179.60001898,46628841,0.48,0.28,0.35,0.23,352.79,352.8,0.0,0.0
1630881179.69997907,46728801,0.5,0.33,0.32,0.23,352.79,352.8,0.0,0.0
1630881179.79993916,46828761,0.45,0.34,0.29,0.22,352.79,352.81,0.0,0.0
1630881179.89989901,46928721,0.39,0.3,0.27,0.19,352.79,352.81,0.0,0.0
1630881179.99985909,47028681,0.37,0.27,0.28,0.18,352.79,352.81,0.0,0.0
1630881180.09981894,47128641,0.34,0.25,0.27,0.18,352.79,352.81,0.0,0.0
1630881180.19977903,47228601,0.32,0.23,0.26,0.17,352.79,352.81,0.0,0.0
1630881180.29973912,47328561,0.31,0.23,0.27,0.17,352.79,352.8,0.0,0.0
1630881180.39969897,47428521,0.33,0.24,0.24,0.17,352.79,352.8,0.0,0.0
1630881180.49965906,47528481,0.35,0.28,0.19,0.14,352.79,352.8,0.0,0.0
1630881180.59961915,47628441,0.31,0.29,0.18,0.11,352.79,352.8,0.0,0.0
1630881180.69957900,47728401,0.25,0.25,0.17,0.1,352.79,352.8,0.0,0.0
1630881180.79953909,47828361,0.17,0.16,0.17,0.11,352.79,352.8,0.0,0.0
1630881180.89949894,47928321,0.16,0.11,0.13,0.1,352.79,352.8,0.0,0.0
1630881180.99945903,48028281,0.16,0.09,0.09,0.06,352.79,352.8,0.0,0.0
1630881181.09941912,48128241,0.15,0.09,0.06,0.03,352.79,352.8,0.0,0.0
1630881181.19937897,48228201,0.13,0.09,0.06,0.01,352.79,352.8,0.0,0.0
1630881181.29933906,48328161,0.09,0.07,0.06,0.0,352.79,352.8,0.0,0.0
1630881181.40013194,48428954,0.05,0.04,0.07,0.01,352.79,352.81,0.0,0.0
1630881181.50009203,48528914,0.02,0.0,0.08,0.03,352.79,352.81,0.0,0.0
1630881181.60005212,48628874,0.0,-0.02,0.07,0.04,352.79,352.81,0.0,0.0
1630881181.70001197,48728834,-0.01,-0.05,0.05,0.04,352.79,352.81,0.0,0.0
1630881181.79997206,48828794,0.0,-0.06,0.01,0.03,352.79,352.81,0.0,0.0
1630881181.89993215,48928754,0.02,-0.04,-0.03,-0.01,352.79,352.81,0.0,0.0
1630881181.99989200,49028714,0.07,0.0,-0.05,-0.05,352.79,352.81,0.0,0.0
1630881182.09985209,49128674,0.11,0.06,-0.05,-0.08,352.79,352.81,0.0,0.0
1630881182.19981217,49228634,0.13,0.11,-0.03,-0.08,352.79,352.81,0.0,0.0
1630881182.29977202,49328594,0.12,0.13,-0.01,-0.06,352.79,352.81,0.0,0.0
1630881182.39973211,49428554,0.09,0.12,-0.02,-0.03,352.79,352.81,0.0,0.0
1630881182.49969196,49528514,0.06,0.09,-0.04,-0.02,352.79,352.81,0.0,0.0
1630881182.59965205,49628474,0.05,0.05,-0.06,-0.05,352.79,352.81,0.0,0.0
1630881182.69961214,49728434,0.03,0.03,-0.05,-0.07,352.79,352.81,0.0,0.0
1630881182.79957199,49828394,0.01,0.01,0.01,-0.04,352.79,352.81,0.0,0.0
1630881182.89953208,49928354,0.02,0.0,0.09,0.03,352.79,352.8,0.0,0.0
1630881182.99949217,50028314,0.04,0.0,0.12,0.1,352.79,352.8,0.0,0.0
1630881183.09945202,50128274,0.07,0.04,0.1,0.11,352.79,352.8,0.0,0.0
1630881183.19941211,50228234,0.09,0.07,0.06,0.09,352.79,352.8,0.0,0.0
1630881183.29937196,50328194,0.1,0.1,0.01,0.05,352.79,352.8,0.0,0.0
1630881183.39933205,50428154,0.1,0.11,-0.03,-0.01,352.79,352.8,0.0,0.0
1630881183.50012517,50528947,0.11,0.11,-0.06,-0.06,352.79,352.8,0.0,0.0
1630881183.60008502,50628907,0.09,0.1,-0.04,-0.09,352.79,352.8,0.0,0.0
1630881183.70004511,50728867,0.09,0.09,0.01,-0.06,352.79,352.8,0.0,0.0
1630881183.80000496,50828827,0.09,0.07,0.09,0.02,352.79,352.8,0.0,0.0
1630881183.89996505,50928787,0.13,0.09,0.16,0.13,352.79,352.81,0.0,0.0
1630881183.99992514,51028747,0.17,0.13,0.17,0.19,352.79,352.81,0.0,0.0
1630881184.09988499,51128707,0.17,0.16,0.13,0.19,352.79,352.81,0.0,0.0
1630881184.19984508,51228667,0.19,0.18,0.08,0.14,352.79,352.81,0.0,0.0
1630881184.29980516,51328627,0.23,0.22,0.06,0.09,352.79,352.81,0.0,0.0
1630881184.39976501,51428587,0.21,0.24,0.07,0.05,352.79,352.81,0.0,0.0
1630881184.49972510,51528547,0.15,0.21,0.12,0.07,352.79,352.8,0.0,0.0
1630881184.59968495,51628507,0.11,0.15,0.14,0.11,352.79,352.8,0.0,0.0
1630881184.69964504,51728467,0.06,0.08,0.14,0.14,352.79,352.8,0.0,0.0
1630881184.79960513,51828427,0.04,0.02,0.14,0.15,352.79,352.8,0.0,0.0
1630881184.89956498,51928387,0.04,0.01,0.15,0.15,352.79,352.8,0.0,0.0
1630881184.99952507,52028347,0.03,0.01,0.16,0.16,352.79,352.81,0.0,0.0
1630881185.09948516,52128307,0.04,0.02,0.14,0.15,352.79,352.81,0.0,0.0
1630881185.19944501,52228267,0.02,0.02,0.11,0.13,352.79,352.81,0.0,0.0
1630881185.29940510,52328227,0.04,0.03,0.09,0.1,352.79,352.81,0.0,0.0
1630881185.39936495,52428187,0.06,0.05,0.09,0.09,352.79,352.81,0.0,0.0
1630881185.50015807,52528980,0.08,0.07,0.08,0.08,352.79,352.81,0.0,0.0
1630881185.60011816,52628940,0.07,0.07,0.06,0.06,352.79,352.81,0.0,0.0
1630881185.70007801,52728900,0.05,0.07,0.07,0.04,352.79,352.8,0.0,0.0
1630881185.80003810,52828860,0.07,0.07,0.09,0.06,352.79,352.8,0.0,0.0
1630881185.89999795,52928820,0.07,0.06,0.15,0.11,352.79,352.81,0.0,0.0
1630881185.99995804,53028780,0.05,0.04,0.18,0.16,352.79,352.81,0.0,0.0
1630881186.09991813,53128740,0.07,0.05,0.15,0.17,352.79,352.81,0.0,0.0
1630881186.19987798,53228700,0.06,0.05,0.12,0.15,352.79,352.8,0.0,0.0
1630881186.29983807,53328660,0.05,0.05,0.09,0.12,352.79,352.8,0.0,0.0
1630881186.39979815,53428620,0.05,0.05,0.07,0.06,352.79,352.8,0.0,0.0
1630881186.49975801,53528580,0.06,0.06,0.09,0.05,352.79,352.8,0.0,0.0
1630881186.59971809,53628540,0.06,0.06,0.13,0.09,352.79,352.81,0.0,0.0
1630881186.69967794,53728500,0.09,0.06,0.15,0.13,352.79,352.81,0.0,0.0
1630881186.79963803,53828460,0.12,0.09,0.18,0.17,352.79,352.81,0.0,0.0
1630881186.89959812,53928420,0.14,0.12,0.16,0.18,352.79,352.81,0.0,0.0
1630881186.99955797,54028380,0.14,0.14,0.12,0.15,352.79,352.81,0.0,0.0
1630881187.09951806,54128340,0.1,0.13,0.07,0.1,352.79,352.81,0.0,0.0
1630881187.19947815,54228300,0.05,0.07,0.01,0.04,352.79,352.81,0.0,0.0
1630881187.29943800,54328260,0.02,0.02,-0.01,-0.01,352.79,352.81,0.0,0.0
1630881187.39939809,54428220,0.02,0.0,0.0,-0.03,352.79,352.81,0.0,0.0
1630881187.49935794,54528180,0.05,0.0,0.03,-0.01,352.79,352.81,0.0,0.0
1630881187.60015106,54628973,0.06,0.03,0.05,0.01,352.79,352.81,0.0,0.0
1630881187.70011115,54728933,0.08,0.06,0.02,0.02,352.79,352.81,0.0,0.0
1630881187.80007100,54828893,0.11,0.1,0.0,0.0,352.79,352.81,0.0,0.0
1630881187.90003109,54928853,0.11,0.13,0.0,-0.01,352.79,352.81,0.0,0.0
1630881187.99999094,55028813,0.09,0.12,0.0,-0.01,352.79,352.8,0.0,0.0
1630881188.09995103,55128773,0.03,0.08,0.0,-0.01,352.79,352.8,0.0,0.0
1630881188.19991112,55228733,0.0,0.02,-0.01,-0.01,352.79,352.8,0.0,0.0
1630881188.29987097,55328693,0.0,0.0,0.01,0.0,352.79,352.8,0.0,0.0
1630881188.39983106,55428653,0.01,0.0,0.08,0.05,352.79,352.8,0.0,0.0
1630881188.49979115,55528613,0.05,0.01,0.08,0.09,352.79,352.8,0.0,0.0
1630881188.59975100,55628573,0.08,0.06,0.07,0.08,352.79,352.8,0.0,0.0
1630881188.69971108,55728533,0.07,0.07,0.05,0.07,352.79,352.8,0.0,0.0
1630881188.79967117,55828493,0.05,0.06,0.04,0.05,352.79,352.8,0.0,0.0
1630881188.89963102,55928453,0.05,0.05,0.05,0.04,352.79,352.8,0.0,0.0
1630881188.99959111,56028413,0.07,0.06,0.05,0.04,352.79,352.8,0.0,0.0
1630881189.09955096,56128373,0.07,0.07,0.05,0.05,352.79,352.8,0.0,0.0
1630881189.19951105,56228333,0.08,0.07,0.03,0.04,352.79,352.8,0.0,0.0
1630881189.29947114,56328293,0.07,0.06,0.02,0.03,352.79,352.81,0.0,0.0
1630881189.39943099,56428253,0.06,0.05,0.04,0.03,352.79,352.81,0.0,0.0
1630881189.49939108,56528213,0.07,0.04,0.04,0.04,352.79,352.81,0.0,0.0
1630881189.59935117,56628173,0.09,0.06,0.04,0.04,352.79,352.8,0.0,0.0
1630881189.70014405,56728966,0.11,0.08,0.03,0.04,352.79,352.8,0.0,0.0
1630881189.80010414,56828926,0.12,0.1,0.02,0.03,352.79,352.8,0.0,0.0
1630881189.90006399,56928886,0.1,0.11,0.03,0.04,352.79,352.8,0.0,0.0
1630881190.00002408,57028846,0.09,0.1,0.05,0.04,352.79,352.8,0.0,0.0
1630881190.09998417,57128806,0.07,0.09,0.07,0.05,352.79,352.8,0.0,0.0
1630881190.19994402,57228766,0.06,0.07,0.08,0.06,352.79,352.8,0.0,0.0
1630881190.29990411,57328726,0.06,0.05,0.11,0.08,352.79,352.8,0.0,0.0
1630881190.39986396,57428686,0.06,0.05,0.14,0.11,352.79,352.8,0.0,0.0
1630881190.49982405,57528646,0.04,0.03,0.15,0.14,352.79,352.8,0.0,0.0
1630881190.59978414,57628606,0.04,0.02,0.14,0.16,352.79,352.8,0.0,0.0
1630881190.69974399,57728566,0.08,0.04,0.15,0.16,352.79,352.8,0.0,0.0
1630881190.79970407,57828526,0.1,0.08,0.16,0.16,352.79,352.8,0.0,0.0
1630881190.89966416,57928486,0.1,0.11,0.16,0.16,352.79,352.79,0.0,0.0
1630881190.99962401,58028446,0.09,0.11,0.14,0.15,352.79,352.8,0.0,0.0
1630881191.09958410,58128406,0.05,0.08,0.12,0.12,352.79,352.8,0.0,0.0
1630881191.19954395,58228366,0.03,0.04,0.1,0.1,352.79,352.8,0.0,0.0
1630881191.29950404,58328326,0.0,0.0,0.11,0.09,352.79,352.8,0.0,0.0
1630881191.39946413,58428286,0.02,0.0,0.11,0.09,352.79,352.8,0.0,0.0
1630881191.49942398,58528246,0.03,0.01,0.12,0.11,352.79,352.8,0.0,0.0
1630881191.59938407,58628206,0.04,0.02,0.12,0.11,352.79,352.8,0.0,0.0
1630881191.69934416,58728166,0.06,0.04,0.14,0.12,352.79,352.8,0.0,0.0
1630881191.80013704,58828959,0.05,0.06,0.14,0.13,352.79,352.8,0.0,0.0
1630881191.90009713,58928919,0.06,0.07,0.11,0.12,352.79,352.8,0.0,0.0
1630881192.00005698,59028879,0.08,0.07,0.07,0.09,352.79,352.8,0.0,0.0
1630881192.10001707,59128839,0.1,0.08,0.04,0.06,352.79,352.8,0.0,0.0
1630881192.19997716,59228799,0.11,0.09,0.03,0.03,352.79,352.8,0.0,0.0
1630881192.29993701,59328759,0.14,0.12,0.06,0.03,352.79,352.8,0.0,0.0
1630881192.39989710,59428719,0.15,0.14,0.08,0.06,352.79,352.8,0.0,0.0
1630881192.49985695,59528679,0.14,0.14,0.08,0.07,352.79,352.8,0.0,0.0
1630881192.59981704,59628639,0.13,0.14,0.08,0.06,352.79,352.8,0.0,0.0
1630881192.69977713,59728599,0.09,0.11,0.06,0.05,352.79,352.8,0.0,0.0
1630881192.79973698,59828559,0.07,0.07,0.06,0.04,352.79,352.8,0.0,0.0
1630881192.89969707,59928519,0.08,0.06,0.04,0.04,352.79,352.8,0.0,0.0
1630881192.99965715,60028479,0.11,0.08,0.02,0.04,352.79,352.8,0.0,0.0
1630881193.09961700,60128439,0.11,0.09,0.0,0.01,352.79,352.8,0.0,0.0
1630881193.19957709,60228399,0.11,0.09,0.01,0.0,352.79,352.8,0.0,0.0
1630881193.29953694,60328359,0.11,0.09,0.03,0.0,352.79,352.81,0.0,0.0
1630881193.39949703,60428319,0.11,0.1,0.06,0.03,352.79,352.81,0.0,0.0
1630881193.49945712,60528279,0.1,0.11,0.06,0.06,352.79,352.81,0.0,0.0
1630881193.59941697,60628239,0.1,0.11,0.05,0.06,352.79,352.81,0.0,0.0
1630881193.69937706,60728199,0.11,0.11,0.02,0.04,352.79,352.81,0.0,0.0
1630881193.79933715,60828159,0.14,0.13,0.03,0.03,352.79,352.8,0.0,0.0
1630881193.90013003,60928952,0.13,0.14,0.0,0.02,352.79,352.8,0.0,0.0
1630881194.00009012,61028912,0.1,0.13,0.0,0.0,352.79,352.8,0.0,0.0
1630881194.10004997,61128872,0.08,0.1,0.0,0.0,352.79,352.8,0.0,0.0
1630881194.20001006,61228832,0.09,0.07,0.02,0.0,352.79,352.8,0.0,0.0
1630881194.29997015,61328792,0.12,0.08,0.03,0.01,352.79,352.79,0.0,0.0
1630881194.39993000,61428752,0.14,0.12,0.05,0.03,352.79,352.79,0.0,0.0
1630881194.49989009,61528712,0.14,0.13,0.06,0.04,352.79,352.79,0.0,0.0
1630881194.59984994,61628672,0.13,0.13,0.07,0.05,352.79,352.8,0.0,0.0
1630881194.69981003,61728632,0.15,0.14,0.1,0.07,352.79,352.8,0.0,0.0
1630881194.79977012,61828592,0.14,0.14,0.14,0.11,352.79,352.8,0.0,0.0
1630881194.89972997,61928552,0.15,0.14,0.13,0.14,352.79,352.8,0.0,0.0
1630881194.99969006,62028512,0.15,0.15,0.08,0.11,352.79,352.8,0.0,0.0
1630881195.09965014,62128472,0.11,0.14,0.05,0.07,352.79,352.8,0.0,0.0
1630881195.19960999,62228432,0.11,0.11,0.07,0.06,352.79,352.8,0.0,0.0
1630881195.29957008,62328392,0.13,0.11,0.09,0.07,352.79,352.8,0.0,0.0
1630881195.39953017,62428352,0.15,0.13,0.11,0.09,352.79,352.8,0.0,0.0
1630881195.49949002,62528312,0.15,0.14,0.13,0.11,352.79,352.8,0.0,0.0
1630881195.59945011,62628272,0.12,0.14,0.11,0.13,352.79,352.8,0.0,0.0
1630881195.69940996,62728232,0.08,0.1,0.09,0.11,352.79,352.8,0.0,0.0
1630881195.79937005,62828192,0.07,0.07,0.08,0.08,352.79,352.8,0.0,0.0
1630881195.90016317,62928985,0.07,0.06,0.08,0.07,352.79,352.8,0.0,0.0
1630881196.00012302,63028945,0.07,0.06,0.09,0.07,352.79,352.8,0.0,0.0
1630881196.10008311,63128905,0.06,0.07,0.11,0.08,352.79,352.8,0.0,0.0
1630881196.20004296,63228865,0.05,0.07,0.12,0.1,352.79,352.81,0.0,0.0
1630881196.30000305,63328825,0.02,0.04,0.16,0.14,352.79,352.81,0.0,0.0
1630881196.39996314,63428785,0.03,0.02,0.21,0.19,352.79,352.8,0.0,0.0
1630881196.49992299,63528745,0.05,0.03,0.2,0.22,352.79,352.8,0.0,0.0
1630881196.59988308,63628705,0.06,0.03,0.19,0.22,352.79,352.8,0.0,0.0
1630881196.69984317,63728665,0.09,0.06,0.18,0.19,352.79,352.8,0.0,0.0
1630881196.79980302,63828625,0.1,0.08,0.16,0.17,352.79,352.81,0.0,0.0
1630881196.89976311,63928585,0.11,0.1,0.14,0.15,352.79,352.8,0.0,0.0
1630881196.99972296,64028545,0.1,0.1,0.13,0.12,352.79,352.8,0.0,0.0
1630881197.09968305,64128505,0.09,0.09,0.14,0.12,352.79,352.8,0.0,0.0
1630881197.19964314,64228465,0.08,0.08,0.14,0.12,352.79,352.8,0.0,0.0
1630881197.29960299,64328425,0.08,0.07,0.11,0.1,352.79,352.8,0.0,0.0
1630881197.39956307,64428385,0.09,0.07,0.09,0.08,352.79,352.8,0.0,0.0
1630881197.49952316,64528345,0.09,0.07,0.08,0.07,352.79,352.8,0.0,0.0
1630881197.59948301,64628305,0.11,0.09,0.08,0.06,352.79,352.8,0.0,0.0
1630881197.69944310,64728265,0.14,0.12,0.09,0.07,352.79,352.8,0.0,0.0
1630881197.79940295,64828225,0.13,0.13,0.08,0.07,352.79,352.8,0.0,0.0
1630881197.89936304,64928185,0.15,0.13,0.07,0.06,352.79,352.8,0.0,0.0
1630881198.00015616,65028978,0.15,0.13,0.08,0.07,352.79,352.8,0.0,0.0
1630881198.10011601,65128938,0.15,0.13,0.09,0.09,352.79,352.8,0.0,0.0
1630881198.20007610,65228898,0.18,0.15,0.09,0.09,352.79,352.8,0.0,0.0
1630881198.30003595,65328858,0.15,0.16,0.1,0.1,352.79,352.8,0.0,0.0
1630881198.39999604,65428818,0.1,0.13,0.12,0.11,352.79,352.8,0.0,0.0
1630881198.49995613,65528778,0.06,0.08,0.15,0.13,352.79,352.8,0.0,0.0
1630881198.59991598,65628738,0.05,0.04,0.15,0.15,352.79,352.8,0.0,0.0
1630881198.69987607,65728698,0.06,0.04,0.11,0.13,352.79,352.8,0.0,0.0
1630881198.79983616,65828658,0.06,0.04,0.09,0.1,352.79,352.8,0.0,0.0
1630881198.89979601,65928618,0.06,0.04,0.08,0.08,352.79,352.8,0.0,0.0
1630881198.99975610,66028578,0.06,0.04,0.05,0.05,352.79,352.8,0.0,0.0
1630881199.09971595,66128538,0.06,0.04,0.02,0.02,352.79,352.8,0.0,0.0
1630881199.19967604,66228498,0.04,0.03,0.02,0.0,352.79,352.8,0.0,0.0
1630881199.29963613,66328458,0.04,0.02,0.04,0.01,352.79,352.8,0.0,0.0
1630881199.39959598,66428418,0.06,0.02,0.07,0.03,352.79,352.8,0.0,0.0
1630881199.49955606,66528378,0.07,0.04,0.09,0.05,352.79,352.8,0.0,0.0
1630881199.59951615,66628338,0.07,0.05,0.1,0.08,352.79,352.79,0.0,0.0
1630881199.69947600,66728298,0.07,0.06,0.1,0.1,352.79,352.79,0.0,0.0
1630881199.79943609,66828258,0.08,0.07,0.11,0.1,352.79,352.79,0.0,0.0
1630881199.89939594,66928218,0.09,0.09,0.07,0.09,352.79,352.8,0.0,0.0
1630881199.99935603,67028178,0.09,0.1,0.05,0.06,352.79,352.8,0.0,0.0
1630881200.10014915,67128971,0.07,0.09,0.04,0.04,352.79,352.8,0.0,0.0
1630881200.20010900,67228931,0.08,0.08,0.08,0.05,352.79,352.8,0.0,0.0
1630881200.30006909,67328891,0.14,0.11,0.11,0.08,352.79,352.81,0.0,0.0
1630881200.40002894,67428851,0.18,0.16,0.13,0.12,352.79,352.81,0.0,0.0
1630881200.49998903,67528811,0.21,0.21,0.12,0.13,352.79,352.81,0.0,0.0
1630881200.59994912,67628771,0.19,0.22,0.11,0.13,352.79,352.81,0.0,0.0
1630881200.69990897,67728731,0.18,0.2,0.11,0.12,352.79,352.81,0.0,0.0
1630881200.79986906,67828691,0.18,0.18,0.1,0.1,352.79,352.81,0.0,0.0
1630881200.89982915,67928651,0.15,0.17,0.08,0.08,352.79,352.81,0.0,0.0
1630881200.99978900,68028611,0.13,0.15,0.11,0.08,352.79,352.81,0.0,0.0
1630881201.09974909,68128571,0.09,0.12,0.12,0.09,352.79,352.81,0.0,0.0
1630881201.19970894,68228531,0.1,0.08,0.13,0.11,352.79,352.81,0.0,0.0
1630881201.29966903,68328491,0.13,0.09,0.16,0.14,352.79,352.81,0.0,0.0
1630881201.39962912,68428451,0.17,0.12,0.16,0.16,352.79,352.81,0.0,0.0
1630881201.49958897,68528411,0.19,0.16,0.16,0.17,352.79,352.81,0.0,0.0
1630881201.59954906,68628371,0.19,0.18,0.15,0.16,352.79,352.81,0.0,0.0
1630881201.69950914,68728331,0.18,0.18,0.12,0.14,352.79,352.81,0.0,0.0
1630881201.79946899,68828291,0.15,0.15,0.09,0.1,352.79,352.81,0.0,0.0
1630881201.89942908,68928251,0.15,0.14,0.09,0.08,352.79,352.81,0.0,0.0
1630881201.99938917,69028211,0.15,0.14,0.12,0.09,352.79,352.81,0.0,0.0
1630881202.09934902,69128171,0.15,0.14,0.13,0.11,352.79,352.81,0.0,0.0
1630881202.20014215,69228964,0.16,0.15,0.14,0.13,352.79,352.81,0.0,0.0
1630881202.30010200,69328924,0.15,0.16,0.18,0.16,352.79,352.8,0.0,0.0
1630881202.40006208,69428884,0.11,0.13,0.18,0.19,352.79,352.8,0.0,0.0
1630881202.50002217,69528844,0.08,0.1,0.15,0.19,352.79,352.8,0.0,0.0
1630881202.59998202,69628804,0.1,0.08,0.13,0.16,352.79,352.8,0.0,0.0
1630881202.69994211,69728764,0.12,0.09,0.1,0.13,352.79,352.8,0.0,0.0
1630881202.79990196,69828724,0.13,0.09,0.09,0.1,352.79,352.8,0.0,0.0
1630881202.89986205,69928684,0.12,0.1,0.11,0.1,352.79,352.8,0.0,0.0
1630881202.99982214,70028644,0.09,0.08,0.12,0.1,352.79,352.8,0.0,0.0
1630881203.09978199,70128604,0.08,0.07,0.08,0.08,352.79,352.8,0.0,0.0
1630881203.19974208,70228564,0.11,0.08,0.06,0.06,352.79,352.8,0.0,0.0
1630881203.29970217,70328524,0.16,0.13,0.05,0.04,352.79,352.8,0.0,0.0
1630881203.39966202,70428484,0.17,0.16,0.05,0.02,352.79,352.8,0.0,0.0
1630881203.49962211,70528444,0.15,0.16,0.05,0.02,352.79,352.8,0.0,0.0
1630881203.59958196,70628404,0.13,0.15,0.08,0.04,352.79,352.8,0.0,0.0
1630881203.69954205,70728364,0.11,0.12,0.06,0.05,352.79,352.8,0.0,0.0
1630881203.79950213,70828324,0.09,0.09,0.04,0.04,352.79,352.8,0.0,0.0
1630881203.89946198,70928284,0.08,0.08,0.05,0.03,352.79,352.81,0.0,0.0
1630881203.99942207,71028244,0.07,0.06,0.07,0.05,352.79,352.8,0.0,0.0
1630881204.09938216,71128204,0.05,0.05,0.1,0.08,352.79,352.8,0.0,0.0
1630881204.19934201,71228164,0.02,0.03,0.1,0.1,352.79,352.8,0.0,0.0
1630881204.30013514,71328957,0.02,0.01,0.09,0.1,352.79,352.8,0.0,0.0
1630881204.40009499,71428917,0.04,0.02,0.08,0.08,352.79,352.8,0.0,0.0
1630881204.50005507,71528877,0.07,0.04,0.07,0.06,352.79,352.8,0.0,0.0
1630881204.60001516,71628837,0.09,0.06,0.08,0.05,352.79,352.79,0.0,0.0
1630881204.69997501,71728797,0.12,0.1,0.1,0.07,352.79,352.79,0.0,0.0
1630881204.79993510,71828757,0.14,0.13,0.13,0.1,352.79,352.79,0.0,0.0
1630881204.89989495,71928717,0.13,0.15,0.14,0.14,352.79,352.79,0.0,0.0
1630881204.99985504,72028677,0.08,0.11,0.1,0.12,352.79,352.79,0.0,0.0
1630881205.09981513,72128637,0.05,0.07,0.06,0.08,352.79,352.8,0.0,0.0
1630881205.19977498,72228597,0.04,0.04,0.06,0.06,352.79,352.8,0.0,0.0
1630881205.29973507,72328557,0.04,0.02,0.07,0.06,352.79,352.8,0.0,0.0
1630881205.39969516,72428517,0.07,0.04,0.08,0.06,352.79,352.8,0.0,0.0
1630881205.49965501,72528477,0.09,0.07,0.08,0.08,352.79,352.8,0.0,0.0
1630881205.59961510,72628437,0.08,0.09,0.08,0.09,352.79,352.8,0.0,0.0
1630881205.69957495,72728397,0.03,0.07,0.1,0.1,352.79,352.8,0.0,0.0
1630881205.79953504,72828357,-0.01,0.01,0.12,0.12,352.79,352.8,0.0,0.0
1630881205.89949512,72928317,-0.03,-0.04,0.1,0.12,352.79,352.8,0.0,0.0
1630881205.99945498,73028277,0.01,-0.05,0.07,0.09,352.79,352.8,0.0,0.0
1630881206.09941506,73128237,0.06,-0.01,0.07,0.06,352.79,352.8,0.0,0.0
1630881206.19937515,73228197,0.09,0.03,0.05,0.05,352.79,352.81,0.0,0.0
1630881206.29933500,73328157,0.1,0.08,0.05,0.03,352.79,352.81,0.0,0.0
1630881206.40012813,73428950,0.13,0.12,0.08,0.04,352.79,352.81,0.0,0.0
1630881206.50008798,73528910,0.14,0.15,0.1,0.07,352.79,352.81,0.0,0.0
1630881206.60004807,73628870,0.14,0.16,0.1,0.1,352.79,352.8,0.0,0.0
1630881206.70000815,73728830,0.16,0.17,0.07,0.1,352.79,352.8,0.0,0.0
1630881206.79996800,73828790,0.18,0.19,0.04,0.06,352.79,352.8,0.0,0.0
1630881206.89992809,73928750,0.17,0.19,0.04,0.04,352.79,352.8,0.0,0.0
1630881206.99988794,74028710,0.14,0.16,0.05,0.04,352.79,352.8,0.0,0.0
1630881207.09984803,74128670,0.14,0.13,0.07,0.04,352.79,352.8,0.0,0.0
1630881207.19980812,74228630,0.17,0.14,0.11,0.08,352.79,352.79,0.0,0.0
1630881207.29976797,74328590,0.18,0.16,0.11,0.1,352.79,352.79,0.0,0.0
1630881207.39972806,74428550,0.18,0.18,0.1,0.1,352.79,352.79,0.0,0.0
1630881207.49968815,74528510,0.19,0.19,0.08,0.09,352.79,352.79,0.0,0.0
1630881207.59964800,74628470,0.19,0.19,0.03,0.06,352.79,352.79,0.0,0.0
1630881207.69960809,74728430,0.2,0.2,0.01,0.02,352.79,352.8,0.0,0.0
1630881207.79956794,74828390,0.2,0.2,0.0,0.0,352.79,352.8,0.0,0.0
1630881207.89952803,74928350,0.16,0.19,-0.01,-0.01,352.79,352.8,0.0,0.0
1630881207.99948812,75028310,0.12,0.14,0.01,-0.01,352.79,352.8,0.0,0.0
1630881208.09944797,75128270,0.12,0.11,0.03,0.01,352.79,352.8,0.0,0.0
1630881208.19940805,75228230,0.15,0.12,0.03,0.02,352.79,352.79,0.0,0.0
1630881208.29936814,75328190,0.17,0.14,0.05,0.04,352.79,352.79,0.0,0.0
1630881208.40016103,75428983,0.21,0.17,0.07,0.06,352.79,352.79,0.0,0.0
1630881208.50012112,75528943,0.24,0.21,0.08,0.08,352.79,352.79,0.0,0.0
1630881208.60008097,75628903,0.23,0.23,0.04,0.06,352.79,352.79,0.0,0.0
1630881208.70004106,75728863,0.18,0.2,0.04,0.05,352.79,352.79,0.0,0.0
1630881208.80000114,75828823,0.15,0.16,0.06,0.05,352.79,352.79,0.0,0.0
1630881208.89996099,75928783,0.15,0.15,0.07,0.05,352.79,352.79,0.0,0.0
1630881208.99992108,76028743,0.17,0.14,0.08,0.06,352.79,352.79,0.0,0.0
1630881209.09988117,76128703,0.15,0.14,0.1,0.08,352.79,352.8,0.0,0.0
1630881209.19984102,76228663,0.14,0.13,0.12,0.1,352.79,352.8,0.0,0.0
1630881209.29980111,76328623,0.16,0.14,0.1,0.1,352.8,352.8,0.0,0.0
1630881209.39976096,76428583,0.19,0.16,0.09,0.08,352.8,352.8,0.0,0.0
1630881209.49972105,76528543,0.19,0.18,0.12,0.08,352.8,352.8,0.0,0.0
1630881209.59968114,76628503,0.19,0.19,0.13,0.11,352.8,352.8,0.0,0.0
1630881209.69964099,76728463,0.17,0.18,0.13,0.12,352.8,352.8,0.0,0.0
1630881209.79960108,76828423,0.13,0.15,0.13,0.13,352.79,352.8,0.0,0.0
1630881209.89956117,76928383,0.1,0.12,0.15,0.15,352.79,352.8,0.0,0.0
1630881209.99952102,77028343,0.09,0.09,0.12,0.15,352.79,352.8,0.0,0.0
1630881210.09948111,77128303,0.11,0.08,0.11,0.13,352.79,352.8,0.0,0.0
1630881210.19944096,77228263,0.15,0.12,0.12,0.12,352.79,352.8,0.0,0.0
1630881210.29940104,77328223,0.19,0.17,0.11,0.12,352.79,352.8,0.0,0.0
1630881210.39936113,77428183,0.18,0.2,0.08,0.09,352.79,352.8,0.0,0.0
1630881210.50015402,77528976,0.14,0.18,0.1,0.07,352.79,352.8,0.0,0.0
1630881210.60011411,77628936,0.11,0.14,0.09,0.07,352.79,352.8,0.0,0.0
1630881210.70007396,77728896,0.1,0.1,0.07,0.05,352.79,352.8,0.0,0.0
1630881210.80003405,77828856,0.12,0.1,0.08,0.04,352.79,352.8,0.0,0.0
1630881210.89999413,77928816,0.13,0.11,0.13,0.08,352.79,352.8,0.0,0.0
1630881210.99995399,78028776,0.15,0.13,0.16,0.13,352.79,352.8,0.0,0.0
1630881211.09991407,78128736,0.16,0.14,0.13,0.16,352.79,352.8,0.0,0.0
1630881211.19987416,78228696,0.15,0.14,0.06,0.12,352.79,352.81,0.0,0.0
1630881211.29983401,78328656,0.12,0.14,0.01,0.06,352.79,352.81,0.0,0.0
1630881211.39979410,78428616,0.12,0.12,0.03,0.02,352.79,352.81,0.0,0.0
1630881211.49975395,78528576,0.12,0.11,0.09,0.05,352.79,352.81,0.0,0.0
1630881211.59971404,78628536,0.12,0.11,0.14,0.1,352.79,352.8,0.0,0.0
1630881211.69967413,78728496,0.11,0.1,0.17,0.15,352.79,352.8,0.0,0.0
1630881211.79963398,78828456,0.09,0.09,0.17,0.18,352.79,352.8,0.0,0.0
1630881211.89959407,78928416,0.09,0.08,0.16,0.17,352.79,352.8,0.0,0.0
1630881211.99955416,79028376,0.09,0.08,0.15,0.15,352.79,352.8,0.0,0.0
1630881212.09951401,79128336,0.11,0.09,0.13,0.13,352.79,352.8,0.0,0.0
1630881212.19947410,79228296,0.12,0.1,0.11,0.11,352.8,352.8,0.0,0.0
1630881212.29943395,79328256,0.1,0.1,0.11,0.09,352.8,352.8,0.0,0.0
1630881212.39939404,79428216,0.07,0.07,0.15,0.11,352.8,352.8,0.0,0.0
1630881212.49935412,79528176,0.07,0.06,0.18,0.15,352.8,352.79,0.0,0.0
1630881212.60014701,79628969,0.09,0.07,0.18,0.17,352.8,352.8,0.0,0.0
1630881212.70010710,79728929,0.12,0.1,0.17,0.18,352.8,352.8,0.0,0.0
1630881212.80006695,79828889,0.12,0.13,0.15,0.17,352.8,352.8,0.0,0.0
1630881212.90002704,79928849,0.08,0.11,0.12,0.15,352.8,352.8,0.0,0.0
1630881212.99998713,80028809,0.04,0.07,0.09,0.11,352.8,352.8,0.0,0.0
1630881213.09994698,80128769,0.03,0.03,0.07,0.07,352.8,352.8,0.0,0.0
1630881213.19990706,80228729,0.05,0.01,0.08,0.05,352.8,352.8,0.0,0.0
1630881213.29986715,80328689,0.08,0.03,0.11,0.07,352.8,352.8,0.0,0.0
1630881213.39982700,80428649,0.11,0.07,0.12,0.1,352.8,352.8,0.0,0.0
1630881213.49978709,80528609,0.13,0.11,0.1,0.1,352.8,352.8,0.0,0.0
1630881213.59974694,80628569,0.15,0.14,0.1,0.09,352.8,352.8,0.0,0.0
1630881213.69970703,80728529,0.18,0.17,0.11,0.1,352.8,352.8,0.0,0.0
1630881213.79966712,80828489,0.16,0.17,0.12,0.11,352.8,352.8,0.0,0.0
1630881213.89962697,80928449,0.14,0.16,0.13,0.12,352.8,352.8,0.0,0.0
1630881213.99958706,81028409,0.13,0.14,0.13,0.13,352.8,352.8,0.0,0.0
1630881214.09954715,81128369,0.13,0.13,0.12,0.13,352.8,352.8,0.0,0.0
1630881214.19950700,81228329,0.13,0.12,0.09,0.11,352.8,352.8,0.0,0.0
1630881214.29946709,81328289,0.11,0.12,0.07,0.08,352.8,352.8,0.0,0.0
1630881214.39942694,81428249,0.11,0.12,0.06,0.06,352.8,352.8,0.0,0.0
1630881214.49938703,81528209,0.13,0.12,0.08,0.06,352.8,352.81,0.0,0.0
1630881214.59934711,81628169,0.14,0.12,0.1,0.08,352.8,352.81,0.0,0.0
1630881214.70014000,81728962,0.14,0.13,0.13,0.11,352.8,352.81,0.0,0.0
1630881214.80010009,81828922,0.15,0.13,0.18,0.16,352.8,352.81,0.0,0.0
1630881214.90005994,81928882,0.14,0.12,0.21,0.2,352.8,352.81,0.0,0.0
1630881215.00002003,82028842,0.15,0.12,0.21,0.23,352.8,352.8,0.0,0.0
1630881215.09998012,82128802,0.12,0.12,0.19,0.23,352.8,352.8,0.0,0.0
1630881215.19993997,82228762,0.07,0.08,0.14,0.18,352.8,352.8,0.0,0.0
1630881215.29990005,82328722,0.07,0.05,0.1,0.13,352.8,352.8,0.0,0.0
1630881215.39986014,82428682,0.07,0.04,0.11,0.09,352.8,352.79,0.0,0.0
1630881215.49981999,82528642,0.09,0.04,0.14,0.11,352.8,352.79,0.0,0.0
1630881215.59978008,82628602,0.11,0.07,0.16,0.13,352.8,352.79,0.0,0.0
1630881215.69974017,82728562,0.14,0.11,0.17,0.16,352.8,352.79,0.0,0.0
1630881215.79970002,82828522,0.15,0.14,0.15,0.16,352.8,352.79,0.0,0.0
1630881215.89966011,82928482,0.16,0.16,0.12,0.14,352.8,352.79,0.0,0.0
1630881215.99961996,83028442,0.14,0.17,0.1,0.11,352.8,352.79,0.0,0.0
1630881216.09958005,83128402,0.1,0.13,0.09,0.09,352.8,352.79,0.0,0.0
1630881216.19954014,83228362,0.06,0.09,0.1,0.07,352.8,352.79,0.0,0.0
1630881216.29949999,83328322,0.07,0.06,0.11,0.08,352.8,352.79,0.0,0.0
1630881216.39946008,83428282,0.08,0.07,0.12,0.08,352.8,352.8,0.0,0.0
1630881216.49942017,83528242,0.08,0.07,0.15,0.11,352.8,352.8,0.0,0.0
1630881216.59938002,83628202,0.09,0.07,0.17,0.14,352.8,352.8,0.0,0.0
1630881216.69934011,83728162,0.1,0.08,0.19,0.17,352.8,352.8,0.0,0.0
1630881216.80013299,83828955,0.13,0.1,0.18,0.19,352.8,352.81,0.0,0.0
1630881216.90009308,83928915,0.15,0.13,0.16,0.18,352.8,352.81,0.0,0.0
1630881217.00005317,84028875,0.17,0.15,0.15,0.16,352.8,352.81,0.0,0.0
1630881217.10001302,84128835,0.2,0.19,0.14,0.14,352.8,352.81,0.0,0.0
1630881217.19997311,84228795,0.21,0.21,0.1,0.11,352.8,352.81,0.0,0.0
1630881217.29993296,84328755,0.19,0.2,0.1,0.09,352.8,352.8,0.0,0.0
1630881217.39989305,84428715,0.17,0.19,0.12,0.09,352.8,352.8,0.0,0.0
1630881217.49985313,84528675,0.15,0.16,0.12,0.1,352.8,352.8,0.0,0.0
1630881217.59981298,84628635,0.15,0.14,0.1,0.09,352.8,352.8,0.0,0.0
1630881217.69977307,84728595,0.15,0.13,0.08,0.08,352.8,352.8,0.0,0.0
1630881217.79973316,84828555,0.17,0.14,0.08,0.07,352.8,352.8,0.0,0.0
1630881217.89969301,84928515,0.18,0.16,0.11,0.08,352.8,352.8,0.0,0.0
1630881217.99965310,85028475,0.15,0.15,0.12,0.1,352.8,352.8,0.0,0.0
1630881218.09961295,85128435,0.14,0.14,0.15,0.13,352.8,352.8,0.0,0.0
1630881218.19957304,85228395,0.13,0.13,0.17,0.16,352.8,352.8,0.0,0.0
1630881218.29953313,85328355,0.14,0.12,0.2,0.19,352.8,352.8,0.0,0.0
1630881218.39949298,85428315,0.15,0.13,0.21,0.21,352.8,352.8,0.0,0.0
1630881218.49945307,85528275,0.17,0.15,0.18,0.21,352.8,352.8,0.0,0.0
1630881218.59941316,85628235,0.16,0.16,0.13,0.16,352.8,352.8,0.0,0.0
1630881218.69937301,85728195,0.14,0.15,0.09,0.1,352.8,352.8,0.0,0.0
1630881218.79933310,85828155,0.14,0.13,0.08,0.07,352.8,352.8,0.0,0.0
1630881218.90012598,85928948,0.14,0.14,0.08,0.06,352.8,352.8,0.0,0.0
1630881219.00008607,86028908,0.15,0.14,0.1,0.06,352.8,352.8,0.0,0.0
1630881219.10004616,86128868,0.14,0.14,0.12,0.09,352.8,352.8,0.0,0.0
1630881219.20000601,86228828,0.15,0.13,0.13,0.12,352.8,352.8,0.0,0.0
1630881219.29996610,86328788,0.16,0.14,0.11,0.11,352.8,352.8,0.0,0.0
1630881219.39992595,86428748,0.17,0.16,0.1,0.1,352.8,352.8,0.0,0.0
1630881219.49988604,86528708,0.17,0.17,0.06,0.08,352.8,352.8,0.0,0.0
1630881219.59984612,86628668,0.23,0.2,0.06,0.06,352.8,352.8,0.0,0.0
1630881219.69980597,86728628,0.47,0.34,0.08,0.06,352.8,352.8,0.0,0.0
1630881219.79976606,86828588,0.97,0.71,0.1,0.08,352.8,352.8,0.0,0.0
1630881219.89972615,86928548,1.71,1.37,0.1,0.09,352.8,352.8,0.0,0.0
1630881219.99968600,87028508,2.63,2.3,0.1,0.1,352.8,352.8,0.0,0.0
1630881220.09964609,87128468,3.64,3.39,0.12,0.11,352.8,352.8,0.0,0.0
1630881220.19960594,87228428,4.54,4.48,0.15,0.14,352.8,352.8,0.0,0.01
1630881220.29956603,87328388,5.2,5.36,0.15,0.16,352.8,352.8,0.0,0.01
1630881220.39952612,87428348,5.72,5.99,0.13,0.15,352.8,352.8,0.0,0.01
1630881220.49948597,87528308,6.14,6.43,0.11,0.12,352.8,352.8,0.0,0.01
1630881220.59944606,87628268,6.55,6.77,0.12,0.11,352.8,352.8,0.0,0.01
1630881220.69940615,87728228,7.0,7.11,0.14,0.12,352.8,352.81,0.0,0.01
1630881220.79936600,87828188,7.45,7.5,0.17,0.15,352.8,352.81,0.0,0.01
1630881220.90015912,87928981,7.77,7.84,0.2,0.18,352.8,352.82,0.0,0.01
1630881221.00011897,88028941,7.99,8.08,0.2,0.2,352.8,352.82,0.0,0.0
1630881221.10007906,88128901,8.2,8.27,0.2,0.21,352.8,352.82,0.0,0.0
1630881221.20003915,88228861,8.39,8.44,0.21,0.21,352.8,352.82,0.0,0.0
1630881221.29999900,88328821,8.57,8.59,0.22,0.21,352.8,352.81,0.0,0.0
1630881221.39995909,88428781,8.8,8.77,0.21,0.24,353.49,352.82,0.0,0.0
1630881221.49991894,88528741,9.11,9.02,0.2,0.49,356.8,353.07,0.0,0.0
1630881221.59987903,88628701,9.48,9.37,0.1,1.02,2.48,354.21,0.0,0.0
1630881221.69983912,88728661,9.92,9.85,-0.28,1.38,8.48,356.86,0.0,0.01
1630881221.79979897,88828621,10.32,10.41,-1.1,1.16,14.48,1.15,0.0,0.01
1630881221.89975905,88928581,10.57,10.89,-2.35,0.2,20.48,6.91,0.0,0.02
1630881221.99971914,89028541,10.58,11.12,-3.97,-1.43,26.48,13.83,0.0,0.03
1630881222.09967899,89128501,10.26,10.97,-5.83,-3.6,32.48,21.62,0.0,0.03
1630881222.19963908,89228461,9.56,10.33,-7.71,-6.03,38.48,30.02,0.0,0.04
1630881222.29959917,89328421,8.52,9.17,-9.47,-8.44,44.48,38.8,0.0,0.04
1630881222.39955902,89428381,7.2,7.53,-10.99,-10.59,50.48,47.69,0.0,0.05
1630881222.49951911,89528341,5.7,5.57,-12.21,-12.28,56.49,56.41,0.0,0.05
1630881222.59947896,89628301,4.13,3.5,-13.16,-13.48,62.49,64.67,0.0,0.05
1630881222.69943905,89728261,2.53,1.49,-13.82,-14.18,68.49,72.26,0.0,0.05
1630881222.79939914,89828221,1.01,-0.29,-14.28,-14.52,74.38,79.1,0.0,0.05
1630881222.89935899,89928181,-0.38,-2.0,-14.57,-14.64,78.3,85.11,0.0,0.05
1630881223.00015211,90028974,-1.6,-3.76,-14.72,-14.59,80.33,90.0,0.0,0.04
1630881223.10011196,90128934,-2.52,-5.31,-14.78,-14.43,81.39,93.39,0.0,0.04
1630881223.20007205,90228894,-2.98,-6.3,-14.85,-14.26,81.98,95.15,0.0,0.03
1630881223.30003214,90328854,-2.95,-6.51,-14.99,-14.19,82.35,95.44,0.0,0.02
1630881223.39999199,90428814,-2.51,-5.94,-15.21,-14.29,82.62,94.51,0.0,0.02
1630881223.49995208,90528774,-1.77,-4.73,-15.49,-14.57,82.85,92.68,0.0,0.02
1630881223.59991217,90628734,-0.9,-3.09,-15.78,-14.97,83.07,90.25,0.0,0.02
1630881223.69987202,90728694,-0.05,-1.31,-16.03,-15.43,83.29,87.55,0.0,0.01
1630881223.79983211,90828654,0.7,0.39,-16.21,-15.82,83.5,84.9,0.0,0.01
1630881223.89979196,90928614,1.26,1.82,-16.27,-16.06,83.68,82.59,0.0,0.01
1630881223.99975204,91028574,1.55,2.79,-16.26,-16.15,83.85,80.86,0.0,0.01
1630881224.09971213,91128534,1.59,3.24,-16.24,-16.14,83.98,79.82,0.0,0.01
1630881224.19967198,91228494,1.47,3.22,-16.22,-16.09,84.08,79.48,0.0,0.01
1630881224.29963207,91328454,1.24,2.84,-16.25,-16.08,84.15,79.75,0.0,0.01
1630881224.39959216,91428414,0.92,2.21,-16.33,-16.14,84.2,80.5,0.0,0.01
1630881224.49955201,91528374,0.58,1.45,-16.43,-16.26,84.23,81.57,0.0,0.01
1630881224.59951210,91628334,0.25,0.67,-16.52,-16.4,84.24,82.77,0.0,0.01
1630881224.69947195,91728294,-0.04,-0.03,-16.57,-16.5,84.23,83.94,0.0,0.01
1630881224.79943204,91828254,-0.24,-0.6,-16.61,-16.57,84.23,84.97,0.0,0.0
1630881224.89939213,91928214,-0.33,-0.97,-16.66,-16.64,84.22,85.74,0.0,0.0
1630881224.99935198,92028174,-0.37,-1.15,-16.7,-16.68,84.22,86.22,0.0,0.0
1630881225.10014510,92128967,-0.35,-1.16,-16.72,-16.71,84.23,86.4,0.0,0.0
1630881225.20010495,92228927,-0.27,-1.04,-16.72,-16.71,84.23,86.32,0.0,0.0
1630881225.30006504,92328887,-0.14,-0.79,-16.72,-16.71,84.24,86.03,0.0,0.0
1630881225.40002513,92428847,0.0,-0.47,-16.77,-16.73,84.26,85.6,0.0,0.0
1630881225.49998498,92528807,0.14,-0.13,-16.82,-16.77,84.27,85.11,0.0,0.0
1630881225.59994507,92628767,0.26,0.17,-16.85,-16.82,84.29,84.63,0.0,0.0
1630881225.69990516,92728727,0.35,0.41,-16.88,-16.86,84.3,84.21,0.0,0.0
1630881225.79986501,92828687,0.38,0.58,-16.96,-16.92,84.31,83.88,0.0,0.01
1630881225.89982510,92928647,0.4,0.65,-17.01,-16.99,84.31,83.68,0.0,0.01
1630881225.99978495,93028607,0.39,0.65,-17.03,-17.03,84.31,83.6,0.0,0.01
1630881226.09974504,93128567,0.33,0.58,-17.06,-17.06,84.31,83.62,0.0,0.01
1630881226.19970512,93228527,0.27,0.47,-17.07,-17.08,84.3,83.73,0.0,0.01
1630881226.29966497,93328487,0.21,0.34,-17.09,-17.09,84.29,83.89,0.0,0.0
1630881226.39962506,93428447,0.18,0.22,-17.13,-17.12,84.28,84.08,0.0,0.0
1630881226.49958515,93528407,0.15,0.11,-17.17,-17.16,84.26,84.27,0.0,0.0
1630881226.59954500,93628367,0.08,0.02,-17.21,-17.2,84.25,84.44,0.0,0.0
1630881226.69950509,93728327,0.03,-0.06,-17.24,-17.24,84.23,84.56,0.0,0.0
1630881226.79946494,93828287,0.01,-0.13,-17.25,-17.26,84.22,84.63,0.0,0.0
1630881226.89942503,93928247,0.02,-0.14,-17.27,-17.28,84.2,84.65,0.0,0.0
1630881226.99938512,94028207,0.04,-0.12,-17.29,-17.3,84.19,84.63,0.0,0.0
1630881227.09934497,94128167,0.07,-0.09,-17.29,-17.3,84.17,84.56,0.0,0.0
1630881227.20013809,94228960,0.11,-0.02,-17.31,-17.3,84.16,84.48,0.0,0.0
1630881227.30009794,94328920,0.18,0.07,-17.33,-17.32,84.15,84.38,0.0,0.0
1630881227.40005803,94428880,0.21,0.16,-17.34,-17.34,84.14,84.28,0.0,0.0
1630881227.50001812,94528840,0.21,0.21,-17.35,-17.35,84.13,84.19,0.0,0.0
1630881227.59997797,94628800,0.21,0.23,-17.38,-17.38,84.12,84.12,0.0,0.0
1630881227.69993806,94728760,0.22,0.24,-17.43,-17.42,84.11,84.08,0.0,0.0
1630881227.79989815,94828720,0.23,0.25,-17.47,-17.48,84.11,84.05,0.0,0.0
1630881227.89985800,94928680,0.23,0.25,-17.51,-17.52,84.1,84.04,0.0,0.0
1630881227.99981809,95028640,0.21,0.23,-17.53,-17.56,84.09,84.05,0.0,0.0
1630881228.09977794,95128600,0.17,0.19,-17.54,-17.57,84.07,84.07,0.0,0.0
1630881228.19973803,95228560,0.15,0.14,-17.57,-17.58,84.06,84.09,0.0,0.0
1630881228.29969811,95328520,0.15,0.11,-17.59,-17.59,84.05,84.12,0.0,0.0
1630881228.39965796,95428480,0.16,0.1,-17.6,-17.61,84.04,84.14,0.0,0.0
1630881228.49961805,95528440,0.15,0.09,-17.6,-17.61,84.03,84.16,0.0,0.0
1630881228.59957814,95628400,0.12,0.08,-17.59,-17.61,84.02,84.17,0.0,0.0
1630881228.69953799,95728360,0.11,0.07,-17.59,-17.6,84.01,84.16,0.0,0.0
1630881228.79949808,95828320,0.09,0.06,-17.6,-17.6,84.0,84.15,0.0,0.0
1630881228.89945817,95928280,0.09,0.05,-17.62,-17.61,83.98,84.12,0.0,0.0
1630881228.99941802,96028240,0.11,0.06,-17.66,-17.64,83.97,84.1,0.0,0.0
1630881229.09937811,96128200,0.13,0.09,-17.68,-17.67,83.96,84.07,0.0,0.0
1630881229.19933796,96228160,0.13,0.09,-17.68,-17.69,83.95,84.05,0.0,0.0
1630881229.30013108,96328953,0.15,0.11,-17.68,-17.69,83.94,84.02,0.0,0.0
1630881229.40009117,96428913,0.17,0.14,-17.68,-17.7,83.94,84.0,0.0,0.0
1630881229.50005102,96528873,0.2,0.17,-17.67,-17.69,83.93,83.98,0.0,0.0
1630881229.60001111,96628833,0.22,0.2,-17.69,-17.69,83.93,83.97,0.0,0.0
1630881229.69997096,96728793,0.21,0.22,-17.72,-17.71,83.92,83.97,0.0,0.0
1630881229.79993105,96828753,0.2,0.22,-17.75,-17.75,83.92,83.96,0.0,0.0
1630881229.89989114,96928713,0.17,0.2,-17.75,-17.77,83.91,83.96,0.0,0.0
1630881229.99985099,97028673,0.13,0.15,-17.77,-17.79,83.91,83.96,0.0,0.0
1630881230.09981108,97128633,0.11,0.1,-17.79,-17.8,83.9,83.97,0.0,0.0
1630881230.19977117,97228593,0.12,0.07,-17.81,-17.82,83.9,83.97,0.0,0.0
1630881230.29973102,97328553,0.14,0.08,-17.8,-17.83,83.89,83.97,0.0,0.0
1630881230.39969110,97428513,0.13,0.09,-17.81,-17.83,83.89,83.97,0.0,0.0
1630881230.49965096,97528473,0.13,0.1,-17.82,-17.83,83.88,83.96,0.0,0.0
1630881230.59961104,97628433,0.15,0.11,-17.83,-17.84,83.88,83.96,0.0,0.0
1630881230.69957113,97728393,0.16,0.12,-17.84,-17.85,83.87,83.96,0.0,0.0
1630881230.79953098,97828353,0.15,0.12,-17.85,-17.86,83.87,83.95,0.0,0.0
1630881230.89949107,97928313,0.16,0.12,-17.88,-17.88,83.87,83.94,0.0,0.0
1630881230.99945116,98028273,0.18,0.14,-17.93,-17.92,83.86,83.93,0.0,0.0
1630881231.09941101,98128233,0.2,0.16,-17.94,-17.96,83.86,83.93,0.0,0.0
1630881231.19937110,98228193,0.19,0.18,-17.93,-17.97,83.86,83.92,0.0,0.0
1630881231.30016398,98328986,0.19,0.18,-17.93,-17.97,83.86,83.92,0.0,0.0
1630881231.40012407,98428946,0.19,0.18,-17.9,-17.94,83.86,83.91,0.0,0.0
1630881231.50008416,98528906,0.18,0.18,-17.89,-17.91,83.86,83.91,0.0,0.0
1630881231.60004401,98628866,0.19,0.18,-17.91,-17.9,83.86,83.91,0.0,0.0
1630881231.70000410,98728826,0.19,0.17,-17.94,-17.92,83.85,83.9,0.0,0.0
1630881231.79996395,98828786,0.18,0.16,-17.96,-17.95,83.85,83.9,0.0,0.0
1630881231.89992404,98928746,0.19,0.16,-17.98,-17.98,83.85,83.91,0.0,0.0
1630881231.99988413,99028706,0.21,0.16,-18.0,-18.01,83.85,83.91,0.0,0.0
1630881232.09984398,99128666,0.2,0.18,-18.01,-18.03,83.85,83.91,0.0,0.0
1630881232.19980407,99228626,0.22,0.19,-18.01,-18.04,83.85,83.91,0.0,0.0
1630881232.29976416,99328586,0.23,0.2,-17.99,-18.02,83.85,83.91,0.0,0.0
1630881232.39972401,99428546,0.23,0.21,-17.99,-17.99,83.85,83.91,0.0,0.0
1630881232.49968410,99528506,0.25,0.22,-18.02,-18.0,83.85,83.91,0.0,0.0
1630881232.59964395,99628466,0.26,0.24,-18.04,-18.02,83.86,83.91,0.0,0.0
1630881232.69960403,99728426,0.27,0.25,-18.05,-18.04,83.86,83.91,0.0,0.0
1630881232.79956412,99828386,0.29,0.27,-18.04,-18.06,83.86,83.91,0.0,0.0
1630881232.89952397,99928346,0.29,0.27,-18.04,-18.06,83.86,83.91,0.0,0.0
1630881232.99948406,100028306,0.26,0.26,-18.06,-18.06,83.87,83.92,0.0,0.0
1630881233.09944415,100128266,0.24,0.24,-18.06,-18.07,83.87,83.92,0.0,0.0
1630881233.19940400,100228226,0.23,0.22,-18.07,-18.08,83.87,83.92,0.0,0.0
1630881233.29936409,100328186,0.24,0.22,-18.08,-18.09,83.87,83.93,0.0,0.0
1630881233.40015697,100428979,0.24,0.22,-18.08,-18.09,83.87,83.93,0.0,0.0
1630881233.50011706,100528939,0.24,0.22,-18.05,-18.07,83.87,83.93,0.0,0.0
1630881233.60007715,100628899,0.23,0.21,-18.02,-18.04,83.87,83.93,0.0,0.0
1630881233.70003700,100728859,0.22,0.2,-18.04,-18.04,83.87,83.93,0.0,0.0
1630881233.79999709,100828819,0.23,0.19,-18.08,-18.05,83.87,83.93,0.0,0.0
1630881233.89995694,100928779,0.26,0.2,-18.09,-18.07,83.87,83.93,0.0,0.0
1630881233.99991703,101028739,0.25,0.21,-18.09,-18.09,83.87,83.92,0.0,0.0
1630881234.09987712,101128699,0.23,0.21,-18.09,-18.1,83.87,83.92,0.0,0.0
1630881234.19983697,101228659,0.24,0.21,-18.09,-18.1,83.87,83.92,0.0,0.0
1630881234.29979706,101328619,0.27,0.23,-18.11,-18.11,83.87,83.92,0.0,0.0
1630881234.39975715,101428579,0.28,0.26,-18.12,-18.14,83.87,83.92,0.0,0.0
1630881234.49971700,101528539,0.25,0.26,-18.13,-18.15,83.87,83.92,0.0,0.0
1630881234.59967709,101628499,0.22,0.23,-18.14,-18.16,83.87,83.92,0.0,0.0
1630881234.69963694,101728459,0.22,0.2,-18.14,-18.16,83.87,83.92,0.0,0.0
1630881234.79959702,101828419,0.23,0.19,-18.11,-18.15,83.87,83.92,0.0,0.0
1630881234.89955711,101928379,0.26,0.21,-18.07,-18.11,83.87,83.92,0.0,0.0
1630881234.99951696,102028339,0.3,0.25,-18.06,-18.08,83.88,83.92,0.0,0.0
1630881235.09947705,102128299,0.32,0.29,-18.09,-18.08,83.88,83.92,0.0,0.0
1630881235.19943714,102228259,0.31,0.31,-18.13,-18.11,83.88,83.92,0.0,0.0
1630881235.29939699,102328219,0.3,0.32,-18.16,-18.15,83.89,83.92,0.0,0.0
1630881235.39935708,102428179,0.27,0.29,-18.19,-18.19,83.89,83.92,0.0,0.0
1630881235.50014997,102528972,0.24,0.25,-18.18,-18.2,83.89,83.93,0.0,0.0
1630881235.60011005,102628932,0.23,0.21,-18.16,-18.2,83.89,83.93,0.0,0.0
1630881235.70007014,102728892,0.23,0.19,-18.15,-18.18,83.89,83.94,0.0,0.0
1630881235.80002999,102828852,0.24,0.2,-18.14,-18.16,83.89,83.94,0.0,0.0
1630881235.89999008,102928812,0.28,0.23,-18.14,-18.15,83.89,83.94,0.0,0.0
1630881235.99995017,103028772,0.31,0.27,-18.18,-18.17,83.89,83.94,0.0,0.0
1630881236.09991002,103128732,0.32,0.3,-18.19,-18.19,83.89,83.94,0.0,0.0
1630881236.19987011,103228692,0.33,0.31,-18.2,-18.21,83.9,83.93,0.0,0.0
1630881236.29982996,103328652,0.33,0.32,-18.19,-18.21,83.9,83.93,0.0,0.0
1630881236.39979005,103428612,0.34,0.33,-18.18,-18.2,83.9,83.93,0.0,0.0
1630881236.49975014,103528572,0.36,0.34,-18.16,-18.18,83.9,83.93,0.0,0.0
1630881236.59970999,103628532,0.35,0.35,-18.16,-18.17,83.91,83.94,0.0,0.0
1630881236.69967008,103728492,0.32,0.33,-18.15,-18.16,83.91,83.94,0.0,0.0
1630881236.79963017,103828452,0.31,0.31,-18.14,-18.15,83.91,83.94,0.0,0.0
1630881236.89959002,103928412,0.31,0.3,-18.13,-18.14,83.91,83.95,0.0,0.0
1630881236.99955010,104028372,0.32,0.3,-18.15,-18.15,83.91,83.95,0.0,0.0
1630881237.09950995,104128332,0.32,0.3,-18.16,-18.17,83.91,83.95,0.0,0.0
1630881237.19947004,104228292,0.33,0.3,-18.17,-18.17,83.91,83.95,0.0,0.0
1630881237.29943013,104328252,0.34,0.31,-18.18,-18.18,83.91,83.95,0.0,0.0
1630881237.39938998,104428212,0.35,0.33,-18.18,-18.19,83.91,83.94,0.0,0.0
1630881237.49935007,104528172,0.36,0.34,-18.17,-18.18,83.91,83.94,0.0,0.0
1630881237.60014296,104628965,0.34,0.34,-18.15,-18.17,83.91,83.94,0.0,0.0
1630881237.70010304,104728925,0.34,0.33,-18.13,-18.14,83.91,83.93,0.0,0.0
1630881237.80006313,104828885,0.32,0.31,-18.14,-18.13,83.91,83.93,0.0,0.0
1630881237.90002298,104928845,0.32,0.3,-18.15,-18.14,83.91,83.93,0.0,0.0
1630881237.99998307,105028805,0.36,0.32,-18.18,-18.16,83.91,83.94,0.0,0.0
1630881238.09994316,105128765,0.41,0.37,-18.19,-18.18,83.92,83.94,0.0,0.0
1630881238.19990301,105228725,0.43,0.41,-18.19,-18.2,83.92,83.95,0.0,0.0
1630881238.29986310,105328685,0.42,0.42,-18.2,-18.21,83.92,83.95,0.0,0.0
1630881238.39982295,105428645,0.39,0.41,-18.21,-18.22,83.92,83.96,0.0,0.0
1630881238.49978304,105528605,0.37,0.38,-18.23,-18.23,83.92,83.96,0.0,0.0
1630881238.59974313,105628565,0.38,0.35,-18.24,-18.25,83.92,83.96,0.0,0.0
1630881238.69970298,105728525,0.4,0.37,-18.22,-18.24,83.92,83.97,0.0,0.0
1630881238.79966307,105828485,0.43,0.39,-18.19,-18.22,83.93,83.97,0.0,0.0
1630881238.89962316,105928445,0.43,0.41,-18.17,-18.2,83.93,83.97,0.0,0.0
1630881238.99958301,106028405,0.4,0.4,-18.17,-18.18,83.93,83.97,0.0,0.0
1630881239.09954309,106128365,0.4,0.38,-18.2,-18.19,83.92,83.96,0.0,0.0
1630881239.19950294,106228325,0.4,0.37,-18.24,-18.22,83.92,83.96,0.0,0.0
1630881239.29946303,106328285,0.4,0.35,-18.25,-18.26,83.92,83.95,0.0,0.0
1630881239.39942312,106428245,0.41,0.35,-18.26,-18.29,83.92,83.95,0.0,0.0
1630881239.49938297,106528205,0.42,0.38,-18.24,-18.29,83.92,83.94,0.0,0.0
1630881239.59934306,106628165,0.42,0.4,-18.2,-18.25,83.92,83.93,0.0,0.0
1630881239.70013595,106728958,0.42,0.42,-18.15,-18.21,83.91,83.93,0.0,0.0
1630881239.80009604,106828918,0.43,0.43,-18.13,-18.15,83.91,83.92,0.0,0.0
1630881239.90005612,106928878,0.41,0.44,-18.14,-18.13,83.91,83.92,0.0,0.0
1630881240.00001597,107028838,0.39,0.42,-18.18,-18.15,83.91,83.92,0.0,0.0
1630881240.09997606,107128798,0.36,0.39,-18.21,-18.19,83.9,83.92,0.0,0.0
1630881240.19993615,107228758,0.35,0.36,-18.23,-18.23,83.9,83.92,0.0,0.0
1630881240.29989600,107328718,0.34,0.34,-18.24,-18.25,83.9,83.92,0.0,0.0
1630881240.39985609,107428678,0.33,0.31,-18.23,-18.25,83.89,83.92,0.0,0.0
1630881240.49981594,107528638,0.34,0.31,-18.23,-18.24,83.89,83.91,0.0,0.0
1630881240.59977603,107628598,0.37,0.33,-18.21,-18.23,83.89,83.91,0.0,0.0
1630881240.69973612,107728558,0.37,0.35,-18.2,-18.22,83.89,83.91,0.0,0.0
1630881240.79969597,107828518,0.36,0.35,-18.19,-18.21,83.89,83.91,0.0,0.0
1630881240.89965606,107928478,0.34,0.34,-18.19,-18.2,83.89,83.9,0.0,0.0
1630881240.99961615,108028438,0.33,0.32,-18.2,-18.21,83.88,83.9,0.0,0.0
1630881241.09957600,108128398,0.35,0.32,-18.22,-18.22,83.88,83.9,0.0,0.0
1630881241.19953609,108228358,0.35,0.33,-18.23,-18.23,83.88,83.9,0.0,0.0
1630881241.29949617,108328318,0.34,0.32,-18.23,-18.24,83.88,83.9,0.0,0.0
1630881241.39945602,108428278,0.38,0.34,-18.24,-18.25,83.88,83.9,0.0,0.0
1630881241.49941611,108528238,0.41,0.38,-18.24,-18.25,83.88,83.89,0.0,0.0
1630881241.59937596,108628198,0.42,0.42,-18.23,-18.25,83.89,83.89,0.0,0.0
1630881241.69933605,108728158,0.82,0.63,-18.05,-18.17,84.31,83.91,0.0,0.0
1630881241.80012894,108828951,1.97,1.58,-17.57,-17.82,85.12,84.02,0.0,0.0
1630881241.90008903,108928911,3.23,3.07,-17.08,-17.28,86.17,84.36,0.0,0.0
1630881242.00004911,109028871,4.2,4.58,-16.75,-16.76,87.39,85.01,0.0,0.0
1630881242.10000896,109128831,4.79,5.7,-16.63,-16.44,88.71,85.99,0.0,0.0
1630881242.19996905,109228791,5.02,6.28,-16.67,-16.37,90.1,87.3,0.0,0.0
1630881242.29992914,109328751,4.99,6.34,-16.83,-16.5,91.54,88.9,0.0,0.01
1630881242.39988899,109428711,4.83,6.01,-17.01,-16.75,92.97,90.72,0.0,0.01
1630881242.49984908,109528671,4.59,5.48,-17.15,-17.02,94.39,92.71,0.0,0.01
1630881242.59980917,109628631,4.37,4.88,-17.22,-17.22,95.79,94.78,0.0,0.01
1630881242.69976902,109728591,4.17,4.33,-17.25,-17.33,97.15,96.83,0.0,0.01
1630881242.79972911,109828551,4.03,3.89,-17.31,-17.39,98.48,98.78,0.0,0.02
1630881242.89968896,109928511,3.93,3.59,-17.39,-17.46,99.77,100.56,0.0,0.02
1630881242.99964905,110028471,3.86,3.41,-17.48,-17.54,101.03,102.15,0.0,0.02
1630881243.09960914,110128431,3.83,3.33,-17.56,-17.62,102.24,103.54,0.0,0.02
1630881243.19956899,110228391,3.81,3.33,-17.65,-17.7,103.42,104.73,0.0,0.02
1630881243.29952908,110328351,3.76,3.36,-17.71,-17.77,104.56,105.76,0.0,0.01
1630881243.39948916,110428311,3.72,3.4,-17.72,-17.8,105.65,106.66,0.0,0.01
1630881243.49944901,110528271,3.69,3.45,-17.72,-17.79,106.7,107.46,0.0,0.01
1630881243.59940910,110628231,3.64,3.49,-17.74,-17.78,107.71,108.21,0.0,0.01
1630881243.69936895,110728191,3.57,3.5,-17.76,-17.79,108.67,108.93,0.0,0.01
1630881243.80016208,110828984,3.49,3.48,-17.77,-17.79,109.59,109.66,0.0,0.01
1630881243.90012217,110928944,3.38,3.42,-17.78,-17.79,110.46,110.4,0.0,0.01
1630881244.00008202,111028904,3.27,3.32,-17.77,-17.78,111.3,111.16,0.0,0.01
1630881244.10004210,111128864,3.15,3.2,-17.8,-17.79,112.08,111.94,0.0,0.01
1630881244.20000196,111228824,3.03,3.06,-17.84,-17.83,112.83,112.72,0.0,0.01
1630881244.29996204,111328784,2.9,2.91,-17.88,-17.86,113.54,113.5,0.0,0.01
1630881244.39992213,111428744,2.76,2.75,-17.89,-17.9,114.22,114.27,0.0,0.01
1630881244.49988198,111528704,2.59,2.56,-17.91,-17.93,114.85,115.01,0.0,0.01
1630881244.59984207,111628664,2.43,2.36,-17.91,-17.94,115.45,115.7,0.0,0.01
1630881244.69980216,111728624,2.31,2.19,-17.92,-17.94,116.01,116.34,0.0,0.01
1630881244.79976201,111828584,2.22,2.05,-17.92,-17.95,116.55,116.93,0.0,0.01
1630881244.89972210,111928544,2.13,1.96,-17.94,-17.95,117.05,117.46,0.0,0.01
1630881244.99968195,112028504,2.04,1.88,-17.97,-17.98,117.53,117.93,0.0,0.01
1630881245.09964204,112128464,1.96,1.81,-17.99,-18.01,117.97,118.36,0.0,0.01
1630881245.19960213,112228424,1.91,1.77,-17.99,-18.02,118.4,118.74,0.0,0.01
1630881245.29956198,112328384,1.86,1.74,-17.96,-18.0,118.8,119.09,0.0,0.01
1630881245.39952207,112428344,1.8,1.7,-17.96,-17.98,119.17,119.42,0.0,0.01
1630881245.49948215,112528304,1.73,1.66,-17.98,-17.97,119.52,119.72,0.0,0.0
1630881245.59944201,112628264,1.64,1.6,-18.0,-17.99,119.85,120.01,0.0,0.0
1630881245.69940209,112728224,1.54,1.52,-18.01,-18.01,120.16,120.28,0.0,0.0
1630881245.79936194,112828184,1.46,1.43,-18.01,-18.02,120.45,120.55,0.0,0.0
1630881245.90015507,112928977,1.39,1.34,-18.01,-18.03,120.72,120.82,0.0,0.0
1630881246.00011516,113028937,1.34,1.27,-18.0,-18.03,120.97,121.07,0.0,0.0
1630881246.10007501,113128897,1.29,1.22,-18.0,-18.02,121.21,121.31,0.0,0.0
1630881246.20003510,113228857,1.24,1.17,-18.0,-18.01,121.43,121.54,0.0,0.0
1630881246.29999495,113328817,1.19,1.13,-17.99,-18.0,121.63,121.76,0.0,0.0
1630881246.39995503,113428777,1.11,1.07,-17.98,-17.99,121.83,121.96,0.0,0.0
1630881246.49991512,113528737,1.03,0.99,-18.0,-18.0,122.0,122.14,0.0,0.0
1630881246.59987497,113628697,0.96,0.91,-17.99,-18.01,122.17,122.32,0.0,0.0
1630881246.69983506,113728657,0.91,0.84,-17.98,-18.0,122.32,122.47,0.0,0.0
1630881246.79979515,113828617,0.89,0.8,-17.98,-17.99,122.47,122.62,0.0,0.0
1630881246.89975500,113928577,0.9,0.81,-17.97,-17.98,122.6,122.75,0.0,0.0
1630881246.99971509,114028537,0.89,0.82,-17.97,-17.98,122.73,122.87,0.0,0.0
1630881247.09967494,114128497,0.84,0.81,-17.99,-17.99,122.84,122.97,0.0,0.0
1630881247.19963503,114228457,0.83,0.79,-18.03,-18.02,122.95,123.07,0.0,0.0
1630881247.29959512,114328417,0.81,0.77,-18.06,-18.04,123.05,123.16,0.0,0.0
1630881247.39955497,114428377,0.78,0.75,-18.08,-18.07,123.15,123.24,0.0,0.0
1630881247.49951506,114528337,0.76,0.73,-18.11,-18.1,123.23,123.31,0.0,0.0
1630881247.59947515,114628297,0.73,0.7,-18.12,-18.13,123.31,123.39,0.0,0.0
1630881247.69943500,114728257,0.69,0.67,-18.12,-18.15,123.39,123.46,0.0,0.0
1630881247.79939508,114828217,0.63,0.62,-18.11,-18.14,123.45,123.52,0.0,0.0
1630881247.89935517,114928177,0.58,0.56,-18.09,-18.12,123.51,123.58,0.0,0.0
1630881248.00014806,115028970,0.55,0.5,-18.07,-18.09,123.57,123.64,0.0,0.0
1630881248.10010815,115128930,0.53,0.47,-18.07,-18.07,123.61,123.7,0.0,0.0
1630881248.20006800,115228890,0.53,0.46,-18.08,-18.07,123.66,123.74,0.0,0.0
1630881248.30002809,115328850,0.55,0.47,-18.08,-18.08,123.7,123.79,0.0,0.0
1630881248.39998794,115428810,0.56,0.5,-18.1,-18.09,123.74,123.82,0.0,0.0
1630881248.49994802,115528770,0.55,0.52,-18.11,-18.11,123.78,123.86,0.0,0.0
1630881248.59990811,115628730,0.51,0.5,-18.13,-18.13,123.81,123.89,0.0,0.0
1630881248.69986796,115728690,0.47,0.46,-18.12,-18.14,123.84,123.91,0.0,0.0
1630881248.79982805,115828650,0.46,0.43,-18.11,-18.13,123.87,123.93,0.0,0.0
1630881248.89978814,115928610,0.48,0.43,-18.12,-18.14,123.89,123.95,0.0,0.0
1630881248.99974799,116028570,0.48,0.45,-18.13,-18.14,123.92,123.97,0.0,0.0
1630881249.09970808,116128530,0.46,0.45,-18.15,-18.15,123.94,123.99,0.0,0.0
1630881249.19966817,116228490,0.45,0.44,-18.17,-18.17,123.96,124.01,0.0,0.0
1630881249.29962802,116328450,0.44,0.42,-18.17,-18.18,123.98,124.03,0.0,0.0
1630881249.39958811,116428410,0.41,0.38,-18.15,-18.17,124.0,124.05,0.0,0.0
1630881249.49954796,116528370,0.39,0.35,-18.16,-18.17,124.01,124.06,0.0,0.0
1630881249.59950805,116628330,0.4,0.34,-18.16,-18.18,124.02,124.08,0.0,0.0
1630881249.69946814,116728290,0.42,0.37,-18.15,-18.18,124.04,124.09,0.0,0.0
1630881249.79942799,116828250,0.4,0.38,-18.14,-18.17,124.05,124.11,0.0,0.0
1630881249.89938807,116928210,0.41,0.39,-18.13,-18.15,124.06,124.12,0.0,0.0
1630881249.99934816,117028170,0.41,0.39,-18.15,-18.15,124.07,124.12,0.0,0.0
1630881250.10014105,117128963,0.41,0.39,-18.14,-18.15,124.07,124.13,0.0,0.0
1630881250.20010114,117228923,0.4,0.38,-18.15,-18.15,124.08,124.14,0.0,0.0
1630881250.30006099,117328883,0.41,0.38,-18.18,-18.16,124.08,124.14,0.0,0.0
1630881250.40002108,117428843,0.41,0.38,-18.21,-18.19,124.09,124.15,0.0,0.0
1630881250.49998116,117528803,0.39,0.37,-18.19,-18.2,124.09,124.14,0.0,0.0
1630881250.59994102,117628763,0.38,0.36,-18.18,-18.2,124.1,124.14,0.0,0.0
1630881250.69990110,117728723,0.38,0.35,-18.18,-18.19,124.1,124.14,0.0,0.0
1630881250.79986095,117828683,0.37,0.34,-18.19,-18.2,124.1,124.14,0.0,0.0
1630881250.89982104,117928643,0.35,0.33,-18.21,-18.21,124.1,124.14,0.0,0.0
1630881250.99978113,118028603,0.35,0.32,-18.21,-18.23,124.11,124.14,0.0,0.0
1630881251.09974098,118128563,0.35,0.32,-18.2,-18.23,124.11,124.14,0.0,0.0
1630881251.19970107,118228523,0.36,0.33,-18.18,-18.21,124.11,124.14,0.0,0.0
1630881251.29966116,118328483,0.38,0.35,-18.16,-18.18,124.11,124.14,0.0,0.0
1630881251.39962101,118428443,0.39,0.37,-18.16,-18.17,124.11,124.14,0.0,0.0
1630881251.49958110,118528403,0.38,0.38,-18.19,-18.17,124.11,124.14,0.0,0.0
1630881251.59954095,118628363,0.36,0.36,-18.22,-18.2,124.11,124.14,0.0,0.0
1630881251.69950104,118728323,0.35,0.34,-18.23,-18.23,124.11,124.14,0.0,0.0
1630881251.79946113,118828283,0.32,0.31,-18.22,-18.23,124.11,124.14,0.0,0.0
1630881251.89942098,118928243,0.32,0.3,-18.23,-18.23,124.11,124.14,0.0,0.0
1630881251.99938107,119028203,0.31,0.29,-18.25,-18.24,124.1,124.15,0.0,0.0
1630881252.09934115,119128163,0.28,0.26,-18.27,-18.26,124.1,124.14,0.0,0.0
1630881252.20013404,119228956,0.26,0.23,-18.28,-18.28,124.1,124.14,0.0,0.0
1630881252.30009413,119328916,0.27,0.22,-18.23,-18.27,124.09,124.14,0.0,0.0
1630881252.40005398,119428876,0.32,0.26,-18.19,-18.22,124.09,124.13,0.0,0.0
1630881252.50001407,119528836,0.37,0.32,-18.2,-18.2,124.09,124.13,0.0,0.0
1630881252.59997416,119628796,0.38,0.37,-18.22,-18.21,124.09,124.12,0.0,0.0
1630881252.69993401,119728756,0.38,0.38,-18.23,-18.23,124.09,124.12,0.0,0.0
1630881252.79989409,119828716,0.37,0.38,-18.19,-18.22,124.09,124.11,0.0,0.0
1630881252.89985394,119928676,0.37,0.38,-18.18,-18.2,124.09,124.11,0.0,0.0
1630881252.99981403,120028636,0.38,0.38,-18.18,-18.2,124.09,124.12,0.0,0.0
1630881253.09977412,120128596,0.37,0.37,-18.2,-18.2,124.09,124.12,0.0,0.0
1630881253.19973397,120228556,0.35,0.36,-18.23,-18.22,124.09,124.12,0.0,0.0
1630881253.29969406,120328516,0.34,0.34,-18.25,-18.24,124.08,124.12,0.0,0.0
1630881253.39965415,120428476,0.36,0.33,-18.24,-18.25,124.08,124.12,0.0,0.0
1630881253.49961400,120528436,0.39,0.35,-18.22,-18.24,124.08,124.12,0.0,0.0
1630881253.59957409,120628396,0.42,0.39,-18.21,-18.23,124.08,124.12,0.0,0.0
1630881253.69953394,120728356,0.42,0.4,-18.23,-18.23,124.08,124.11,0.0,0.0
1630881253.79949403,120828316,0.39,0.39,-18.24,-18.24,124.08,124.11,0.0,0.0
1630881253.89945412,120928276,0.39,0.37,-18.23,-18.24,124.08,124.11,0.0,0.0
1630881253.99941397,121028236,0.4,0.37,-18.23,-18.24,124.09,124.11,0.0,0.0
1630881254.09937406,121128196,0.4,0.38,-18.23,-18.24,124.08,124.11,0.0,0.0
1630881254.19933414,121228156,0.37,0.37,-18.22,-18.23,124.09,124.11,0.0,0.0
1630881254.30012703,121328949,0.35,0.34,-18.2,-18.21,124.08,124.11,0.0,0.0
1630881254.40008712,121428909,0.35,0.33,-18.2,-18.21,124.08,124.11,0.0,0.0
1630881254.50004697,121528869,0.36,0.33,-18.21,-18.21,124.08,124.11,0.0,0.0
1630881254.60000706,121628829,0.39,0.35,-18.22,-18.21,124.08,124.11,0.0,0.0
1630881254.69996715,121728789,0.43,0.39,-18.22,-18.22,124.08,124.11,0.0,0.0
1630881254.79992700,121828749,0.45,0.43,-18.22,-18.24,124.09,124.11,0.0,0.0
1630881254.89988708,121928709,0.43,0.44,-18.23,-18.24,124.09,124.11,0.0,0.0
1630881254.99984717,122028669,0.41,0.42,-18.28,-18.27,124.09,124.11,0.0,0.0
1630881255.09980702,122128629,0.36,0.38,-18.31,-18.3,124.08,124.11,0.0,0.0
1630881255.19976711,122228589,0.33,0.33,-18.31,-18.33,124.08,124.1,0.0,0.0
1630881255.29972696,122328549,0.34,0.31,-18.29,-18.33,124.08,124.1,0.0,0.0
1630881255.39968705,122428509,0.39,0.33,-18.23,-18.28,124.08,124.1,0.0,0.0
1630881255.49964714,122528469,0.43,0.38,-18.17,-18.21,124.08,124.09,0.0,0.0
1630881255.59960699,122628429,0.46,0.42,-18.16,-18.17,124.08,124.09,0.0,0.0
1630881255.69956708,122728389,0.45,0.44,-18.2,-18.17,124.08,124.09,0.0,0.0
1630881255.79952717,122828349,0.42,0.43,-18.23,-18.21,124.08,124.09,0.0,0.0
1630881255.89948702,122928309,0.38,0.4,-18.27,-18.25,124.07,124.09,0.0,0.0
1630881255.99944711,123028269,0.33,0.34,-18.29,-18.3,124.07,124.09,0.0,0.0
1630881256.09940696,123128229,0.33,0.31,-18.31,-18.33,124.07,124.09,0.0,0.0
1630881256.19936705,123228189,0.36,0.31,-18.29,-18.34,124.07,124.09,0.0,0.0
1630881256.30016017,123328982,0.39,0.35,-18.27,-18.31,124.07,124.09,0.0,0.0
1630881256.40012002,123428942,0.41,0.38,-18.26,-18.29,124.07,124.09,0.0,0.0
1630881256.50008011,123528902,0.44,0.42,-18.24,-18.26,124.06,124.09,0.0,0.0
1630881256.60003996,123628862,0.48,0.46,-18.25,-18.25,124.06,124.09,0.0,0.0
1630881256.70000005,123728822,0.48,0.48,-18.25,-18.25,124.06,124.08,0.0,0.0
