timestamp,TimeUS,DesRoll,Roll,DesPitch,Pitch,DesYaw,Yaw,ErrRP,ErrYaw
1630877920.79999995,25828831,0.0,0.04,0.0,0.03,352.93,352.94,0.0,0.0
1630877920.89996004,25928791,0.0,0.04,0.0,0.03,352.93,352.94,0.0,0.0
1630877920.99991989,26028751,0.0,0.04,0.0,0.03,352.93,352.94,0.0,0.0
1630877921.09987998,26128711,0.0,0.04,0.0,0.03,352.93,352.94,0.0,0.0
1630877921.19984007,26228671,0.0,0.04,0.0,0.03,352.93,352.94,0.0,0.0
1630877921.29979992,26328631,0.0,0.04,0.0,0.03,352.93,352.94,0.0,0.0
1630877921.39976001,26428591,0.0,0.04,0.0,0.03,352.93,352.94,0.0,0.0
1630877921.49972010,26528551,0.0,0.04,0.0,0.03,352.93,352.94,0.0,0.0
1630877921.59967995,26628511,0.0,0.04,0.0,0.03,352.93,352.94,0.0,0.0
1630877921.69964004,26728471,0.0,0.04,0.0,0.03,352.93,352.94,0.0,0.0
1630877921.79959989,26828431,0.0,0.04,0.0,0.03,352.93,352.94,0.0,0.0
1630877921.89955997,26928391,0.0,0.04,0.0,0.03,352.93,352.94,0.0,0.0
1630877921.99952006,27028351,0.0,0.04,0.0,0.03,352.92,352.93,0.0,0.0
1630877922.09947991,27128311,0.0,0.04,0.0,0.03,352.92,352.93,0.0,0.0
1630877922.19944000,27228271,0.0,0.04,0.0,0.03,352.92,352.93,0.0,0.0
1630877922.29940009,27328231,0.0,0.04,0.0,0.03,352.92,352.93,0.0,0.0
1630877922.39935994,27428191,0.0,0.04,0.0,0.03,352.92,352.93,0.0,0.0
1630877922.50015306,27528984,0.0,0.04,0.0,0.03,352.92,352.93,0.0,0.0
1630877922.60011292,27628944,0.0,0.04,0.0,0.03,352.92,352.93,0.0,0.0
1630877922.70007300,27728904,0.0,0.04,0.0,0.03,352.92,352.93,0.0,0.0
1630877922.80003309,27828864,0.0,0.04,0.0,0.03,352.92,352.93,0.0,0.0
1630877922.89999294,27928824,0.0,0.04,0.0,0.03,352.92,352.93,0.0,0.0
1630877922.99995303,28028784,0.0,0.04,0.0,0.03,352.92,352.93,0.0,0.0
1630877923.09991288,28128744,0.0,0.04,0.0,0.03,352.92,352.93,0.0,0.0
1630877923.19987297,28228704,0.0,0.04,0.0,0.03,352.92,352.93,0.0,0.0
1630877923.29983306,28328664,0.0,0.05,0.0,0.03,352.92,352.93,0.0,0.0
1630877923.39979291,28428624,0.0,0.05,0.0,0.03,352.92,352.93,0.0,0.0
1630877923.49975300,28528584,0.0,0.05,0.0,0.03,352.92,352.93,0.0,0.0
1630877923.59971309,28628544,0.0,0.05,0.0,0.03,352.92,352.93,0.0,0.0
1630877923.69967294,28728504,0.0,0.05,0.0,0.03,352.92,352.93,0.0,0.0
1630877923.79963303,28828464,0.0,0.05,0.0,0.03,352.92,352.93,0.0,0.0
1630877923.89959288,28928424,0.0,0.05,0.0,0.03,352.92,352.93,0.0,0.0
1630877923.99955297,29028384,0.0,0.05,0.0,0.03,352.92,352.93,0.0,0.0
1630877924.09951305,29128344,0.0,0.05,0.0,0.04,352.92,352.93,0.0,0.0
1630877924.19947290,29228304,0.0,0.05,0.0,0.04,352.92,352.93,0.0,0.0
1630877924.29943299,29328264,0.0,0.05,0.0,0.04,352.92,352.93,0.0,0.0
1630877924.39939308,29428224,0.0,0.05,0.0,0.04,352.92,352.93,0.0,0.0
1630877924.49935293,29528184,0.0,0.05,0.0,0.04,352.92,352.93,0.0,0.0
1630877924.60014606,29628977,0.0,0.05,0.0,0.04,352.92,352.93,0.0,0.0
1630877924.70010591,29728937,0.0,0.05,0.0,0.04,352.92,352.93,0.0,0.0
1630877924.80006599,29828897,0.0,0.05,0.0,0.04,352.92,352.93,0.0,0.0
1630877924.90002608,29928857,0.0,0.05,0.0,0.04,352.92,352.93,0.0,0.0
1630877924.99998593,30028817,0.0,0.05,0.0,0.04,352.92,352.93,0.0,0.0
1630877925.09994602,30128777,0.0,0.05,0.0,0.04,352.92,352.93,0.0,0.0
1630877925.19990611,30228737,0.0,0.05,0.0,0.04,352.92,352.93,0.0,0.0
1630877925.29986596,30328697,0.0,0.05,0.0,0.04,352.91,352.92,0.0,0.0
1630877925.39982605,30428657,0.0,0.05,0.0,0.04,352.91,352.92,0.0,0.0
1630877925.49978590,30528617,0.0,0.05,0.0,0.04,352.91,352.92,0.0,0.0
1630877925.59974599,30628577,0.0,0.05,0.0,0.04,352.91,352.92,0.0,0.0
1630877925.69970608,30728537,0.0,0.05,0.0,0.04,352.91,352.92,0.0,0.0
1630877925.79966593,30828497,0.0,0.05,0.0,0.04,352.91,352.92,0.0,0.0
1630877925.89962602,30928457,0.0,0.05,0.0,0.04,352.91,352.92,0.0,0.0
1630877925.99958611,31028417,0.0,0.05,0.0,0.04,352.91,352.92,0.0,0.0
1630877926.09954596,31128377,0.0,0.05,0.0,0.04,352.91,352.92,0.0,0.0
1630877926.19950604,31228337,0.0,0.05,0.0,0.04,352.91,352.92,0.0,0.0
1630877926.29946589,31328297,0.0,0.05,0.0,0.04,352.91,352.92,0.0,0.0
1630877926.39942598,31428257,0.0,0.05,0.0,0.04,352.91,352.92,0.0,0.0
1630877926.49938607,31528217,0.0,0.05,0.0,0.04,352.91,352.92,0.0,0.0
1630877926.59934592,31628177,0.0,0.05,0.0,0.04,352.91,352.92,0.0,0.0
1630877926.70013905,31728970,0.0,0.05,0.0,0.04,352.91,352.92,0.0,0.0
1630877926.80009890,31828930,0.0,0.05,0.0,0.04,352.91,352.92,0.0,0.0
1630877926.90005898,31928890,0.0,0.05,0.0,0.04,352.91,352.92,0.0,0.0
1630877927.00001907,32028850,0.0,0.05,0.0,0.04,352.91,352.92,0.0,0.0
1630877927.09997892,32128810,0.0,0.05,0.0,0.04,352.91,352.92,0.0,0.0
1630877927.19993901,32228770,0.0,0.05,0.0,0.04,352.91,352.92,0.0,0.0
1630877927.29989910,32328730,0.0,0.05,0.0,0.04,352.91,352.92,0.0,0.0
1630877927.39985895,32428690,0.0,0.05,0.0,0.04,352.91,352.92,0.0,0.0
1630877927.49981904,32528650,0.0,0.05,0.0,0.04,352.91,352.92,0.0,0.0
1630877927.59977889,32628610,0.0,0.05,0.0,0.04,352.91,352.92,0.0,0.0
1630877927.69973898,32728570,0.0,0.06,0.0,0.04,352.91,352.92,0.0,0.0
1630877927.79969907,32828530,0.0,0.06,0.0,0.04,352.91,352.92,0.0,0.0
1630877927.89965892,32928490,0.0,0.06,0.0,0.04,352.91,352.92,0.0,0.0
1630877927.99961901,33028450,0.0,0.06,0.0,0.04,352.91,352.92,0.0,0.0
1630877928.09957910,33128410,0.0,0.06,0.0,0.04,352.91,352.92,0.0,0.0
1630877928.19953895,33228370,0.0,0.06,0.0,0.04,352.91,352.92,0.0,0.0
1630877928.29949903,33328330,0.0,0.06,0.0,0.04,352.91,352.92,0.0,0.0
1630877928.39945889,33428290,0.0,0.06,0.0,0.04,352.91,352.92,0.0,0.0
1630877928.49941897,33528250,0.0,0.06,0.0,0.04,352.91,352.92,0.0,0.0
1630877928.59937906,33628210,0.0,0.06,0.0,0.04,352.91,352.92,0.0,0.0
1630877928.69933891,33728170,0.0,0.06,0.0,0.05,352.91,352.92,0.0,0.0
1630877928.80013204,33828963,0.0,0.06,0.0,0.05,352.91,352.92,0.0,0.0
1630877928.90009189,33928923,0.0,0.06,0.0,0.05,352.91,352.92,0.0,0.0
1630877929.00005198,34028883,0.0,0.06,0.0,0.05,352.91,352.92,0.0,0.0
1630877929.10001206,34128843,0.0,0.06,0.0,0.05,352.91,352.92,0.0,0.0
1630877929.19997191,34228803,0.0,0.06,0.0,0.05,352.91,352.92,0.0,0.0
1630877929.29993200,34328763,0.0,0.06,0.0,0.05,352.91,352.92,0.0,0.0
1630877929.39989209,34428723,0.0,0.06,0.0,0.05,352.91,352.92,0.0,0.0
1630877929.49985194,34528683,0.0,0.06,0.0,0.05,352.91,352.92,0.0,0.0
1630877929.59981203,34628643,0.0,0.06,0.0,0.05,352.9,352.91,0.0,0.0
1630877929.69977188,34728603,0.0,0.06,0.0,0.05,352.9,352.91,0.0,0.0
1630877929.79973197,34828563,0.0,0.06,0.0,0.05,352.9,352.91,0.0,0.0
1630877929.89969206,34928523,0.0,0.06,0.0,0.05,352.9,352.91,0.0,0.0
1630877929.99965191,35028483,0.0,0.06,0.0,0.05,352.9,352.91,0.0,0.0
1630877930.09961200,35128443,0.0,0.06,0.0,0.05,352.9,352.91,0.0,0.0
1630877930.19957209,35228403,0.0,0.06,0.0,0.05,352.9,352.91,0.0,0.0
1630877930.29953194,35328363,0.0,0.06,0.0,0.05,352.9,352.91,0.0,0.0
1630877930.39949203,35428323,0.0,0.06,0.0,0.05,352.9,352.91,0.0,0.0
1630877930.49945211,35528283,0.0,0.06,0.0,0.05,352.9,352.91,0.0,0.0
1630877930.59941196,35628243,0.0,0.06,0.0,0.05,352.9,352.91,0.0,0.0
1630877930.69937205,35728203,0.0,0.06,0.0,0.05,352.9,352.91,0.0,0.0
1630877930.79933190,35828163,0.0,0.06,0.0,0.05,352.9,352.91,0.0,0.0
1630877930.90012503,35928956,0.0,0.06,0.0,0.05,352.9,352.91,0.0,0.0
1630877931.00008488,36028916,0.0,0.07,0.0,0.05,352.9,352.91,0.0,0.0
1630877931.10004497,36128876,0.0,0.07,0.0,0.05,352.9,352.91,0.0,0.0
1630877931.20000505,36228836,0.0,0.07,0.0,0.05,352.9,352.91,0.0,0.0
1630877931.29996490,36328796,0.0,0.07,0.0,0.05,352.9,352.91,0.0,0.0
1630877931.39992499,36428756,0.0,0.07,0.0,0.05,352.9,352.91,0.0,0.0
1630877931.49988508,36528716,0.0,0.07,0.0,0.05,352.9,352.91,0.0,0.0
1630877931.59984493,36628676,0.0,0.07,0.0,0.05,352.9,352.91,0.0,0.0
1630877931.69980502,36728636,0.0,0.07,0.0,0.05,352.9,352.91,0.0,0.0
1630877931.79976511,36828596,0.0,0.07,0.0,0.05,352.9,352.91,0.0,0.0
1630877931.89972496,36928556,0.0,0.07,0.0,0.05,352.9,352.91,0.0,0.0
1630877931.99968505,37028516,0.0,0.07,0.0,0.05,352.9,352.91,0.0,0.0
1630877932.09964490,37128476,0.0,0.07,0.0,0.05,352.9,352.91,0.0,0.0
1630877932.19960499,37228436,0.0,0.07,0.0,0.05,352.9,352.91,0.0,0.0
1630877932.29956508,37328396,0.0,0.07,0.0,0.05,352.9,352.91,0.0,0.0
1630877932.39952493,37428356,0.0,0.07,0.0,0.05,352.9,352.91,0.0,0.0
1630877932.49948502,37528316,0.0,0.07,0.0,0.05,352.9,352.91,0.0,0.0
1630877932.59944510,37628276,0.0,0.07,0.0,0.05,352.9,352.91,0.0,0.0
1630877932.69940495,37728236,0.0,0.07,0.0,0.05,352.9,352.91,0.0,0.0
1630877932.79936504,37828196,0.0,0.07,0.0,0.05,352.9,352.91,0.0,0.0
1630877932.89932489,37928156,0.0,0.07,0.0,0.05,352.9,352.91,0.0,0.0
1630877933.00011802,38028949,0.0,0.07,0.0,0.05,352.9,352.91,0.0,0.0
1630877933.10007811,38128909,0.0,0.07,0.0,0.05,352.9,352.91,0.0,0.0
1630877933.20003796,38228869,0.0,0.07,0.0,0.05,352.9,352.91,0.0,0.0
1630877933.29999804,38328829,0.0,0.07,0.0,0.05,352.9,352.91,0.0,0.0
1630877933.39995790,38428789,0.0,0.07,0.0,0.06,352.9,352.91,0.0,0.0
1630877933.49991798,38528749,0.0,0.07,0.0,0.06,352.9,352.91,0.0,0.0
1630877933.59987807,38628709,0.0,0.07,0.0,0.06,352.9,352.91,0.0,0.0
1630877933.69983792,38728669,0.0,0.07,0.0,0.06,352.9,352.91,0.0,0.0
1630877933.79979801,38828629,0.0,0.07,0.0,0.06,352.9,352.91,0.0,0.0
1630877933.89975810,38928589,0.0,0.07,0.0,0.06,352.9,352.91,0.0,0.0
1630877933.99971795,39028549,0.0,0.07,0.0,0.06,352.9,352.91,0.0,0.0
1630877934.09967804,39128509,0.0,0.07,0.0,0.06,352.9,352.91,0.0,0.0
1630877934.19963789,39228469,0.0,0.07,0.0,0.06,352.9,352.91,0.0,0.0
1630877934.29959798,39328429,0.0,0.07,0.0,0.06,352.9,352.91,0.0,0.0
1630877934.39955807,39428389,0.0,0.07,0.0,0.06,352.9,352.91,0.0,0.0
1630877934.49951792,39528349,0.0,0.07,0.0,0.06,352.9,352.91,0.0,0.0
1630877934.59947801,39628309,0.0,0.07,0.0,0.06,352.9,352.91,0.0,0.0
1630877934.69943810,39728269,0.0,0.08,0.0,0.06,352.9,352.91,0.0,0.0
1630877934.79939795,39828229,0.0,0.08,0.0,0.06,352.9,352.91,0.0,0.0
1630877934.89935803,39928189,0.0,0.08,0.0,0.06,352.89,352.9,0.0,0.0
1630877935.00015092,40028982,0.0,0.08,0.0,0.06,352.89,352.9,0.0,0.0
1630877935.10011101,40128942,0.0,0.08,0.0,0.06,352.89,352.9,0.0,0.0
1630877935.20007110,40228902,0.0,0.08,0.0,0.06,352.89,352.9,0.0,0.0
1630877935.30003095,40328862,0.0,0.08,0.0,0.06,352.89,352.9,0.0,0.0
1630877935.39999104,40428822,0.0,0.08,0.0,0.06,352.89,352.9,0.0,0.0
1630877935.49995089,40528782,0.0,0.08,0.0,0.07,352.89,352.9,0.0,0.0
1630877935.59991097,40628742,0.0,0.09,0.0,0.07,352.89,352.9,0.0,0.0
1630877935.69987106,40728702,0.0,0.09,0.0,0.07,352.89,352.9,0.0,0.0
1630877944.19980311,49228634,0.0,0.08,0.0,0.07,352.88,352.89,0.0,0.0
1630877944.29976296,49328594,0.0,0.08,0.0,0.07,352.88,352.89,0.0,0.0
1630877944.39972305,49428554,0.0,0.08,0.0,0.07,352.88,352.89,0.0,0.0
1630877944.49968290,49528514,0.0,0.08,0.0,0.07,352.88,352.89,0.0,0.0
1630877944.59964299,49628474,0.0,0.08,0.0,0.07,352.88,352.89,0.0,0.0
1630877944.69960308,49728434,0.0,0.08,0.0,0.07,352.88,352.89,0.0,0.0
1630877944.79956293,49828394,0.0,0.08,0.0,0.07,352.88,352.89,0.0,0.0
1630877944.89952302,49928354,0.0,0.08,0.0,0.07,352.88,352.89,0.0,0.0
1630877944.99948311,50028314,0.0,0.08,0.0,0.07,352.88,352.89,0.0,0.0
1630877945.09944296,50128274,0.0,0.08,0.0,0.07,352.88,352.89,0.0,0.0
1630877945.19940305,50228234,0.0,0.08,0.0,0.07,352.88,352.89,0.0,0.0
1630877945.29936290,50328194,0.0,0.08,0.0,0.07,352.89,352.9,0.0,0.0
1630877945.39932299,50428154,0.0,0.08,0.0,0.07,352.89,352.9,0.0,0.0
1630877945.50011611,50528947,0.0,0.08,0.0,0.07,352.89,352.9,0.0,0.0
1630877945.60007596,50628907,0.0,0.08,0.0,0.07,352.89,352.9,0.0,0.0
1630877945.70003605,50728867,0.0,0.08,0.0,0.07,352.89,352.9,0.0,0.0
1630877945.79999590,50828827,0.0,0.08,0.0,0.07,352.89,352.9,0.0,0.0
1630877945.89995599,50928787,0.0,0.08,0.0,0.07,352.89,352.9,0.0,0.0
1630877945.99991608,51028747,0.0,0.08,0.0,0.07,352.89,352.9,0.0,0.0
1630877946.09987593,51128707,0.0,0.08,0.0,0.07,352.89,352.9,0.0,0.0
1630877946.19983602,51228667,0.0,0.08,0.0,0.07,352.89,352.9,0.0,0.0
1630877946.29979610,51328627,0.0,0.08,0.0,0.07,352.89,352.9,0.0,0.0
1630877946.39975595,51428587,0.0,0.08,0.0,0.07,352.89,352.9,0.0,0.0
1630877946.49971604,51528547,0.0,0.08,0.0,0.07,352.89,352.9,0.0,0.0
1630877946.59967589,51628507,0.0,0.08,0.0,0.07,352.89,352.9,0.0,0.0
1630877946.69963598,51728467,0.0,0.08,0.0,0.07,352.89,352.9,0.0,0.0
1630877946.79959607,51828427,0.0,0.08,0.0,0.07,352.89,352.9,0.0,0.0
1630877946.89955592,51928387,0.0,0.08,0.0,0.07,352.89,352.9,0.0,0.0
1630877946.99951601,52028347,0.0,0.08,0.0,0.07,352.89,352.9,0.0,0.0
1630877947.09947610,52128307,0.0,0.08,0.0,0.07,352.89,352.9,0.0,0.0
1630877947.19943595,52228267,0.0,0.09,0.0,0.07,352.89,352.9,0.0,0.0
1630877947.29939604,52328227,0.0,0.08,0.0,0.07,352.89,352.9,0.0,0.0
1630877947.39935589,52428187,0.0,0.08,0.0,0.07,352.89,352.9,0.0,0.0
1630877947.50014901,52528980,0.0,0.08,0.0,0.07,352.89,352.9,0.0,0.0
1630877947.60010910,52628940,0.0,0.09,0.0,0.07,352.89,352.9,0.0,0.0
1630877947.70006895,52728900,0.0,0.09,0.0,0.07,352.89,352.9,0.0,0.0
1630877947.80002904,52828860,0.0,0.09,0.0,0.07,352.89,352.9,0.0,0.0
1630877947.89998889,52928820,0.0,0.09,0.0,0.07,352.89,352.9,0.0,0.0
1630877947.99994898,53028780,0.0,0.09,0.0,0.07,352.89,352.9,0.0,0.0
1630877948.09990907,53128740,0.0,0.09,0.0,0.07,352.89,352.9,0.0,0.0
1630877948.19986892,53228700,0.0,0.09,0.0,0.07,352.9,352.91,0.0,0.0
1630877948.29982901,53328660,0.0,0.09,0.0,0.07,352.9,352.91,0.0,0.0
1630877948.39978909,53428620,0.0,0.09,0.0,0.07,352.9,352.91,0.0,0.0
1630877948.49974895,53528580,0.0,0.09,0.0,0.07,352.9,352.91,0.0,0.0
1630877948.59970903,53628540,0.0,0.09,0.0,0.08,352.9,352.91,0.0,0.0
1630877948.69966888,53728500,0.0,0.09,0.0,0.08,352.9,352.91,0.0,0.0
1630877948.79962897,53828460,0.0,0.09,0.0,0.08,352.9,352.91,0.0,0.0
1630877948.89958906,53928420,0.0,0.09,0.0,0.08,352.9,352.91,0.0,0.0
1630877948.99954891,54028380,0.0,0.09,0.0,0.08,352.9,352.91,0.0,0.0
1630877949.09950900,54128340,0.0,0.09,0.0,0.08,352.9,352.91,0.0,0.0
1630877949.19946909,54228300,0.0,0.09,0.0,0.08,352.9,352.91,0.0,0.0
1630877949.29942894,54328260,-0.03,0.09,-0.03,0.08,352.9,352.91,0.0,0.0
1630877949.39938903,54428220,-0.08,0.09,-0.09,0.08,352.9,352.91,0.0,0.0
1630877949.49934888,54528180,-0.09,0.09,-0.11,0.08,352.9,352.91,0.0,0.0
1630877949.60014200,54628973,-0.15,0.09,-0.18,0.08,352.9,352.91,0.0,0.0
1630877949.70010209,54728933,-0.21,0.09,-0.24,0.08,352.9,352.91,0.0,0.0
1630877949.80006194,54828893,-0.26,0.09,-0.29,0.08,352.9,352.91,0.0,0.0
1630877949.90002203,54928853,-0.29,0.09,-0.33,0.08,352.9,352.91,0.0,0.0
1630877949.99998188,55028813,-0.33,0.09,-0.36,0.08,352.9,352.91,0.0,0.0
1630877950.09994197,55128773,-0.36,0.09,-0.38,0.08,352.9,352.91,0.0,0.0
1630877950.19990206,55228733,-0.38,0.09,-0.41,0.08,352.9,352.92,0.0,0.0
1630877950.29986191,55328693,-0.39,0.09,-0.41,0.08,352.9,352.92,0.0,0.0
1630877950.39982200,55428653,-0.39,0.09,-0.41,0.08,352.9,352.92,0.0,0.0
1630877950.49978209,55528613,-0.4,0.09,-0.47,0.08,352.9,352.92,0.0,0.0
1630877950.59974194,55628573,-0.42,0.09,-0.49,0.08,352.9,352.92,0.0,0.0
1630877950.69970202,55728533,-0.47,0.09,-0.5,0.08,352.9,352.92,0.0,0.0
1630877950.79966211,55828493,-0.49,0.09,-0.5,0.08,352.9,352.92,0.0,0.0
1630877950.89962196,55928453,-0.48,0.04,-0.51,0.02,352.9,352.92,0.0,0.0
1630877950.99958205,56028413,-0.49,-0.24,-0.53,-0.28,352.9,352.92,0.0,0.0
1630877951.09954190,56128373,-0.47,-0.58,-0.49,-0.62,352.9,352.92,0.0,0.0
1630877951.19950199,56228333,-0.37,-0.78,-0.39,-0.81,352.9,352.92,0.0,0.0
1630877951.29946208,56328293,-0.2,-0.77,-0.22,-0.81,352.9,352.91,0.0,0.0
1630877951.39942193,56428253,0.0,-0.62,0.01,-0.64,352.9,352.91,0.0,0.0
1630877951.49938202,56528213,0.22,-0.36,0.23,-0.36,352.9,352.9,0.0,0.0
1630877951.59934211,56628173,0.41,-0.07,0.4,-0.08,352.9,352.9,0.0,0.0
1630877951.70013499,56728966,0.52,0.15,0.47,0.12,352.9,352.9,0.0,0.0
1630877951.80009508,56828926,0.54,0.28,0.48,0.22,352.9,352.9,0.0,0.0
1630877951.90005493,56928886,0.5,0.31,0.47,0.24,352.9,352.9,0.0,0.0
1630877952.00001502,57028846,0.46,0.27,0.44,0.22,352.9,352.9,0.0,0.0
1630877952.09997511,57128806,0.41,0.21,0.44,0.2,352.9,352.9,0.0,0.0
1630877952.19993496,57228766,0.39,0.17,0.43,0.2,352.9,352.9,0.0,0.0
1630877952.29989505,57328726,0.41,0.17,0.46,0.22,352.9,352.9,0.0,0.0
1630877952.39985490,57428686,0.42,0.2,0.5,0.27,352.9,352.9,0.0,0.0
1630877952.49981499,57528646,0.4,0.22,0.53,0.33,352.9,352.9,0.0,0.0
1630877952.59977508,57628606,0.39,0.23,0.52,0.36,352.73,352.73,0.0,0.0
1630877952.69973493,57728566,0.41,0.25,0.52,0.37,352.73,352.73,0.0,0.0
1630877952.79969501,57828526,0.4,0.27,0.51,0.38,352.73,352.73,0.0,0.0
1630877952.89965510,57928486,0.38,0.27,0.48,0.36,352.73,352.73,0.0,0.0
1630877952.99961495,58028446,0.34,0.24,0.43,0.32,352.73,352.73,0.0,0.0
1630877953.09957504,58128406,0.29,0.21,0.37,0.28,352.73,352.73,0.0,0.0
1630877953.19953489,58228366,0.25,0.17,0.33,0.24,352.73,352.74,0.0,0.0
1630877953.29949498,58328326,0.21,0.13,0.3,0.2,352.73,352.74,0.0,0.0
1630877953.39945507,58428286,0.21,0.11,0.27,0.18,352.73,352.74,0.0,0.0
1630877953.49941492,58528246,0.2,0.1,0.26,0.16,352.73,352.74,0.0,0.0
1630877953.59937501,58628206,0.19,0.09,0.23,0.15,352.73,352.75,0.0,0.0
1630877953.69933510,58728166,0.19,0.1,0.23,0.16,352.73,352.75,0.0,0.0
1630877953.80012798,58828959,0.17,0.1,0.22,0.16,352.73,352.75,0.0,0.0
1630877953.90008807,58928919,0.16,0.1,0.17,0.14,352.73,352.74,0.0,0.0
1630877954.00004792,59028879,0.17,0.11,0.11,0.09,352.73,352.74,0.0,0.0
1630877954.10000801,59128839,0.17,0.14,0.07,0.04,352.73,352.74,0.0,0.0
1630877954.19996810,59228799,0.17,0.15,0.05,0.0,352.73,352.74,0.0,0.0
1630877954.29992795,59328759,0.17,0.15,0.07,0.0,352.73,352.74,0.0,0.0
1630877954.39988804,59428719,0.16,0.15,0.09,0.0,352.73,352.73,0.0,0.0
1630877954.49984789,59528679,0.13,0.13,0.08,0.03,352.73,352.73,0.0,0.0
1630877954.59980798,59628639,0.11,0.11,0.08,0.03,352.73,352.73,0.0,0.0
1630877954.69976807,59728599,0.07,0.07,0.06,0.03,352.73,352.73,0.0,0.0
1630877954.79972792,59828559,0.05,0.03,0.05,0.03,352.73,352.73,0.0,0.0
1630877954.89968801,59928519,0.05,0.01,0.04,0.03,352.73,352.73,0.0,0.0
1630877954.99964809,60028479,0.09,0.03,0.02,0.02,352.73,352.74,0.0,0.0
1630877955.09960794,60128439,0.09,0.05,0.0,0.0,352.73,352.74,0.0,0.0
1630877955.19956803,60228399,0.09,0.06,0.01,-0.01,352.73,352.74,0.0,0.0
1630877955.29952788,60328359,0.09,0.06,0.04,0.0,352.73,352.74,0.0,0.0
1630877955.39948797,60428319,0.09,0.07,0.06,0.02,352.73,352.74,0.0,0.0
1630877955.49944806,60528279,0.09,0.07,0.07,0.04,352.73,352.74,0.0,0.0
1630877955.59940791,60628239,0.09,0.06,0.06,0.05,352.73,352.74,0.0,0.0
1630877955.69936800,60728199,0.11,0.09,0.03,0.04,352.73,352.74,0.0,0.0
1630877955.79932809,60828159,0.15,0.13,0.05,0.04,352.73,352.74,0.0,0.0
1630877955.90012097,60928952,0.15,0.16,0.02,0.04,352.73,352.74,0.0,0.0
1630877956.00008106,61028912,0.13,0.16,0.01,0.02,352.73,352.74,0.0,0.0
1630877956.10004091,61128872,0.1,0.12,0.02,0.01,352.73,352.74,0.0,0.0
1630877956.20000100,61228832,0.11,0.1,0.04,0.02,352.73,352.74,0.0,0.0
1630877956.29996109,61328792,0.14,0.11,0.07,0.05,352.73,352.74,0.0,0.0
1630877956.39992094,61428752,0.15,0.13,0.09,0.08,352.73,352.74,0.0,0.0
1630877956.49988103,61528712,0.15,0.15,0.1,0.11,352.73,352.74,0.0,0.0
1630877956.59984088,61628672,0.15,0.15,0.1,0.12,352.73,352.74,0.0,0.0
1630877956.69980097,61728632,0.16,0.15,0.12,0.13,352.73,352.74,0.0,0.0
1630877956.79976106,61828592,0.17,0.15,0.15,0.15,352.73,352.74,0.0,0.0
1630877956.89972091,61928552,0.19,0.17,0.13,0.15,352.73,352.75,0.0,0.0
1630877956.99968100,62028512,0.19,0.18,0.08,0.11,352.73,352.75,0.0,0.0
1630877957.09964108,62128472,0.16,0.16,0.07,0.07,352.73,352.75,0.0,0.0
1630877957.19960093,62228432,0.16,0.14,0.09,0.06,352.73,352.75,0.0,0.0
1630877957.29956102,62328392,0.2,0.16,0.13,0.08,352.73,352.75,0.0,0.0
1630877957.39952111,62428352,0.22,0.18,0.17,0.12,352.73,352.75,0.0,0.0
1630877957.49948096,62528312,0.22,0.21,0.19,0.16,352.73,352.75,0.0,0.0
1630877957.59944105,62628272,0.18,0.2,0.18,0.18,352.73,352.75,0.0,0.0
1630877957.69940090,62728232,0.13,0.16,0.15,0.17,352.73,352.75,0.0,0.0
1630877957.79936099,62828192,0.12,0.12,0.13,0.15,352.73,352.75,0.0,0.0
1630877957.90015411,62928985,0.12,0.11,0.12,0.14,352.73,352.74,0.0,0.0
1630877958.00011396,63028945,0.11,0.1,0.11,0.12,352.73,352.74,0.0,0.0
1630877958.10007405,63128905,0.1,0.09,0.12,0.12,352.73,352.74,0.0,0.0
1630877958.20003390,63228865,0.09,0.08,0.13,0.11,352.73,352.73,0.0,0.0
1630877958.29999399,63328825,0.07,0.08,0.17,0.13,352.73,352.73,0.0,0.0
1630877958.39995408,63428785,0.08,0.07,0.22,0.17,352.73,352.73,0.0,0.0
1630877958.49991393,63528745,0.1,0.08,0.23,0.2,352.73,352.74,0.0,0.0
1630877958.59987402,63628705,0.11,0.09,0.23,0.22,352.73,352.74,0.0,0.0
1630877958.69983411,63728665,0.13,0.12,0.23,0.23,352.73,352.74,0.0,0.0
1630877958.79979396,63828625,0.13,0.12,0.21,0.22,352.73,352.74,0.0,0.0
1630877958.89975405,63928585,0.13,0.13,0.18,0.21,352.73,352.74,0.0,0.0
1630877958.99971390,64028545,0.12,0.12,0.16,0.18,352.73,352.74,0.0,0.0
1630877959.09967399,64128505,0.12,0.11,0.16,0.15,352.73,352.74,0.0,0.0
1630877959.19963408,64228465,0.1,0.1,0.15,0.14,352.73,352.74,0.0,0.0
1630877959.29959393,64328425,0.1,0.09,0.1,0.12,352.73,352.74,0.0,0.0
1630877959.39955401,64428385,0.1,0.08,0.08,0.09,352.73,352.74,0.0,0.0
1630877959.49951410,64528345,0.09,0.08,0.06,0.06,352.73,352.74,0.0,0.0
1630877959.59947395,64628305,0.11,0.08,0.05,0.04,352.73,352.74,0.0,0.0
1630877959.69943404,64728265,0.13,0.11,0.06,0.04,352.73,352.74,0.0,0.0
1630877959.79939389,64828225,0.12,0.12,0.05,0.03,352.73,352.74,0.0,0.0
1630877959.89935398,64928185,0.14,0.13,0.04,0.03,352.73,352.74,0.0,0.0
1630877960.00014710,65028978,0.14,0.14,0.06,0.04,352.73,352.74,0.0,0.0
1630877960.10010695,65128938,0.14,0.14,0.07,0.05,352.73,352.73,0.0,0.0
1630877960.20006704,65228898,0.16,0.15,0.08,0.07,352.73,352.73,0.0,0.0
1630877960.30002689,65328858,0.13,0.15,0.08,0.07,352.73,352.73,0.0,0.0
1630877960.39998698,65428818,0.07,0.09,0.1,0.09,352.73,352.73,0.0,0.0
1630877960.49994707,65528778,0.05,0.04,0.12,0.11,352.73,352.73,0.0,0.0
1630877960.59990692,65628738,0.04,0.01,0.12,0.12,352.73,352.73,0.0,0.0
1630877960.69986701,65728698,0.06,0.01,0.08,0.11,352.73,352.73,0.0,0.0
1630877960.79982710,65828658,0.07,0.02,0.06,0.08,352.73,352.73,0.0,0.0
1630877960.89978695,65928618,0.08,0.04,0.04,0.05,352.73,352.73,0.0,0.0
1630877960.99974704,66028578,0.09,0.06,0.01,0.01,352.73,352.73,0.0,0.0
1630877961.09970689,66128538,0.08,0.08,-0.01,-0.01,352.73,352.73,0.0,0.0
1630877961.19966698,66228498,0.06,0.08,-0.01,-0.03,352.73,352.73,0.0,0.0
1630877961.29962707,66328458,0.04,0.07,0.01,-0.02,352.73,352.73,0.0,0.0
1630877961.39958692,66428418,0.05,0.06,0.04,0.01,352.73,352.74,0.0,0.0
1630877961.49954700,66528378,0.05,0.05,0.06,0.05,352.73,352.74,0.0,0.0
1630877961.59950709,66628338,0.05,0.05,0.07,0.06,352.73,352.74,0.0,0.0
1630877961.69946694,66728298,0.05,0.05,0.06,0.07,352.73,352.74,0.0,0.0
1630877961.79942703,66828258,0.05,0.04,0.07,0.07,352.73,352.74,0.0,0.0
1630877961.89938688,66928218,0.07,0.05,0.04,0.06,352.73,352.74,0.0,0.0
1630877961.99934697,67028178,0.06,0.05,0.01,0.03,352.73,352.74,0.0,0.0
1630877962.10014009,67128971,0.05,0.04,0.0,0.01,352.73,352.74,0.0,0.0
1630877962.20009995,67228931,0.06,0.04,0.05,0.02,352.73,352.74,0.0,0.0
1630877962.30006003,67328891,0.12,0.08,0.09,0.06,352.73,352.74,0.0,0.0
1630877962.40001988,67428851,0.16,0.13,0.12,0.11,352.73,352.73,0.0,0.0
1630877962.49997997,67528811,0.19,0.19,0.13,0.13,352.73,352.73,0.0,0.0
1630877962.59994006,67628771,0.17,0.2,0.14,0.14,352.73,352.73,0.0,0.0
1630877962.69989991,67728731,0.16,0.19,0.15,0.15,352.73,352.72,0.0,0.0
1630877962.79986000,67828691,0.15,0.17,0.14,0.15,352.73,352.72,0.0,0.0
1630877962.89982009,67928651,0.13,0.15,0.12,0.14,352.73,352.72,0.0,0.0
1630877962.99977994,68028611,0.1,0.11,0.14,0.13,352.73,352.72,0.0,0.0
1630877963.09974003,68128571,0.07,0.07,0.14,0.13,352.73,352.72,0.0,0.0
1630877963.19969988,68228531,0.08,0.05,0.15,0.13,352.73,352.73,0.0,0.0
1630877963.29965997,68328491,0.11,0.07,0.17,0.15,352.73,352.73,0.0,0.0
1630877963.39962006,68428451,0.15,0.11,0.17,0.16,352.73,352.73,0.0,0.0
1630877963.49957991,68528411,0.18,0.16,0.17,0.17,352.73,352.74,0.0,0.0
1630877963.59954000,68628371,0.18,0.19,0.16,0.17,352.73,352.74,0.0,0.0
1630877963.69950008,68728331,0.17,0.2,0.13,0.15,352.73,352.74,0.0,0.0
1630877963.79945993,68828291,0.13,0.17,0.09,0.11,352.73,352.74,0.0,0.0
1630877963.89942002,68928251,0.13,0.14,0.09,0.07,352.73,352.74,0.0,0.0
1630877963.99938011,69028211,0.14,0.13,0.11,0.08,352.73,352.74,0.0,0.0
1630877964.09933996,69128171,0.15,0.13,0.13,0.1,352.73,352.74,0.0,0.0
1630877964.20013309,69228964,0.17,0.15,0.14,0.11,352.73,352.74,0.0,0.0
1630877964.30009294,69328924,0.17,0.16,0.18,0.15,352.73,352.74,0.0,0.0
1630877964.40005302,69428884,0.13,0.14,0.18,0.18,352.73,352.74,0.0,0.0
1630877964.50001311,69528844,0.11,0.11,0.17,0.17,352.73,352.74,0.0,0.0
1630877964.59997296,69628804,0.13,0.11,0.16,0.15,352.73,352.73,0.0,0.0
1630877964.69993305,69728764,0.16,0.14,0.14,0.13,352.73,352.73,0.0,0.0
1630877964.79989290,69828724,0.17,0.16,0.13,0.12,352.73,352.73,0.0,0.0
1630877964.89985299,69928684,0.15,0.16,0.16,0.13,352.73,352.73,0.0,0.0
1630877964.99981308,70028644,0.11,0.14,0.17,0.15,352.73,352.73,0.0,0.0
1630877965.09977293,70128604,0.08,0.1,0.13,0.15,352.73,352.73,0.0,0.0
1630877965.19973302,70228564,0.09,0.07,0.1,0.12,352.73,352.73,0.0,0.0
1630877965.29969311,70328524,0.13,0.09,0.08,0.1,352.73,352.73,0.0,0.0
1630877965.39965296,70428484,0.15,0.11,0.06,0.07,352.73,352.73,0.0,0.0
1630877965.49961305,70528444,0.13,0.13,0.05,0.04,352.73,352.73,0.0,0.0
1630877965.59957290,70628404,0.13,0.12,0.07,0.04,352.73,352.73,0.0,0.0
1630877965.69953299,70728364,0.11,0.11,0.06,0.04,352.73,352.74,0.0,0.0
1630877965.79949307,70828324,0.1,0.1,0.05,0.04,352.73,352.74,0.0,0.0
1630877965.89945292,70928284,0.1,0.1,0.07,0.05,352.73,352.74,0.0,0.0
1630877965.99941301,71028244,0.09,0.09,0.09,0.06,352.73,352.73,0.0,0.0
1630877966.09937310,71128204,0.07,0.07,0.12,0.09,352.73,352.73,0.0,0.0
1630877966.19933295,71228164,0.04,0.03,0.12,0.11,352.73,352.73,0.0,0.0
1630877966.30012608,71328957,0.04,0.03,0.11,0.1,352.73,352.73,0.0,0.0
1630877966.40008593,71428917,0.07,0.04,0.1,0.09,352.73,352.73,0.0,0.0
1630877966.50004601,71528877,0.1,0.06,0.09,0.08,352.73,352.73,0.0,0.0
1630877966.60000610,71628837,0.11,0.09,0.11,0.09,352.73,352.73,0.0,0.0
1630877966.69996595,71728797,0.13,0.12,0.12,0.1,352.73,352.73,0.0,0.0
1630877966.79992604,71828757,0.15,0.15,0.14,0.12,352.73,352.73,0.0,0.0
1630877966.89988589,71928717,0.13,0.15,0.14,0.15,352.73,352.73,0.0,0.0
1630877966.99984598,72028677,0.08,0.11,0.09,0.13,352.73,352.73,0.0,0.0
1630877967.09980607,72128637,0.06,0.07,0.04,0.08,352.73,352.73,0.0,0.0
1630877967.19976592,72228597,0.05,0.04,0.03,0.03,352.73,352.73,0.0,0.0
1630877967.29972601,72328557,0.05,0.02,0.04,0.02,352.73,352.73,0.0,0.0
1630877967.39968610,72428517,0.08,0.04,0.06,0.02,352.73,352.73,0.0,0.0
1630877967.49964595,72528477,0.1,0.07,0.08,0.04,352.73,352.73,0.0,0.0
1630877967.59960604,72628437,0.09,0.08,0.08,0.06,352.73,352.73,0.0,0.0
1630877967.69956589,72728397,0.04,0.07,0.11,0.08,352.73,352.73,0.0,0.0
1630877967.79952598,72828357,0.0,0.01,0.13,0.11,352.73,352.73,0.0,0.0
1630877967.89948606,72928317,-0.02,-0.03,0.1,0.12,352.73,352.73,0.0,0.0
1630877967.99944592,73028277,0.02,-0.03,0.06,0.09,352.73,352.74,0.0,0.0
1630877968.09940600,73128237,0.07,0.0,0.05,0.07,352.73,352.74,0.0,0.0
1630877968.19936609,73228197,0.09,0.04,0.03,0.04,352.73,352.74,0.0,0.0
1630877968.29932594,73328157,0.11,0.08,0.02,0.01,352.73,352.74,0.0,0.0
1630877968.40011907,73428950,0.13,0.12,0.06,0.02,352.73,352.74,0.0,0.0
1630877968.50007892,73528910,0.15,0.14,0.1,0.06,352.73,352.74,0.0,0.0
1630877968.60003901,73628870,0.14,0.14,0.1,0.09,352.73,352.74,0.0,0.0
1630877968.69999909,73728830,0.17,0.16,0.08,0.09,352.73,352.74,0.0,0.0
1630877968.79995894,73828790,0.2,0.19,0.06,0.07,352.73,352.74,0.0,0.0
1630877968.89991903,73928750,0.19,0.2,0.07,0.06,352.73,352.74,0.0,0.0
1630877968.99987888,74028710,0.16,0.18,0.08,0.07,352.73,352.74,0.0,0.0
1630877969.09983897,74128670,0.17,0.16,0.11,0.09,352.73,352.74,0.0,0.0
1630877969.19979906,74228630,0.19,0.16,0.15,0.12,352.73,352.74,0.0,0.0
1630877969.29975891,74328590,0.2,0.18,0.14,0.14,352.73,352.74,0.0,0.0
1630877969.39971900,74428550,0.19,0.18,0.12,0.13,352.73,352.73,0.0,0.0
1630877969.49967909,74528510,0.19,0.18,0.09,0.11,352.73,352.73,0.0,0.0
1630877969.59963894,74628470,0.18,0.18,0.04,0.07,352.73,352.74,0.0,0.0
1630877969.69959903,74728430,0.19,0.18,0.02,0.03,352.73,352.74,0.0,0.0
1630877969.79955888,74828390,0.19,0.19,0.01,0.01,352.73,352.74,0.0,0.0
1630877969.89951897,74928350,0.16,0.18,0.01,0.0,352.73,352.74,0.0,0.0
1630877969.99947906,75028310,0.12,0.14,0.03,0.0,352.73,352.73,0.0,0.0
1630877970.09943891,75128270,0.13,0.12,0.05,0.02,352.73,352.73,0.0,0.0
1630877970.19939899,75228230,0.16,0.15,0.04,0.03,352.73,352.73,0.0,0.0
1630877970.29935908,75328190,0.18,0.17,0.06,0.04,352.73,352.73,0.0,0.0
1630877970.40015197,75428983,0.22,0.2,0.07,0.06,352.73,352.73,0.0,0.0
1630877970.50011206,75528943,0.25,0.24,0.07,0.08,352.73,352.73,0.0,0.0
1630877970.60007191,75628903,0.24,0.26,0.03,0.06,352.73,352.73,0.0,0.0
1630877970.70003200,75728863,0.19,0.23,0.04,0.04,352.73,352.73,0.0,0.0
1630877970.79999208,75828823,0.16,0.18,0.06,0.04,352.73,352.73,0.0,0.0
1630877970.89995193,75928783,0.17,0.15,0.06,0.04,352.73,352.73,0.0,0.0
1630877970.99991202,76028743,0.19,0.15,0.07,0.05,352.73,352.73,0.0,0.0
1630877971.09987211,76128703,0.18,0.16,0.09,0.06,352.73,352.74,0.0,0.0
1630877971.19983196,76228663,0.17,0.15,0.11,0.09,352.73,352.74,0.0,0.0
1630877971.29979205,76328623,0.19,0.17,0.09,0.1,352.73,352.74,0.0,0.0
1630877971.39975190,76428583,0.22,0.2,0.09,0.08,352.73,352.74,0.0,0.0
1630877971.49971199,76528543,0.22,0.22,0.12,0.1,352.73,352.74,0.0,0.0
1630877971.59967208,76628503,0.22,0.23,0.13,0.13,352.73,352.74,0.0,0.0
1630877971.69963193,76728463,0.19,0.21,0.13,0.14,352.73,352.74,0.0,0.0
1630877971.79959202,76828423,0.15,0.17,0.13,0.14,352.73,352.74,0.0,0.0
1630877971.89955211,76928383,0.12,0.13,0.15,0.15,352.73,352.74,0.0,0.0
1630877971.99951196,77028343,0.1,0.09,0.14,0.15,352.73,352.74,0.0,0.0
1630877972.09947205,77128303,0.13,0.08,0.13,0.13,352.73,352.74,0.0,0.0
1630877972.19943190,77228263,0.17,0.12,0.15,0.13,352.73,352.74,0.0,0.0
1630877972.29939198,77328223,0.2,0.18,0.14,0.14,352.73,352.74,0.0,0.0
1630877972.39935207,77428183,0.19,0.2,0.12,0.13,352.73,352.74,0.0,0.0
1630877972.50014496,77528976,0.14,0.18,0.13,0.11,352.73,352.73,0.0,0.0
1630877972.60010505,77628936,0.09,0.12,0.12,0.11,352.73,352.73,0.0,0.0
1630877972.70006490,77728896,0.08,0.08,0.09,0.1,352.73,352.73,0.0,0.0
1630877972.80002499,77828856,0.1,0.07,0.1,0.09,352.73,352.73,0.0,0.0
1630877972.89998507,77928816,0.11,0.08,0.13,0.11,352.73,352.73,0.0,0.0
1630877972.99994493,78028776,0.13,0.1,0.15,0.14,352.73,352.73,0.0,0.0
1630877973.09990501,78128736,0.14,0.12,0.11,0.13,352.73,352.72,0.0,0.0
1630877973.19986510,78228696,0.13,0.13,0.04,0.07,352.73,352.73,0.0,0.0
1630877973.29982495,78328656,0.1,0.12,0.0,0.01,352.73,352.73,0.0,0.0
1630877973.39978504,78428616,0.09,0.1,0.02,-0.01,352.73,352.73,0.0,0.0
1630877973.49974489,78528576,0.09,0.09,0.09,0.03,352.73,352.73,0.0,0.0
1630877973.59970498,78628536,0.09,0.08,0.14,0.1,352.73,352.74,0.0,0.0
1630877973.69966507,78728496,0.08,0.07,0.17,0.15,352.73,352.74,0.0,0.0
1630877973.79962492,78828456,0.06,0.05,0.17,0.18,352.73,352.74,0.0,0.0
1630877973.89958501,78928416,0.06,0.05,0.15,0.17,352.73,352.74,0.0,0.0
1630877973.99954510,79028376,0.06,0.05,0.13,0.14,352.73,352.74,0.0,0.0
1630877974.09950495,79128336,0.08,0.05,0.11,0.12,352.73,352.74,0.0,0.0
1630877974.19946504,79228296,0.09,0.07,0.09,0.09,352.73,352.74,0.0,0.0
1630877974.29942489,79328256,0.07,0.07,0.09,0.07,352.73,352.74,0.0,0.0
1630877974.39938498,79428216,0.05,0.05,0.13,0.09,352.73,352.73,0.0,0.0
1630877974.49934506,79528176,0.05,0.04,0.17,0.14,352.73,352.73,0.0,0.0
1630877974.60013795,79628969,0.08,0.05,0.19,0.17,352.73,352.73,0.0,0.0
1630877974.70009804,79728929,0.11,0.09,0.18,0.19,352.73,352.73,0.0,0.0
1630877974.80005789,79828889,0.12,0.13,0.17,0.19,352.73,352.73,0.0,0.0
1630877974.90001798,79928849,0.08,0.11,0.14,0.17,352.73,352.73,0.0,0.0
1630877974.99997807,80028809,0.03,0.06,0.1,0.13,352.73,352.73,0.0,0.0
1630877975.09993792,80128769,0.02,0.02,0.09,0.09,352.73,352.73,0.0,0.0
1630877975.19989800,80228729,0.05,0.01,0.1,0.07,352.73,352.73,0.0,0.0
1630877975.29985809,80328689,0.09,0.03,0.13,0.08,352.73,352.73,0.0,0.0
1630877975.39981794,80428649,0.12,0.08,0.14,0.11,352.73,352.73,0.0,0.0
1630877975.49977803,80528609,0.16,0.13,0.13,0.11,352.73,352.73,0.0,0.0
1630877975.59973788,80628569,0.18,0.17,0.13,0.12,352.73,352.73,0.0,0.0
1630877975.69969797,80728529,0.2,0.2,0.14,0.12,352.73,352.73,0.0,0.0
1630877975.79965806,80828489,0.19,0.2,0.15,0.13,352.73,352.73,0.0,0.0
1630877975.89961791,80928449,0.16,0.18,0.15,0.15,352.73,352.73,0.0,0.0
1630877975.99957800,81028409,0.15,0.16,0.16,0.15,352.73,352.73,0.0,0.0
1630877976.09953809,81128369,0.15,0.15,0.14,0.15,352.73,352.73,0.0,0.0
1630877976.19949794,81228329,0.15,0.14,0.12,0.13,352.73,352.73,0.0,0.0
1630877976.29945803,81328289,0.14,0.14,0.09,0.11,352.73,352.74,0.0,0.0
1630877976.39941788,81428249,0.14,0.14,0.07,0.08,352.73,352.74,0.0,0.0
1630877976.49937797,81528209,0.16,0.15,0.09,0.07,352.73,352.74,0.0,0.0
1630877976.59933805,81628169,0.17,0.15,0.1,0.08,352.73,352.74,0.0,0.0
1630877976.70013094,81728962,0.17,0.15,0.13,0.11,352.73,352.74,0.0,0.0
1630877976.80009103,81828922,0.18,0.16,0.17,0.15,352.73,352.74,0.0,0.0
1630877976.90005088,81928882,0.17,0.16,0.19,0.19,352.73,352.74,0.0,0.0
1630877977.00001097,82028842,0.18,0.15,0.2,0.22,352.73,352.74,0.0,0.0
1630877977.09997106,82128802,0.15,0.15,0.18,0.22,352.73,352.73,0.0,0.0
1630877977.19993091,82228762,0.1,0.11,0.12,0.17,352.73,352.73,0.0,0.0
1630877977.29989100,82328722,0.09,0.08,0.08,0.11,352.73,352.73,0.0,0.0
1630877977.39985108,82428682,0.09,0.07,0.09,0.07,352.73,352.73,0.0,0.0
1630877977.49981093,82528642,0.11,0.06,0.13,0.09,352.73,352.73,0.0,0.0
1630877977.59977102,82628602,0.13,0.08,0.15,0.11,352.73,352.73,0.0,0.0
1630877977.69973111,82728562,0.16,0.12,0.16,0.14,352.73,352.73,0.0,0.0
1630877977.79969096,82828522,0.17,0.16,0.14,0.14,352.73,352.73,0.0,0.0
1630877977.89965105,82928482,0.18,0.18,0.11,0.12,352.73,352.73,0.0,0.0
1630877977.99961090,83028442,0.17,0.19,0.11,0.1,352.73,352.73,0.0,0.0
1630877978.09957099,83128402,0.12,0.16,0.1,0.09,352.73,352.73,0.0,0.0
1630877978.19953108,83228362,0.08,0.11,0.11,0.09,352.73,352.73,0.0,0.0
1630877978.29949093,83328322,0.08,0.08,0.13,0.1,352.73,352.73,0.0,0.0
1630877978.39945102,83428282,0.08,0.07,0.14,0.12,352.73,352.73,0.0,0.0
1630877978.49941111,83528242,0.07,0.06,0.17,0.14,352.73,352.74,0.0,0.0
1630877978.59937096,83628202,0.08,0.07,0.18,0.16,352.73,352.74,0.0,0.0
1630877978.69933105,83728162,0.09,0.08,0.2,0.18,352.73,352.74,0.0,0.0
1630877978.80012393,83828955,0.12,0.09,0.19,0.2,352.73,352.74,0.0,0.0
1630877978.90008402,83928915,0.15,0.12,0.17,0.18,352.73,352.74,0.0,0.0
1630877979.00004411,84028875,0.17,0.14,0.16,0.16,352.73,352.74,0.0,0.0
1630877979.10000396,84128835,0.2,0.17,0.14,0.14,352.73,352.74,0.0,0.0
1630877979.19996405,84228795,0.21,0.22,0.1,0.11,352.73,352.74,0.0,0.0
1630877979.29992390,84328755,0.19,0.22,0.1,0.09,352.73,352.73,0.0,0.0
1630877979.39988399,84428715,0.17,0.2,0.11,0.09,352.73,352.73,0.0,0.0
1630877979.49984407,84528675,0.14,0.16,0.1,0.09,352.73,352.73,0.0,0.0
1630877979.59980392,84628635,0.14,0.13,0.08,0.07,352.73,352.73,0.0,0.0
1630877979.69976401,84728595,0.13,0.12,0.06,0.06,352.73,352.73,0.0,0.0
1630877979.79972410,84828555,0.16,0.12,0.06,0.05,352.73,352.73,0.0,0.0
1630877979.89968395,84928515,0.17,0.14,0.09,0.06,352.73,352.72,0.0,0.0
1630877979.99964404,85028475,0.15,0.14,0.11,0.08,352.73,352.72,0.0,0.0
1630877980.09960389,85128435,0.13,0.13,0.14,0.12,352.73,352.72,0.0,0.0
1630877980.19956398,85228395,0.11,0.11,0.18,0.16,352.73,352.72,0.0,0.0
1630877980.29952407,85328355,0.11,0.09,0.21,0.21,352.73,352.72,0.0,0.0
1630877980.39948392,85428315,0.13,0.08,0.22,0.24,352.73,352.73,0.0,0.0
1630877980.49944401,85528275,0.17,0.12,0.16,0.22,352.73,352.73,0.0,0.0
1630877980.59940410,85628235,0.16,0.15,0.09,0.14,352.73,352.73,0.0,0.0
1630877980.69936395,85728195,0.13,0.15,0.05,0.07,352.73,352.73,0.0,0.0
1630877980.79932404,85828155,0.13,0.14,0.04,0.02,352.73,352.73,0.0,0.0
1630877980.90011692,85928948,0.13,0.14,0.06,0.02,352.73,352.73,0.0,0.0
1630877981.00007701,86028908,0.13,0.13,0.08,0.03,352.73,352.73,0.0,0.0
1630877981.10003710,86128868,0.12,0.12,0.11,0.07,352.73,352.73,0.0,0.0
1630877981.19999695,86228828,0.14,0.12,0.13,0.1,352.73,352.73,0.0,0.0
1630877981.29995704,86328788,0.16,0.14,0.11,0.11,352.73,352.73,0.0,0.0
1630877981.39991689,86428748,0.17,0.15,0.11,0.11,352.73,352.73,0.0,0.0
1630877981.49987698,86528708,0.17,0.17,0.07,0.09,352.73,352.73,0.0,0.0
1630877981.59983706,86628668,0.14,0.16,0.06,0.05,352.73,352.73,0.0,0.0
1630877981.69979692,86728628,0.1,0.12,0.11,0.07,352.73,352.73,0.0,0.0
1630877981.79975700,86828588,0.05,0.07,0.14,0.11,352.73,352.73,0.0,0.0
1630877981.89971709,86928548,0.04,0.02,0.14,0.15,352.73,352.73,0.0,0.0
1630877981.99967694,87028508,0.07,0.01,0.12,0.15,352.73,352.73,0.0,0.0
1630877982.09963703,87128468,0.13,0.06,0.12,0.14,352.73,352.73,0.0,0.0
1630877982.19959688,87228428,0.17,0.13,0.12,0.13,352.73,352.73,0.0,0.0
1630877982.29955697,87328388,0.16,0.16,0.1,0.11,352.73,352.73,0.0,0.0
1630877982.39951706,87428348,0.16,0.16,0.07,0.07,352.73,352.73,0.0,0.0
1630877982.49947691,87528308,0.15,0.15,0.05,0.03,352.73,352.73,0.0,0.0
1630877982.59943700,87628268,0.14,0.14,0.05,0.02,352.73,352.73,0.0,0.0
1630877982.69939709,87728228,0.15,0.14,0.07,0.03,352.73,352.73,0.0,0.0
1630877982.79935694,87828188,0.16,0.15,0.11,0.06,352.73,352.74,0.0,0.0
1630877982.90015006,87928981,0.11,0.14,0.13,0.1,352.73,352.74,0.0,0.0
1630877983.00010991,88028941,0.06,0.09,0.14,0.13,352.73,352.74,0.0,0.0
1630877983.10007000,88128901,0.06,0.05,0.14,0.15,352.73,352.74,0.0,0.0
1630877983.20003009,88228861,0.09,0.05,0.14,0.15,352.73,352.74,0.0,0.0
1630877983.29998994,88328821,0.1,0.07,0.14,0.15,352.73,352.74,0.0,0.0
1630877983.39995003,88428781,0.11,0.09,0.11,0.14,352.73,352.74,0.0,0.0
1630877983.49990988,88528741,0.1,0.1,0.1,0.11,352.73,352.74,0.0,0.0
1630877983.59986997,88628701,0.08,0.08,0.1,0.11,352.73,352.74,0.0,0.0
1630877983.69983006,88728661,0.09,0.07,0.08,0.09,352.73,352.74,0.0,0.0
1630877983.79978991,88828621,0.11,0.08,0.07,0.07,352.73,352.73,0.0,0.0
1630877983.89974999,88928581,0.12,0.1,0.11,0.07,352.73,352.73,0.0,0.0
1630877983.99971008,89028541,0.16,0.14,0.15,0.1,352.73,352.73,0.0,0.0
1630877984.09966993,89128501,0.2,0.18,0.16,0.14,352.73,352.72,0.0,0.0
1630877984.19963002,89228461,0.2,0.2,0.17,0.15,352.73,352.72,0.0,0.0
1630877984.29959011,89328421,0.19,0.2,0.17,0.16,352.73,352.73,0.0,0.0
1630877984.39954996,89428381,0.17,0.18,0.17,0.16,352.73,352.73,0.0,0.0
1630877984.49951005,89528341,0.17,0.17,0.17,0.17,352.73,352.73,0.0,0.0
1630877984.59946990,89628301,0.19,0.18,0.15,0.16,352.73,352.73,0.0,0.0
1630877984.69942999,89728261,0.17,0.17,0.16,0.16,352.73,352.73,0.0,0.0
1630877984.79939008,89828221,0.15,0.15,0.17,0.16,352.73,352.73,0.0,0.0
1630877984.89934993,89928181,0.15,0.14,0.18,0.17,352.73,352.73,0.0,0.0
1630877985.00014305,90028974,0.18,0.16,0.18,0.18,352.73,352.73,0.0,0.0
1630877985.10010290,90128934,0.19,0.17,0.18,0.19,352.73,352.73,0.0,0.0
1630877985.20006299,90228894,0.2,0.18,0.18,0.19,352.73,352.73,0.0,0.0
1630877985.30002308,90328854,0.21,0.2,0.18,0.18,352.73,352.73,0.0,0.0
1630877985.39998293,90428814,0.19,0.19,0.18,0.18,352.73,352.73,0.0,0.0
1630877985.49994302,90528774,0.17,0.17,0.19,0.17,352.73,352.73,0.0,0.0
1630877985.59990311,90628734,0.16,0.16,0.17,0.16,352.73,352.73,0.0,0.0
1630877985.69986296,90728694,0.15,0.14,0.15,0.14,352.73,352.73,0.0,0.0
1630877985.79982305,90828654,0.17,0.15,0.13,0.11,352.73,352.73,0.0,0.0
1630877985.89978290,90928614,0.19,0.18,0.14,0.1,352.73,352.73,0.0,0.0
1630877985.99974298,91028574,0.17,0.19,0.16,0.12,352.73,352.73,0.0,0.0
1630877986.09970307,91128534,0.11,0.16,0.18,0.14,352.73,352.73,0.0,0.0
1630877986.19966292,91228494,0.07,0.09,0.2,0.17,352.73,352.73,0.0,0.0
1630877986.29962301,91328454,0.07,0.05,0.2,0.19,352.73,352.73,0.0,0.0
1630877986.39958310,91428414,0.07,0.04,0.17,0.19,352.73,352.73,0.0,0.0
1630877986.49954295,91528374,0.07,0.04,0.14,0.16,352.73,352.73,0.0,0.0
1630877986.59950304,91628334,0.09,0.05,0.12,0.14,352.73,352.73,0.0,0.0
1630877986.69946289,91728294,0.09,0.07,0.15,0.14,352.73,352.73,0.0,0.0
1630877986.79942298,91828254,0.1,0.09,0.14,0.14,352.73,352.73,0.0,0.0
1630877986.89938307,91928214,0.16,0.13,0.12,0.12,352.73,352.73,0.0,0.0
1630877986.99934292,92028174,0.18,0.18,0.11,0.11,352.73,352.73,0.0,0.0
1630877987.10013604,92128967,0.17,0.19,0.12,0.1,352.73,352.73,0.0,0.0
1630877987.20009589,92228927,0.15,0.17,0.15,0.12,352.73,352.73,0.0,0.0
1630877987.30005598,92328887,0.16,0.16,0.19,0.15,352.73,352.73,0.0,0.0
1630877987.40001607,92428847,0.17,0.15,0.19,0.18,352.73,352.73,0.0,0.0
1630877987.49997592,92528807,0.17,0.16,0.18,0.18,352.73,352.73,0.0,0.0
1630877987.59993601,92628767,0.18,0.16,0.19,0.18,352.73,352.73,0.0,0.0
1630877987.69989610,92728727,0.19,0.17,0.19,0.19,352.73,352.73,0.0,0.0
1630877987.79985595,92828687,0.16,0.17,0.14,0.16,352.73,352.73,0.0,0.0
1630877987.89981604,92928647,0.16,0.16,0.1,0.11,352.73,352.73,0.0,0.0
1630877987.99977589,93028607,0.17,0.15,0.1,0.09,352.73,352.73,0.0,0.0
1630877988.09973598,93128567,0.16,0.14,0.09,0.07,352.73,352.73,0.0,0.0
1630877988.19969606,93228527,0.15,0.14,0.12,0.08,352.73,352.73,0.0,0.0
1630877988.29965591,93328487,0.16,0.14,0.13,0.11,352.73,352.73,0.0,0.0
1630877988.39961600,93428447,0.19,0.17,0.13,0.12,352.73,352.73,0.0,0.0
1630877988.49957609,93528407,0.22,0.2,0.11,0.12,352.73,352.73,0.0,0.0
1630877988.59953594,93628367,0.2,0.21,0.1,0.11,352.73,352.73,0.0,0.0
1630877988.69949603,93728327,0.17,0.19,0.09,0.09,352.73,352.73,0.0,0.0
1630877988.79945588,93828287,0.16,0.16,0.1,0.09,352.73,352.73,0.0,0.0
1630877988.89941597,93928247,0.16,0.15,0.11,0.1,352.73,352.73,0.0,0.0
1630877988.99937606,94028207,0.17,0.16,0.12,0.1,352.73,352.73,0.0,0.0
1630877989.09933591,94128167,0.17,0.16,0.13,0.12,352.73,352.73,0.0,0.0
1630877989.20012903,94228960,0.19,0.17,0.13,0.13,352.73,352.73,0.0,0.0
1630877989.30008888,94328920,0.24,0.2,0.13,0.14,352.73,352.73,0.0,0.0
1630877989.40004897,94428880,0.25,0.23,0.14,0.13,352.73,352.73,0.0,0.0
1630877989.50000906,94528840,0.23,0.24,0.14,0.13,352.73,352.73,0.0,0.0
1630877989.59996891,94628800,0.21,0.22,0.14,0.13,352.73,352.73,0.0,0.0
1630877989.69992900,94728760,0.21,0.21,0.12,0.12,352.73,352.73,0.0,0.0
1630877989.79988909,94828720,0.22,0.2,0.1,0.1,352.73,352.73,0.0,0.0
1630877989.89984894,94928680,0.22,0.21,0.08,0.08,352.73,352.73,0.0,0.0
1630877989.99980903,95028640,0.2,0.2,0.08,0.06,352.73,352.73,0.0,0.0
1630877990.09976888,95128600,0.18,0.18,0.09,0.07,352.73,352.73,0.0,0.0
1630877990.19972897,95228560,0.16,0.16,0.09,0.07,352.73,352.73,0.0,0.0
1630877990.29968905,95328520,0.18,0.15,0.1,0.08,352.73,352.73,0.0,0.0
1630877990.39964890,95428480,0.21,0.18,0.12,0.1,352.73,352.73,0.0,0.0
1630877990.49960899,95528440,0.2,0.2,0.16,0.13,352.73,352.73,0.0,0.0
1630877990.59956908,95628400,0.18,0.19,0.2,0.17,352.73,352.73,0.0,0.0
1630877990.69952893,95728360,0.16,0.16,0.22,0.22,352.73,352.73,0.0,0.0
1630877990.79948902,95828320,0.14,0.14,0.24,0.24,352.73,352.73,0.0,0.0
1630877990.89944911,95928280,0.13,0.12,0.22,0.24,352.73,352.73,0.0,0.0
1630877990.99940896,96028240,0.15,0.12,0.18,0.2,352.73,352.73,0.0,0.0
1630877991.09936905,96128200,0.17,0.14,0.16,0.17,352.73,352.73,0.0,0.0
1630877991.19932890,96228160,0.15,0.15,0.19,0.16,352.73,352.73,0.0,0.0
1630877991.30012202,96328953,0.16,0.15,0.21,0.18,352.73,352.73,0.0,0.0
1630877991.40008211,96428913,0.18,0.17,0.22,0.2,352.73,352.73,0.0,0.0
1630877991.50004196,96528873,0.2,0.19,0.25,0.23,352.73,352.73,0.0,0.0
1630877991.60000205,96628833,0.22,0.21,0.24,0.24,352.73,352.73,0.0,0.0
1630877991.69996190,96728793,0.22,0.22,0.22,0.23,352.73,352.73,0.0,0.0
1630877991.79992199,96828753,0.21,0.21,0.19,0.2,352.73,352.73,0.0,0.0
1630877991.89988208,96928713,0.18,0.19,0.19,0.18,352.73,352.73,0.0,0.0
1630877991.99984193,97028673,0.15,0.15,0.17,0.17,352.73,352.73,0.0,0.0
1630877992.09980202,97128633,0.12,0.12,0.17,0.16,352.73,352.73,0.0,0.0
1630877992.19976211,97228593,0.13,0.11,0.16,0.14,352.73,352.73,0.0,0.0
1630877992.29972196,97328553,0.14,0.12,0.17,0.15,352.73,352.73,0.0,0.0
1630877992.39968204,97428513,0.12,0.11,0.18,0.16,352.73,352.73,0.0,0.0
1630877992.49964190,97528473,0.11,0.1,0.18,0.17,352.73,352.73,0.0,0.0
1630877992.59960198,97628433,0.12,0.1,0.18,0.17,352.73,352.73,0.0,0.0
1630877992.69956207,97728393,0.13,0.11,0.19,0.17,352.73,352.73,0.0,0.0
1630877992.79952192,97828353,0.12,0.11,0.17,0.17,352.73,352.73,0.0,0.0
1630877992.89948201,97928313,0.12,0.11,0.14,0.15,352.73,352.73,0.0,0.0
1630877992.99944210,98028273,0.14,0.12,0.1,0.11,352.73,352.73,0.0,0.0
1630877993.09940195,98128233,0.15,0.14,0.1,0.09,352.73,352.73,0.0,0.0
1630877993.19936204,98228193,0.14,0.15,0.12,0.09,352.73,352.73,0.0,0.0
1630877993.30015492,98328986,0.13,0.14,0.12,0.1,352.73,352.73,0.0,0.0
1630877993.40011501,98428946,0.13,0.13,0.14,0.11,352.73,352.73,0.0,0.0
1630877993.50007510,98528906,0.12,0.12,0.16,0.15,352.73,352.73,0.0,0.0
1630877993.60003495,98628866,0.11,0.11,0.16,0.15,352.73,352.73,0.0,0.0
1630877993.69999504,98728826,0.01,0.06,0.29,0.21,352.73,352.73,0.0,0.0
1630877993.79995489,98828786,-0.25,-0.12,0.63,0.46,352.73,352.73,0.0,0.0
1630877993.89991498,98928746,-0.62,-0.47,1.18,0.93,352.73,352.73,0.0,0.0
1630877993.99987507,99028706,-1.09,-0.93,1.87,1.6,352.73,352.73,0.0,0.0
1630877994.09983492,99128666,-1.64,-1.49,2.64,2.42,352.73,352.71,0.0,0.0
1630877994.19979501,99228626,-2.14,-2.09,3.39,3.29,352.73,352.69,0.0,0.0
1630877994.29975510,99328586,-2.55,-2.61,4.02,4.06,352.73,352.68,0.0,0.0
1630877994.39971495,99428546,-2.87,-3.01,4.48,4.66,352.73,352.67,0.0,0.0
1630877994.49967504,99528506,-3.1,-3.28,4.82,5.07,352.73,352.67,0.0,0.0
1630877994.59963489,99628466,-3.32,-3.47,5.15,5.35,352.73,352.68,0.0,0.0
1630877994.69959497,99728426,-3.54,-3.65,5.5,5.62,352.73,352.69,0.0,0.0
1630877994.79955506,99828386,-3.77,-3.83,5.9,5.92,352.73,352.7,0.0,0.0
1630877994.89951491,99928346,-4.02,-4.04,6.27,6.27,352.73,352.7,0.0,0.0
1630877994.99947500,100028306,-4.25,-4.27,6.53,6.57,352.73,352.71,0.0,0.0
1630877995.09943509,100128266,-4.41,-4.46,6.73,6.8,352.73,352.73,0.0,0.0
1630877995.19939494,100228226,-4.54,-4.6,6.87,6.95,352.73,352.74,0.0,0.0
1630877995.29935503,100328186,-4.62,-4.68,6.99,7.06,352.73,352.76,0.0,0.0
1630877995.40014791,100428979,-4.71,-4.75,7.14,7.15,352.73,352.76,0.0,0.0
1630877995.50010800,100528939,-4.84,-4.81,7.35,7.32,351.94,352.75,0.0,0.0
1630877995.60006809,100628899,-5.06,-4.73,7.63,7.7,348.52,352.49,0.0,0.0
1630877995.70002794,100728859,-5.4,-4.53,7.88,8.31,342.8,351.34,0.0,0.0
1630877995.79998803,100828819,-5.96,-4.54,7.98,8.91,336.8,348.65,0.0,0.0
1630877995.89994788,100928779,-6.84,-5.05,7.83,9.23,330.8,344.24,0.0,0.0
1630877995.99990797,101028739,-8.04,-6.14,7.27,9.05,324.8,338.32,0.0,0.01
1630877996.09986806,101128699,-9.4,-7.66,6.27,8.24,318.8,331.23,0.0,0.02
1630877996.19982791,101228659,-10.69,-9.34,4.89,6.79,312.8,323.33,0.0,0.04
1630877996.29978800,101328619,-11.77,-10.9,3.19,4.8,306.8,314.95,0.0,0.05
1630877996.39974809,101428579,-12.58,-12.13,1.32,2.43,300.8,306.37,0.0,0.07
1630877996.49970794,101528539,-13.07,-12.92,-0.61,-0.09,294.8,297.8,0.0,0.08
1630877996.59966803,101628499,-13.24,-13.22,-2.52,-2.59,288.8,289.48,0.0,0.09
1630877996.69962788,101728459,-13.11,-13.06,-4.3,-4.86,282.8,281.56,0.0,0.09
1630877996.79958797,101828419,-12.76,-12.56,-5.93,-6.81,276.8,274.16,0.0,0.09
1630877996.89954805,101928379,-12.26,-11.85,-7.4,-8.4,270.8,267.33,0.0,0.09
1630877996.99950790,102028339,-11.63,-11.05,-8.75,-9.7,264.8,261.08,0.0,0.09
1630877997.09946799,102128299,-10.9,-10.24,-9.98,-10.75,258.8,255.34,0.0,0.08
1630877997.19942808,102228259,-10.08,-9.47,-11.08,-11.63,252.8,250.0,0.0,0.08
1630877997.29938793,102328219,-9.19,-8.71,-12.06,-12.38,246.8,244.92,0.0,0.07
1630877997.39934802,102428179,-8.23,-7.96,-12.95,-13.05,240.8,239.95,0.0,0.06
1630877997.50014091,102528972,-7.16,-7.16,-13.73,-13.68,234.8,234.97,0.0,0.06
1630877997.60010099,102628932,-5.94,-6.22,-14.4,-14.26,228.79,229.86,0.0,0.05
1630877997.70006108,102728892,-4.58,-5.11,-14.99,-14.81,222.79,224.54,0.0,0.05
1630877997.80002093,102828852,-3.08,-3.76,-15.45,-15.31,216.84,218.97,0.0,0.05
1630877997.89998102,102928812,-1.43,-1.99,-15.77,-15.71,212.64,213.2,0.0,0.05
1630877997.99994111,103028772,0.23,0.37,-15.94,-15.94,210.47,207.63,0.0,0.05
1630877998.09990096,103128732,1.7,2.94,-15.94,-15.9,209.35,202.89,0.0,0.05
1630877998.19986105,103228692,2.74,5.12,-15.88,-15.66,208.77,199.46,0.0,0.05
1630877998.29982090,103328652,3.19,6.47,-15.82,-15.37,208.44,197.53,0.0,0.05
1630877998.39978099,103428612,3.07,6.8,-15.86,-15.18,208.22,197.01,0.0,0.04
1630877998.49974108,103528572,2.52,6.19,-15.98,-15.17,208.04,197.66,0.0,0.04
1630877998.59970093,103628532,1.68,4.84,-16.19,-15.37,207.87,199.18,0.0,0.04
1630877998.69966102,103728492,0.77,3.06,-16.39,-15.69,207.69,201.29,0.0,0.04
1630877998.79962111,103828452,-0.03,1.21,-16.55,-16.04,207.5,203.67,0.0,0.05
1630877998.89958096,103928412,-0.67,-0.43,-16.64,-16.33,207.32,206.03,0.0,0.06
1630877998.99954104,104028372,-1.1,-1.7,-16.69,-16.52,207.16,208.08,0.0,0.06
1630877999.09950089,104128332,-1.32,-2.51,-16.69,-16.61,207.01,209.62,0.0,0.06
1630877999.19946098,104228292,-1.36,-2.86,-16.66,-16.61,206.88,210.55,0.0,0.05
1630877999.29942107,104328252,-1.26,-2.82,-16.65,-16.6,206.79,210.86,0.0,0.05
1630877999.39938092,104428212,-1.05,-2.48,-16.66,-16.58,206.71,210.61,0.0,0.04
1630877999.49934101,104528172,-0.77,-1.93,-16.68,-16.59,206.66,209.94,0.0,0.04
1630877999.60013390,104628965,-0.48,-1.27,-16.7,-16.62,206.63,208.98,0.0,0.03
1630877999.70009398,104728925,-0.18,-0.59,-16.74,-16.66,206.61,207.9,0.0,0.02
1630877999.80005407,104828885,0.06,0.03,-16.8,-16.73,206.6,206.84,0.0,0.02
1630877999.90001392,104928845,0.27,0.56,-16.85,-16.81,206.6,205.92,0.0,0.01
1630877999.99997401,105028805,0.45,0.96,-16.91,-16.88,206.6,205.22,0.0,0.01
1630878000.09993410,105128765,0.55,1.21,-16.93,-16.93,206.6,204.78,0.0,0.01
1630878000.19989395,105228725,0.56,1.29,-16.96,-16.96,206.6,204.6,0.0,0.01
1630878000.29985404,105328685,0.48,1.21,-16.98,-16.98,206.6,204.67,0.0,0.01
1630878000.39981389,105428645,0.34,0.98,-17.01,-17.0,206.6,204.93,0.0,0.01
1630878000.49977398,105528605,0.2,0.67,-17.06,-17.03,206.59,205.31,0.0,0.01
1630878000.59973407,105628565,0.07,0.36,-17.11,-17.09,206.58,205.75,0.0,0.01
1630878000.69969392,105728525,0.0,0.08,-17.12,-17.13,206.58,206.19,0.0,0.02
1630878000.79965401,105828485,-0.06,-0.11,-17.12,-17.14,206.57,206.58,0.0,0.02
1630878000.89961410,105928445,-0.1,-0.25,-17.13,-17.15,206.57,206.88,0.0,0.02
1630878000.99957395,106028405,-0.14,-0.34,-17.16,-17.16,206.58,207.08,0.0,0.02
1630878001.09953403,106128365,-0.13,-0.36,-17.21,-17.19,206.59,207.17,0.0,0.02
1630878001.19949389,106228325,-0.09,-0.31,-17.27,-17.25,206.6,207.17,0.0,0.01
1630878001.29945397,106328285,-0.05,-0.22,-17.31,-17.31,206.61,207.09,0.0,0.01
1630878001.39941406,106428245,0.01,-0.1,-17.33,-17.34,206.63,206.96,0.0,0.01
1630878001.49937391,106528205,0.06,0.02,-17.33,-17.35,206.65,206.8,0.0,0.01
1630878001.59933400,106628165,0.11,0.13,-17.33,-17.35,206.67,206.65,0.0,0.01
1630878001.70012689,106728958,0.15,0.22,-17.3,-17.33,206.7,206.51,0.0,0.01
1630878001.80008698,106828918,0.19,0.3,-17.3,-17.3,206.73,206.41,0.0,0.01
1630878001.90004706,106928878,0.2,0.35,-17.34,-17.31,206.75,206.35,0.0,0.01
1630878002.00000691,107028838,0.2,0.37,-17.4,-17.36,206.78,206.34,0.0,0.01
1630878002.09996700,107128798,0.17,0.34,-17.45,-17.42,206.8,206.37,0.0,0.01
1630878002.19992709,107228758,0.14,0.29,-17.49,-17.49,206.83,206.43,0.0,0.01
1630878002.29988694,107328718,0.11,0.23,-17.52,-17.53,206.85,206.51,0.0,0.01
1630878002.39984703,107428678,0.06,0.16,-17.53,-17.55,206.87,206.61,0.0,0.01
1630878002.49980688,107528638,0.05,0.1,-17.53,-17.56,206.9,206.71,0.0,0.01
1630878002.59976697,107628598,0.06,0.07,-17.53,-17.56,206.92,206.8,0.0,0.01
1630878002.69972706,107728558,0.05,0.05,-17.54,-17.55,206.94,206.88,0.0,0.01
1630878002.79968691,107828518,0.03,0.04,-17.55,-17.56,206.97,206.94,0.0,0.01
1630878002.89964700,107928478,0.01,0.02,-17.56,-17.57,206.99,206.98,0.0,0.01
1630878002.99960709,108028438,0.01,0.01,-17.59,-17.59,207.02,207.01,0.0,0.01
1630878003.09956694,108128398,0.04,0.03,-17.63,-17.63,207.05,207.02,0.0,0.01
1630878003.19952703,108228358,0.05,0.06,-17.66,-17.68,207.07,207.03,0.0,0.01
1630878003.29948711,108328318,0.05,0.08,-17.68,-17.71,207.1,207.03,0.0,0.01
1630878003.39944696,108428278,0.1,0.11,-17.7,-17.72,207.13,207.03,0.0,0.01
1630878003.49940705,108528238,0.14,0.16,-17.71,-17.73,207.16,207.04,0.0,0.0
1630878003.59936690,108628198,0.15,0.2,-17.71,-17.73,207.19,207.05,0.0,0.0
1630878003.69932699,108728158,0.14,0.21,-17.71,-17.72,207.22,207.07,0.0,0.0
1630878003.80011988,108828951,0.13,0.21,-17.69,-17.72,207.25,207.09,0.0,0.0
1630878003.90007997,108928911,0.11,0.19,-17.69,-17.7,207.28,207.13,0.0,0.0
1630878004.00004005,109028871,0.09,0.16,-17.69,-17.69,207.31,207.16,0.0,0.0
1630878004.09999990,109128831,0.1,0.14,-17.71,-17.69,207.34,207.2,0.0,0.0
1630878004.19995999,109228791,0.12,0.14,-17.73,-17.71,207.37,207.24,0.0,0.0
1630878004.29992008,109328751,0.14,0.15,-17.78,-17.74,207.4,207.29,0.0,0.0
1630878004.39987993,109428711,0.17,0.17,-17.83,-17.8,207.43,207.33,0.0,0.0
1630878004.49984002,109528671,0.19,0.2,-17.85,-17.85,207.46,207.37,0.0,0.0
1630878004.59980011,109628631,0.2,0.23,-17.82,-17.87,207.49,207.41,0.0,0.0
1630878004.69975996,109728591,0.18,0.23,-17.8,-17.84,207.52,207.44,0.0,0.0
1630878004.79972005,109828551,0.18,0.22,-17.81,-17.82,207.54,207.47,0.0,0.0
1630878004.89967990,109928511,0.17,0.21,-17.84,-17.83,207.57,207.5,0.0,0.0
1630878004.99963999,110028471,0.17,0.19,-17.89,-17.87,207.6,207.53,0.0,0.0
1630878005.09960008,110128431,0.18,0.19,-17.93,-17.92,207.62,207.55,0.0,0.0
1630878005.19955993,110228391,0.2,0.2,-17.98,-17.98,207.65,207.57,0.0,0.0
1630878005.29952002,110328351,0.19,0.21,-18.01,-18.02,207.68,207.59,0.0,0.0
1630878005.39948010,110428311,0.18,0.21,-18.01,-18.04,207.7,207.61,0.0,0.0
1630878005.49943995,110528271,0.17,0.2,-17.99,-18.03,207.72,207.63,0.0,0.0
1630878005.59940004,110628231,0.16,0.2,-18.0,-18.02,207.75,207.66,0.0,0.0
1630878005.69935989,110728191,0.14,0.18,-18.01,-18.02,207.77,207.68,0.0,0.0
1630878005.80015302,110828984,0.12,0.16,-18.01,-18.03,207.78,207.7,0.0,0.0
1630878005.90011311,110928944,0.1,0.14,-18.0,-18.02,207.8,207.72,0.0,0.0
1630878006.00007296,111028904,0.1,0.12,-17.98,-17.99,207.82,207.74,0.0,0.0
1630878006.10003304,111128864,0.1,0.11,-18.0,-17.98,207.84,207.76,0.0,0.0
1630878006.19999290,111228824,0.12,0.11,-18.02,-18.0,207.85,207.78,0.0,0.0
1630878006.29995298,111328784,0.14,0.14,-18.04,-18.03,207.87,207.8,0.0,0.0
1630878006.39991307,111428744,0.15,0.16,-18.05,-18.05,207.89,207.82,0.0,0.0
1630878006.49987292,111528704,0.13,0.16,-18.06,-18.07,207.9,207.83,0.0,0.0
1630878006.59983301,111628664,0.11,0.14,-18.05,-18.08,207.92,207.84,0.0,0.0
1630878006.69979310,111728624,0.12,0.13,-18.05,-18.08,207.93,207.86,0.0,0.0
1630878006.79975295,111828584,0.14,0.15,-18.04,-18.07,207.95,207.87,0.0,0.0
1630878006.89971304,111928544,0.15,0.17,-18.05,-18.06,207.97,207.89,0.0,0.0
1630878006.99967289,112028504,0.14,0.17,-18.08,-18.09,207.98,207.9,0.0,0.0
1630878007.09963298,112128464,0.14,0.17,-18.1,-18.11,207.99,207.92,0.0,0.0
1630878007.19959307,112228424,0.16,0.18,-18.1,-18.13,208.01,207.93,0.0,0.0
1630878007.29955292,112328384,0.17,0.2,-18.08,-18.11,208.02,207.94,0.0,0.0
1630878007.39951301,112428344,0.19,0.21,-18.07,-18.09,208.04,207.96,0.0,0.0
1630878007.49947309,112528304,0.19,0.23,-18.09,-18.09,208.05,207.97,0.0,0.0
1630878007.59943295,112628264,0.18,0.23,-18.11,-18.1,208.07,207.99,0.0,0.0
1630878007.69939303,112728224,0.14,0.2,-18.12,-18.12,208.08,208.01,0.0,0.0
1630878007.79935288,112828184,0.13,0.16,-18.12,-18.13,208.09,208.02,0.0,0.0
1630878007.90014601,112928977,0.13,0.15,-18.12,-18.13,208.1,208.04,0.0,0.0
1630878008.00010610,113028937,0.14,0.13,-18.11,-18.13,208.11,208.05,0.0,0.0
1630878008.10006595,113128897,0.15,0.14,-18.12,-18.13,208.12,208.06,0.0,0.0
1630878008.20002604,113228857,0.17,0.16,-18.12,-18.13,208.13,208.07,0.0,0.0
1630878008.29998589,113328817,0.18,0.18,-18.11,-18.13,208.14,208.09,0.0,0.0
1630878008.39994597,113428777,0.17,0.18,-18.11,-18.12,208.15,208.1,0.0,0.0
1630878008.49990606,113528737,0.15,0.17,-18.12,-18.12,208.16,208.11,0.0,0.0
1630878008.59986591,113628697,0.12,0.15,-18.11,-18.13,208.17,208.12,0.0,0.0
1630878008.69982600,113728657,0.12,0.13,-18.09,-18.11,208.18,208.12,0.0,0.0
1630878008.79978609,113828617,0.14,0.14,-18.09,-18.1,208.19,208.13,0.0,0.0
1630878008.89974594,113928577,0.18,0.17,-18.08,-18.09,208.19,208.14,0.0,0.0
1630878008.99970603,114028537,0.21,0.21,-18.08,-18.09,208.21,208.15,0.0,0.0
1630878009.09966588,114128497,0.2,0.23,-18.1,-18.09,208.21,208.16,0.0,0.0
1630878009.19962597,114228457,0.21,0.23,-18.14,-18.13,208.22,208.16,0.0,0.0
1630878009.29958606,114328417,0.23,0.25,-18.16,-18.16,208.23,208.17,0.0,0.0
1630878009.39954591,114428377,0.23,0.25,-18.18,-18.18,208.24,208.18,0.0,0.0
1630878009.49950600,114528337,0.25,0.25,-18.2,-18.21,208.25,208.19,0.0,0.0
1630878009.59946609,114628297,0.24,0.26,-18.21,-18.23,208.26,208.2,0.0,0.0
1630878009.69942594,114728257,0.23,0.25,-18.21,-18.23,208.26,208.21,0.0,0.0
1630878009.79938602,114828217,0.2,0.22,-18.2,-18.22,208.27,208.22,0.0,0.0
1630878009.89934611,114928177,0.17,0.19,-18.17,-18.2,208.27,208.23,0.0,0.0
1630878010.00013900,115028970,0.16,0.17,-18.16,-18.17,208.28,208.23,0.0,0.0
1630878010.10009909,115128930,0.17,0.16,-18.16,-18.16,208.28,208.24,0.0,0.0
1630878010.20005894,115228890,0.18,0.17,-18.17,-18.17,208.29,208.24,0.0,0.0
1630878010.30001903,115328850,0.22,0.2,-18.18,-18.18,208.29,208.25,0.0,0.0
1630878010.39997888,115428810,0.24,0.24,-18.19,-18.19,208.3,208.25,0.0,0.0
1630878010.49993896,115528770,0.25,0.26,-18.2,-18.2,208.3,208.25,0.0,0.0
1630878010.59989905,115628730,0.23,0.25,-18.21,-18.22,208.31,208.25,0.0,0.0
1630878010.69985890,115728690,0.2,0.23,-18.19,-18.22,208.31,208.26,0.0,0.0
1630878010.79981899,115828650,0.2,0.21,-18.18,-18.2,208.31,208.27,0.0,0.0
1630878010.89977908,115928610,0.23,0.21,-18.19,-18.2,208.31,208.27,0.0,0.0
1630878010.99973893,116028570,0.23,0.22,-18.2,-18.2,208.32,208.27,0.0,0.0
1630878011.09969902,116128530,0.21,0.22,-18.22,-18.22,208.32,208.28,0.0,0.0
1630878011.19965911,116228490,0.22,0.21,-18.25,-18.25,208.32,208.28,0.0,0.0
1630878011.29961896,116328450,0.21,0.22,-18.24,-18.27,208.32,208.28,0.0,0.0
1630878011.39957905,116428410,0.19,0.21,-18.23,-18.26,208.32,208.28,0.0,0.0
1630878011.49953890,116528370,0.17,0.19,-18.22,-18.24,208.32,208.28,0.0,0.0
1630878011.59949899,116628330,0.19,0.19,-18.23,-18.24,208.32,208.28,0.0,0.0
1630878011.69945908,116728290,0.21,0.21,-18.21,-18.24,208.32,208.27,0.0,0.0
1630878011.79941893,116828250,0.21,0.22,-18.2,-18.22,208.32,208.27,0.0,0.0
1630878011.89937901,116928210,0.21,0.22,-18.19,-18.21,208.32,208.27,0.0,0.0
1630878011.99933910,117028170,0.22,0.23,-18.21,-18.21,208.32,208.27,0.0,0.0
1630878012.10013199,117128963,0.23,0.24,-18.2,-18.22,208.32,208.27,0.0,0.0
1630878012.20009208,117228923,0.23,0.24,-18.2,-18.22,208.32,208.27,0.0,0.0
1630878012.30005193,117328883,0.25,0.25,-18.23,-18.23,208.32,208.27,0.0,0.0
1630878012.40001202,117428843,0.25,0.25,-18.25,-18.26,208.32,208.27,0.0,0.0
1630878012.49997211,117528803,0.24,0.26,-18.22,-18.26,208.32,208.28,0.0,0.0
1630878012.59993196,117628763,0.23,0.26,-18.21,-18.25,208.32,208.28,0.0,0.0
1630878012.69989204,117728723,0.23,0.25,-18.2,-18.23,208.32,208.28,0.0,0.0
1630878012.79985189,117828683,0.21,0.23,-18.21,-18.22,208.32,208.28,0.0,0.0
1630878012.89981198,117928643,0.19,0.2,-18.22,-18.22,208.32,208.28,0.0,0.0
1630878012.99977207,118028603,0.19,0.18,-18.23,-18.24,208.32,208.29,0.0,0.0
1630878013.09973192,118128563,0.19,0.18,-18.22,-18.24,208.32,208.29,0.0,0.0
