timestamp,TimeUS,DesRoll,Roll,DesPitch,Pitch,DesYaw,Yaw,ErrRP,ErrYaw
1630879334.70003986,46928721,0.0,0.08,0.0,0.06,352.87,352.88,0.0,0.0
1630879334.79999995,47028681,0.0,0.08,0.0,0.06,352.87,352.88,0.0,0.0
1630879334.89995980,47128641,0.0,0.08,0.0,0.06,352.87,352.88,0.0,0.0
1630879334.99991989,47228601,0.0,0.08,0.0,0.06,352.87,352.88,0.0,0.0
1630879335.09987998,47328561,0.0,0.08,0.0,0.06,352.87,352.88,0.0,0.0
1630879335.19983983,47428521,0.0,0.08,0.0,0.06,352.87,352.88,0.0,0.0
1630879335.29979992,47528481,0.0,0.08,0.0,0.06,352.87,352.88,0.0,0.0
1630879335.39976001,47628441,0.0,0.08,0.0,0.06,352.87,352.88,0.0,0.0
1630879335.49971986,47728401,0.0,0.08,0.0,0.06,352.87,352.88,0.0,0.0
1630879335.59967995,47828361,0.0,0.08,0.0,0.06,352.87,352.88,0.0,0.0
1630879335.69963980,47928321,0.0,0.08,0.0,0.06,352.87,352.88,0.0,0.0
1630879335.79959989,48028281,0.0,0.08,0.0,0.06,352.87,352.88,0.0,0.0
1630879335.89955997,48128241,0.0,0.08,0.0,0.06,352.88,352.89,0.0,0.0
1630879335.99951982,48228201,0.0,0.08,0.0,0.06,352.88,352.89,0.0,0.0
1630879336.09947991,48328161,0.0,0.08,0.0,0.06,352.88,352.89,0.0,0.0
1630879336.20027280,48428954,0.0,0.08,0.0,0.06,352.88,352.89,0.0,0.0
1630879336.30023289,48528914,0.0,0.08,0.0,0.06,352.88,352.89,0.0,0.0
1630879336.40019298,48628874,0.0,0.08,0.0,0.06,352.88,352.89,0.0,0.0
1630879336.50015283,48728834,0.0,0.08,0.0,0.07,352.88,352.89,0.0,0.0
1630879336.60011292,48828794,0.0,0.08,0.0,0.07,352.88,352.89,0.0,0.0
1630879336.70007300,48928754,0.0,0.08,0.0,0.07,352.88,352.89,0.0,0.0
1630879336.80003285,49028714,0.0,0.08,0.0,0.07,352.88,352.89,0.0,0.0
1630879336.89999294,49128674,0.0,0.08,0.0,0.07,352.88,352.89,0.0,0.0
1630879336.99995303,49228634,0.0,0.08,0.0,0.07,352.88,352.89,0.0,0.0
1630879337.09991288,49328594,0.0,0.08,0.0,0.07,352.88,352.89,0.0,0.0
1630879337.19987297,49428554,0.0,0.08,0.0,0.07,352.88,352.89,0.0,0.0
1630879337.29983282,49528514,0.0,0.08,0.0,0.07,352.88,352.89,0.0,0.0
1630879337.39979291,49628474,0.0,0.08,0.0,0.07,352.88,352.89,0.0,0.0
1630879337.49975300,49728434,-0.04,0.08,-0.04,0.07,352.88,352.89,0.0,0.0
1630879337.59971285,49828394,-0.1,0.08,-0.1,0.07,352.88,352.89,0.0,0.0
1630879337.69967294,49928354,-0.13,0.08,-0.14,0.07,352.88,352.89,0.0,0.0
1630879337.79963303,50028314,-0.16,0.08,-0.17,0.07,352.88,352.89,0.0,0.0
1630879337.89959288,50128274,-0.18,0.08,-0.19,0.07,352.88,352.89,0.0,0.0
1630879337.99955297,50228234,-0.2,0.08,-0.21,0.07,352.88,352.89,0.0,0.0
1630879338.09951282,50328194,-0.22,0.08,-0.24,0.07,352.88,352.9,0.0,0.0
1630879338.19947290,50428154,-0.24,0.08,-0.27,0.07,352.88,352.9,0.0,0.0
1630879338.30026603,50528947,-0.26,0.08,-0.29,0.07,352.88,352.9,0.0,0.0
1630879338.40022588,50628907,-0.27,0.08,-0.28,0.07,352.88,352.9,0.0,0.0
1630879338.50018597,50728867,-0.28,0.08,-0.27,0.07,352.88,352.9,0.0,0.0
1630879338.60014582,50828827,-0.29,0.08,-0.27,0.07,352.88,352.9,0.0,0.0
1630879338.70010591,50928787,-0.29,0.08,-0.31,0.07,352.88,352.9,0.0,0.0
1630879338.80006599,51028747,-0.31,0.08,-0.36,0.07,352.88,352.9,0.0,0.0
1630879338.90002584,51128707,-0.34,0.08,-0.4,0.07,352.88,352.9,0.0,0.0
1630879338.99998593,51228667,-0.33,0.08,-0.4,0.07,352.88,352.9,0.0,0.0
1630879339.09994602,51328627,-0.33,0.0,-0.41,-0.02,352.88,352.9,0.0,0.0
1630879339.19990587,51428587,-0.38,-0.27,-0.4,-0.29,352.88,352.9,0.0,0.0
1630879339.29986596,51528547,-0.38,-0.53,-0.34,-0.52,352.88,352.9,0.0,0.0
1630879339.39982581,51628507,-0.28,-0.65,-0.24,-0.61,352.88,352.9,0.0,0.0
1630879339.49978590,51728467,-0.12,-0.6,-0.1,-0.56,352.88,352.89,0.0,0.0
1630879339.59974599,51828427,0.05,-0.42,0.06,-0.41,352.88,352.89,0.0,0.0
1630879339.69970584,51928387,0.21,-0.2,0.23,-0.2,352.88,352.88,0.0,0.0
1630879339.79966593,52028347,0.31,-0.01,0.36,0.01,352.88,352.88,0.0,0.0
1630879339.89962602,52128307,0.34,0.11,0.4,0.16,352.88,352.88,0.0,0.0
1630879339.99958587,52228267,0.31,0.14,0.37,0.21,352.88,352.88,0.0,0.0
1630879340.09954596,52328227,0.3,0.14,0.34,0.18,352.88,352.88,0.0,0.0
1630879340.19950581,52428187,0.3,0.13,0.31,0.14,352.88,352.88,0.0,0.0
1630879340.30029893,52528980,0.31,0.13,0.28,0.11,352.88,352.88,0.0,0.0
1630879340.40025902,52628940,0.31,0.14,0.26,0.07,352.88,352.88,0.0,0.0
1630879340.50021887,52728900,0.31,0.15,0.28,0.08,352.88,352.89,0.0,0.0
1630879340.60017896,52828860,0.33,0.18,0.32,0.13,352.88,352.89,0.0,0.0
1630879340.70013881,52928820,0.34,0.21,0.38,0.2,352.88,352.89,0.0,0.0
1630879340.80009890,53028780,0.32,0.21,0.41,0.26,352.77,352.78,0.0,0.0
1630879340.90005898,53128740,0.31,0.21,0.38,0.29,352.77,352.78,0.0,0.0
1630879341.00001884,53228700,0.28,0.2,0.34,0.28,352.77,352.78,0.0,0.0
1630879341.09997892,53328660,0.24,0.17,0.29,0.25,352.77,352.78,0.0,0.0
1630879341.19993901,53428620,0.23,0.14,0.26,0.2,352.77,352.78,0.0,0.0
1630879341.29989886,53528580,0.22,0.13,0.26,0.17,352.77,352.78,0.0,0.0
1630879341.39985895,53628540,0.2,0.12,0.29,0.19,352.77,352.78,0.0,0.0
1630879341.49981880,53728500,0.22,0.13,0.29,0.22,352.77,352.78,0.0,0.0
1630879341.59977889,53828460,0.23,0.16,0.31,0.24,352.77,352.78,0.0,0.0
1630879341.69973898,53928420,0.23,0.17,0.28,0.24,352.77,352.78,0.0,0.0
1630879341.79969883,54028380,0.21,0.17,0.23,0.2,352.77,352.78,0.0,0.0
1630879341.89965892,54128340,0.15,0.14,0.17,0.16,352.77,352.78,0.0,0.0
1630879341.99961901,54228300,0.08,0.08,0.12,0.1,352.77,352.78,0.0,0.0
1630879342.09957886,54328260,0.04,0.02,0.08,0.05,352.77,352.78,0.0,0.0
1630879342.19953895,54428220,0.04,-0.01,0.1,0.03,352.77,352.78,0.0,0.0
1630879342.29949880,54528180,0.07,0.0,0.13,0.06,352.77,352.78,0.0,0.0
1630879342.40029192,54628973,0.08,0.02,0.13,0.09,352.77,352.78,0.0,0.0
1630879342.50025201,54728933,0.09,0.05,0.09,0.08,352.77,352.77,0.0,0.0
1630879342.60021186,54828893,0.12,0.09,0.06,0.05,352.77,352.77,0.0,0.0
1630879342.70017195,54928853,0.11,0.11,0.04,0.02,352.77,352.77,0.0,0.0
1630879342.80013180,55028813,0.08,0.09,0.02,0.0,352.77,352.78,0.0,0.0
1630879342.90009189,55128773,0.03,0.05,0.03,0.0,352.77,352.78,0.0,0.0
1630879343.00005198,55228733,0.0,0.0,0.01,-0.01,352.77,352.78,0.0,0.0
1630879343.10001183,55328693,0.0,-0.03,0.04,-0.01,352.77,352.78,0.0,0.0
1630879343.19997191,55428653,0.02,-0.03,0.11,0.04,352.77,352.78,0.0,0.0
1630879343.29993200,55528613,0.07,0.0,0.11,0.1,352.77,352.78,0.0,0.0
1630879343.39989185,55628573,0.1,0.05,0.09,0.11,352.77,352.78,0.0,0.0
1630879343.49985194,55728533,0.1,0.08,0.05,0.09,352.77,352.78,0.0,0.0
1630879343.59981203,55828493,0.08,0.09,0.03,0.06,352.77,352.79,0.0,0.0
1630879343.69977188,55928453,0.08,0.09,0.02,0.02,352.77,352.79,0.0,0.0
1630879343.79973197,56028413,0.1,0.09,0.02,0.0,352.77,352.78,0.0,0.0
1630879343.89969182,56128373,0.1,0.09,0.03,0.0,352.77,352.78,0.0,0.0
1630879343.99965191,56228333,0.11,0.1,0.02,0.0,352.77,352.78,0.0,0.0
1630879344.09961200,56328293,0.11,0.11,0.02,0.0,352.77,352.78,0.0,0.0
1630879344.19957185,56428253,0.1,0.1,0.04,0.01,352.77,352.77,0.0,0.0
1630879344.29953194,56528213,0.11,0.09,0.06,0.04,352.77,352.77,0.0,0.0
1630879344.39949203,56628173,0.13,0.11,0.06,0.04,352.77,352.77,0.0,0.0
1630879344.50028491,56728966,0.16,0.14,0.05,0.04,352.77,352.76,0.0,0.0
1630879344.60024500,56828926,0.16,0.16,0.05,0.04,352.77,352.76,0.0,0.0
1630879344.70020485,56928886,0.14,0.16,0.07,0.05,352.77,352.76,0.0,0.0
1630879344.80016494,57028846,0.13,0.14,0.1,0.08,352.77,352.76,0.0,0.0
1630879344.90012503,57128806,0.11,0.12,0.14,0.12,352.77,352.76,0.0,0.0
1630879345.00008488,57228766,0.1,0.1,0.15,0.15,352.77,352.76,0.0,0.0
1630879345.10004497,57328726,0.1,0.1,0.18,0.19,352.77,352.77,0.0,0.0
1630879345.20000482,57428686,0.1,0.09,0.21,0.21,352.77,352.77,0.0,0.0
1630879345.29996490,57528646,0.08,0.07,0.22,0.23,352.77,352.77,0.0,0.0
1630879345.39992499,57628606,0.08,0.06,0.2,0.23,352.77,352.78,0.0,0.0
1630879345.49988484,57728566,0.12,0.08,0.21,0.22,352.77,352.78,0.0,0.0
1630879345.59984493,57828526,0.14,0.11,0.22,0.23,352.77,352.78,0.0,0.0
1630879345.69980502,57928486,0.14,0.13,0.21,0.22,352.77,352.78,0.0,0.0
1630879345.79976487,58028446,0.13,0.14,0.18,0.19,352.77,352.78,0.0,0.0
1630879345.89972496,58128406,0.1,0.12,0.14,0.15,352.77,352.78,0.0,0.0
1630879345.99968481,58228366,0.08,0.09,0.12,0.12,352.77,352.78,0.0,0.0
1630879346.09964490,58328326,0.06,0.06,0.12,0.1,352.77,352.78,0.0,0.0
1630879346.19960499,58428286,0.06,0.05,0.12,0.1,352.77,352.77,0.0,0.0
1630879346.29956484,58528246,0.07,0.05,0.12,0.1,352.77,352.77,0.0,0.0
1630879346.39952493,58628206,0.07,0.05,0.12,0.11,352.77,352.77,0.0,0.0
1630879346.49948502,58728166,0.08,0.07,0.14,0.12,352.77,352.77,0.0,0.0
1630879346.60027790,58828959,0.07,0.07,0.13,0.13,352.77,352.77,0.0,0.0
1630879346.70023799,58928919,0.08,0.08,0.1,0.12,352.77,352.77,0.0,0.0
1630879346.80019784,59028879,0.11,0.09,0.06,0.09,352.77,352.77,0.0,0.0
1630879346.90015793,59128839,0.13,0.12,0.03,0.05,352.77,352.78,0.0,0.0
1630879347.00011802,59228799,0.13,0.13,0.02,0.01,352.77,352.78,0.0,0.0
1630879347.10007787,59328759,0.15,0.15,0.05,0.0,352.77,352.78,0.0,0.0
1630879347.20003796,59428719,0.15,0.15,0.08,0.02,352.77,352.78,0.0,0.0
1630879347.29999781,59528679,0.14,0.15,0.07,0.04,352.77,352.78,0.0,0.0
1630879347.39995790,59628639,0.13,0.14,0.07,0.05,352.77,352.78,0.0,0.0
1630879347.49991798,59728599,0.1,0.12,0.04,0.04,352.77,352.78,0.0,0.0
1630879347.59987783,59828559,0.07,0.08,0.03,0.03,352.77,352.78,0.0,0.0
1630879347.69983792,59928519,0.07,0.06,0.01,0.01,352.77,352.78,0.0,0.0
1630879347.79979801,60028479,0.09,0.06,0.0,0.0,352.77,352.77,0.0,0.0
1630879347.89975786,60128439,0.09,0.07,-0.02,-0.01,352.77,352.77,0.0,0.0
1630879347.99971795,60228399,0.08,0.07,0.0,-0.01,352.77,352.77,0.0,0.0
1630879348.09967780,60328359,0.08,0.07,0.04,0.01,352.77,352.77,0.0,0.0
1630879348.19963789,60428319,0.08,0.06,0.06,0.05,352.77,352.77,0.0,0.0
1630879348.29959798,60528279,0.07,0.07,0.07,0.08,352.77,352.77,0.0,0.0
1630879348.39955783,60628239,0.07,0.06,0.04,0.08,352.77,352.77,0.0,0.0
1630879348.49951792,60728199,0.09,0.06,0.01,0.05,352.77,352.77,0.0,0.0
1630879348.59947801,60828159,0.13,0.08,0.02,0.03,352.77,352.77,0.0,0.0
1630879348.70027089,60928952,0.13,0.11,0.0,0.01,352.77,352.77,0.0,0.0
1630879348.80023098,61028912,0.11,0.11,0.0,-0.01,352.77,352.77,0.0,0.0
1630879348.90019083,61128872,0.09,0.09,0.01,-0.01,352.77,352.77,0.0,0.0
1630879349.00015092,61228832,0.1,0.09,0.04,0.01,352.77,352.77,0.0,0.0
1630879349.10011101,61328792,0.13,0.11,0.05,0.04,352.77,352.77,0.0,0.0
1630879349.20007086,61428752,0.14,0.13,0.06,0.06,352.77,352.77,0.0,0.0
1630879349.30003095,61528712,0.12,0.13,0.06,0.07,352.77,352.77,0.0,0.0
1630879349.39999080,61628672,0.12,0.12,0.05,0.07,352.77,352.77,0.0,0.0
1630879349.49995089,61728632,0.13,0.13,0.06,0.07,352.77,352.77,0.0,0.0
1630879349.59991097,61828592,0.13,0.14,0.09,0.08,352.77,352.78,0.0,0.0
1630879349.69987082,61928552,0.15,0.15,0.07,0.07,352.77,352.78,0.0,0.0
1630879349.79983091,62028512,0.14,0.15,0.02,0.03,352.77,352.77,0.0,0.0
1630879349.89979100,62128472,0.1,0.11,0.01,0.01,352.77,352.77,0.0,0.0
1630879349.99975085,62228432,0.1,0.09,0.05,0.01,352.77,352.77,0.0,0.0
1630879350.09971094,62328392,0.14,0.1,0.09,0.05,352.77,352.77,0.0,0.0
1630879350.19967103,62428352,0.16,0.13,0.12,0.09,352.77,352.77,0.0,0.0
1630879350.29963088,62528312,0.16,0.15,0.15,0.14,352.77,352.77,0.0,0.0
1630879350.39959097,62628272,0.13,0.15,0.13,0.15,352.77,352.77,0.0,0.0
1630879350.49955082,62728232,0.08,0.11,0.1,0.12,352.77,352.78,0.0,0.0
1630879350.59951091,62828192,0.07,0.07,0.08,0.09,352.77,352.78,0.0,0.0
1630879350.70030403,62928985,0.07,0.05,0.08,0.06,352.77,352.78,0.0,0.0
1630879350.80026388,63028945,0.06,0.03,0.08,0.05,352.77,352.78,0.0,0.0
1630879350.90022397,63128905,0.05,0.03,0.11,0.07,352.77,352.78,0.0,0.0
1630879351.00018382,63228865,0.05,0.03,0.12,0.09,352.77,352.78,0.0,0.0
1630879351.10014391,63328825,0.04,0.04,0.17,0.13,352.77,352.78,0.0,0.0
1630879351.20010400,63428785,0.04,0.04,0.22,0.18,352.77,352.78,0.0,0.0
1630879351.30006385,63528745,0.06,0.05,0.23,0.22,352.77,352.78,0.0,0.0
1630879351.40002394,63628705,0.07,0.06,0.21,0.22,352.77,352.77,0.0,0.0
1630879351.49998403,63728665,0.08,0.07,0.21,0.22,352.77,352.77,0.0,0.0
1630879351.59994388,63828625,0.09,0.08,0.2,0.21,352.77,352.77,0.0,0.0
1630879351.69990396,63928585,0.1,0.1,0.17,0.19,352.77,352.77,0.0,0.0
1630879351.79986382,64028545,0.1,0.1,0.15,0.16,352.77,352.77,0.0,0.0
1630879351.89982390,64128505,0.1,0.09,0.16,0.14,352.77,352.77,0.0,0.0
1630879351.99978399,64228465,0.09,0.09,0.15,0.14,352.77,352.77,0.0,0.0
1630879352.09974384,64328425,0.08,0.08,0.11,0.12,352.77,352.77,0.0,0.0
1630879352.19970393,64428385,0.08,0.07,0.09,0.1,352.77,352.77,0.0,0.0
1630879352.29966402,64528345,0.08,0.07,0.09,0.09,352.77,352.77,0.0,0.0
1630879352.39962387,64628305,0.11,0.08,0.08,0.08,352.77,352.77,0.0,0.0
1630879352.49958396,64728265,0.13,0.12,0.08,0.08,352.77,352.77,0.0,0.0
1630879352.59954381,64828225,0.12,0.13,0.07,0.07,352.77,352.77,0.0,0.0
1630879352.69950390,64928185,0.14,0.13,0.06,0.06,352.77,352.77,0.0,0.0
1630879352.80029702,65028978,0.14,0.14,0.07,0.05,352.77,352.77,0.0,0.0
1630879352.90025687,65128938,0.14,0.15,0.07,0.05,352.77,352.77,0.0,0.0
1630879353.00021696,65228898,0.17,0.16,0.08,0.05,352.77,352.77,0.0,0.0
1630879353.10017681,65328858,0.15,0.16,0.1,0.07,352.77,352.77,0.0,0.0
1630879353.20013690,65428818,0.09,0.12,0.13,0.11,352.77,352.77,0.0,0.0
1630879353.30009699,65528778,0.07,0.08,0.17,0.15,352.77,352.77,0.0,0.0
1630879353.40005684,65628738,0.06,0.04,0.17,0.19,352.77,352.77,0.0,0.0
1630879353.50001693,65728698,0.08,0.04,0.12,0.17,352.77,352.77,0.0,0.0
1630879353.59997702,65828658,0.08,0.05,0.1,0.13,352.77,352.77,0.0,0.0
1630879353.69993687,65928618,0.08,0.06,0.07,0.1,352.77,352.77,0.0,0.0
1630879353.79989696,66028578,0.09,0.08,0.04,0.06,352.77,352.77,0.0,0.0
1630879353.89985681,66128538,0.08,0.08,0.01,0.02,352.77,352.77,0.0,0.0
1630879353.99981689,66228498,0.06,0.05,0.02,0.0,352.77,352.77,0.0,0.0
1630879354.09977698,66328458,0.05,0.03,0.04,0.0,352.77,352.77,0.0,0.0
1630879354.19973683,66428418,0.07,0.03,0.07,0.02,352.77,352.77,0.0,0.0
1630879354.29969692,66528378,0.07,0.03,0.1,0.05,352.77,352.77,0.0,0.0
1630879354.39965701,66628338,0.09,0.05,0.12,0.09,352.77,352.77,0.0,0.0
1630879354.49961686,66728298,0.09,0.07,0.12,0.12,352.77,352.77,0.0,0.0
1630879354.59957695,66828258,0.09,0.09,0.12,0.13,352.77,352.77,0.0,0.0
1630879354.69953680,66928218,0.09,0.1,0.09,0.11,352.77,352.77,0.0,0.0
1630879354.79949689,67028178,0.08,0.09,0.05,0.07,352.77,352.77,0.0,0.0
1630879354.90029001,67128971,0.05,0.07,0.04,0.05,352.77,352.77,0.0,0.0
1630879355.00024986,67228931,0.06,0.05,0.08,0.05,352.77,352.77,0.0,0.0
1630879355.10020995,67328891,0.11,0.08,0.11,0.09,352.77,352.77,0.0,0.0
1630879355.20016980,67428851,0.16,0.12,0.13,0.13,352.77,352.77,0.0,0.0
1630879355.30012989,67528811,0.2,0.17,0.12,0.14,352.77,352.77,0.0,0.0
1630879355.40008998,67628771,0.19,0.2,0.12,0.13,352.77,352.78,0.0,0.0
1630879355.50004983,67728731,0.19,0.2,0.12,0.12,352.77,352.78,0.0,0.0
1630879355.60000992,67828691,0.19,0.2,0.11,0.11,352.77,352.78,0.0,0.0
1630879355.69997001,67928651,0.17,0.19,0.09,0.09,352.77,352.78,0.0,0.0
1630879355.79992986,68028611,0.14,0.16,0.12,0.08,352.77,352.78,0.0,0.0
1630879355.89988995,68128571,0.1,0.13,0.13,0.1,352.77,352.78,0.0,0.0
1630879355.99984980,68228531,0.1,0.1,0.14,0.12,352.77,352.78,0.0,0.0
1630879356.09980989,68328491,0.13,0.1,0.16,0.14,352.77,352.78,0.0,0.0
1630879356.19976997,68428451,0.17,0.12,0.16,0.15,352.77,352.78,0.0,0.0
1630879356.29972982,68528411,0.19,0.16,0.16,0.16,352.77,352.78,0.0,0.0
1630879356.39968991,68628371,0.19,0.18,0.14,0.15,352.77,352.78,0.0,0.0
1630879356.49965000,68728331,0.18,0.19,0.11,0.12,352.77,352.78,0.0,0.0
1630879356.59960985,68828291,0.14,0.16,0.07,0.08,352.77,352.78,0.0,0.0
1630879356.69956994,68928251,0.14,0.14,0.08,0.06,352.77,352.77,0.0,0.0
1630879356.79953003,69028211,0.14,0.13,0.1,0.08,352.77,352.77,0.0,0.0
1630879356.89948988,69128171,0.14,0.14,0.12,0.1,352.77,352.77,0.0,0.0
1630879357.00028300,69228964,0.15,0.14,0.13,0.11,352.77,352.77,0.0,0.0
1630879357.10024285,69328924,0.15,0.15,0.16,0.14,352.77,352.77,0.0,0.0
1630879357.20020294,69428884,0.11,0.12,0.17,0.16,352.77,352.77,0.0,0.0
1630879357.30016303,69528844,0.09,0.09,0.15,0.16,352.77,352.77,0.0,0.0
1630879357.40012288,69628804,0.11,0.09,0.14,0.15,352.77,352.77,0.0,0.0
1630879357.50008297,69728764,0.14,0.12,0.12,0.14,352.77,352.77,0.0,0.0
1630879357.60004282,69828724,0.15,0.14,0.11,0.12,352.77,352.77,0.0,0.0
1630879357.70000291,69928684,0.13,0.15,0.14,0.12,352.77,352.77,0.0,0.0
1630879357.79996300,70028644,0.09,0.12,0.14,0.14,352.77,352.77,0.0,0.0
1630879357.89992285,70128604,0.06,0.07,0.1,0.12,352.77,352.77,0.0,0.0
1630879357.99988294,70228564,0.08,0.06,0.08,0.09,352.77,352.77,0.0,0.0
1630879358.09984303,70328524,0.12,0.09,0.06,0.06,352.77,352.77,0.0,0.0
1630879358.19980288,70428484,0.14,0.12,0.05,0.04,352.77,352.77,0.0,0.0
1630879358.29976296,70528444,0.12,0.13,0.06,0.03,352.77,352.78,0.0,0.0
1630879358.39972281,70628404,0.11,0.12,0.07,0.04,352.77,352.78,0.0,0.0
1630879358.49968290,70728364,0.1,0.1,0.05,0.04,352.77,352.78,0.0,0.0
1630879358.59964299,70828324,0.08,0.08,0.03,0.02,352.77,352.78,0.0,0.0
1630879358.69960284,70928284,0.09,0.08,0.03,0.01,352.77,352.78,0.0,0.0
1630879358.79956293,71028244,0.09,0.08,0.05,0.02,352.77,352.77,0.0,0.0
1630879358.89952302,71128204,0.07,0.07,0.07,0.05,352.77,352.77,0.0,0.0
1630879358.99948287,71228164,0.04,0.05,0.06,0.06,352.77,352.77,0.0,0.0
1630879359.10027599,71328957,0.04,0.04,0.05,0.05,352.77,352.76,0.0,0.0
1630879359.20023584,71428917,0.06,0.04,0.04,0.03,352.77,352.76,0.0,0.0
1630879359.30019593,71528877,0.09,0.05,0.03,0.02,352.77,352.77,0.0,0.0
1630879359.40015602,71628837,0.11,0.07,0.05,0.02,352.77,352.77,0.0,0.0
1630879359.50011587,71728797,0.13,0.1,0.06,0.04,352.77,352.77,0.0,0.0
1630879359.60007596,71828757,0.16,0.14,0.09,0.07,352.77,352.77,0.0,0.0
1630879359.70003581,71928717,0.14,0.15,0.11,0.1,352.77,352.77,0.0,0.0
1630879359.79999590,72028677,0.09,0.12,0.06,0.09,352.77,352.77,0.0,0.0
1630879359.89995599,72128637,0.06,0.08,0.03,0.05,352.77,352.77,0.0,0.0
1630879359.99991584,72228597,0.05,0.04,0.04,0.03,352.77,352.77,0.0,0.0
1630879360.09987593,72328557,0.05,0.03,0.06,0.03,352.77,352.77,0.0,0.0
1630879360.19983602,72428517,0.07,0.03,0.07,0.05,352.77,352.77,0.0,0.0
1630879360.29979587,72528477,0.09,0.06,0.1,0.08,352.77,352.77,0.0,0.0
1630879360.39975595,72628437,0.08,0.08,0.1,0.11,352.77,352.77,0.0,0.0
1630879360.49971581,72728397,0.03,0.06,0.13,0.12,352.77,352.77,0.0,0.0
1630879360.59967589,72828357,-0.01,0.0,0.15,0.15,352.77,352.77,0.0,0.0
1630879360.69963598,72928317,-0.03,-0.04,0.13,0.16,352.77,352.77,0.0,0.0
1630879360.79959583,73028277,0.01,-0.04,0.1,0.13,352.77,352.77,0.0,0.0
1630879360.89955592,73128237,0.05,0.0,0.1,0.1,352.77,352.77,0.0,0.0
1630879360.99951601,73228197,0.08,0.03,0.08,0.08,352.77,352.78,0.0,0.0
1630879361.09947586,73328157,0.09,0.07,0.07,0.06,352.77,352.78,0.0,0.0
1630879361.20026898,73428950,0.12,0.1,0.1,0.07,352.77,352.78,0.0,0.0
1630879361.30022883,73528910,0.14,0.13,0.13,0.09,352.77,352.78,0.0,0.0
1630879361.40018892,73628870,0.13,0.13,0.12,0.12,352.77,352.78,0.0,0.0
1630879361.50014901,73728830,0.17,0.16,0.1,0.11,352.77,352.78,0.0,0.0
1630879361.60010886,73828790,0.19,0.19,0.08,0.09,352.77,352.77,0.0,0.0
1630879361.70006895,73928750,0.19,0.2,0.08,0.08,352.77,352.77,0.0,0.0
1630879361.80002880,74028710,0.16,0.18,0.09,0.08,352.77,352.77,0.0,0.0
1630879361.89998889,74128670,0.17,0.16,0.12,0.09,352.77,352.77,0.0,0.0
1630879361.99994898,74228630,0.19,0.16,0.16,0.12,352.77,352.77,0.0,0.0
1630879362.09990883,74328590,0.19,0.17,0.15,0.14,352.77,352.77,0.0,0.0
1630879362.19986892,74428550,0.19,0.18,0.14,0.14,352.77,352.77,0.0,0.0
1630879362.29982901,74528510,0.19,0.19,0.11,0.13,352.77,352.77,0.0,0.0
1630879362.39978886,74628470,0.19,0.2,0.06,0.1,352.77,352.77,0.0,0.0
1630879362.49974895,74728430,0.2,0.21,0.04,0.06,352.77,352.77,0.0,0.0
1630879362.59970880,74828390,0.21,0.22,0.02,0.03,352.77,352.77,0.0,0.0
1630879362.69966888,74928350,0.17,0.2,0.02,0.01,352.77,352.77,0.0,0.0
1630879362.79962897,75028310,0.13,0.15,0.04,0.01,352.77,352.77,0.0,0.0
1630879362.89958882,75128270,0.13,0.13,0.05,0.03,352.77,352.77,0.0,0.0
1630879362.99954891,75228230,0.16,0.14,0.05,0.03,352.77,352.77,0.0,0.0
1630879363.09950900,75328190,0.18,0.16,0.06,0.04,352.77,352.76,0.0,0.0
1630879363.20030189,75428983,0.22,0.19,0.07,0.05,352.77,352.76,0.0,0.0
1630879363.30026197,75528943,0.25,0.23,0.06,0.07,352.77,352.76,0.0,0.0
1630879363.40022182,75628903,0.24,0.24,0.02,0.04,352.77,352.76,0.0,0.0
1630879363.50018191,75728863,0.2,0.22,0.03,0.02,352.77,352.76,0.0,0.0
1630879363.60014200,75828823,0.16,0.19,0.04,0.02,352.77,352.76,0.0,0.0
1630879363.70010185,75928783,0.17,0.17,0.05,0.02,352.77,352.76,0.0,0.0
1630879363.80006194,76028743,0.19,0.17,0.06,0.03,352.77,352.76,0.0,0.0
1630879363.90002203,76128703,0.17,0.17,0.08,0.05,352.77,352.76,0.0,0.0
1630879363.99998188,76228663,0.16,0.16,0.1,0.08,352.77,352.76,0.0,0.0
1630879364.09994197,76328623,0.17,0.16,0.08,0.08,352.77,352.76,0.0,0.0
1630879364.19990182,76428583,0.2,0.17,0.08,0.07,352.77,352.76,0.0,0.0
1630879364.29986191,76528543,0.2,0.19,0.11,0.08,352.77,352.77,0.0,0.0
1630879364.39982200,76628503,0.2,0.2,0.12,0.11,352.77,352.77,0.0,0.0
1630879364.49978185,76728463,0.17,0.18,0.12,0.12,352.77,352.77,0.0,0.0
1630879364.59974194,76828423,0.13,0.14,0.13,0.13,352.77,352.78,0.0,0.0
1630879364.69970202,76928383,0.09,0.1,0.15,0.13,352.77,352.78,0.0,0.0
1630879364.79966187,77028343,0.07,0.06,0.13,0.13,352.77,352.78,0.0,0.0
1630879364.89962196,77128303,0.09,0.05,0.12,0.13,352.77,352.78,0.0,0.0
1630879364.99958181,77228263,0.13,0.09,0.14,0.14,352.77,352.78,0.0,0.0
1630879365.09954190,77328223,0.17,0.14,0.13,0.14,352.77,352.77,0.0,0.0
1630879365.19950199,77428183,0.16,0.17,0.11,0.12,352.77,352.77,0.0,0.0
1630879365.30029488,77528976,0.12,0.15,0.12,0.1,352.77,352.77,0.0,0.0
1630879365.40025496,77628936,0.08,0.11,0.11,0.09,352.77,352.77,0.0,0.0
1630879365.50021482,77728896,0.07,0.07,0.08,0.08,352.77,352.77,0.0,0.0
1630879365.60017490,77828856,0.1,0.07,0.09,0.07,352.77,352.77,0.0,0.0
1630879365.70013499,77928816,0.11,0.09,0.13,0.09,352.77,352.77,0.0,0.0
1630879365.80009484,78028776,0.13,0.1,0.15,0.13,352.77,352.77,0.0,0.0
1630879365.90005493,78128736,0.14,0.12,0.12,0.14,352.77,352.77,0.0,0.0
1630879366.00001502,78228696,0.13,0.12,0.05,0.1,352.77,352.77,0.0,0.0
1630879366.09997487,78328656,0.1,0.12,0.0,0.04,352.77,352.77,0.0,0.0
1630879366.19993496,78428616,0.1,0.1,0.01,0.0,352.77,352.78,0.0,0.0
1630879366.29989481,78528576,0.1,0.1,0.07,0.03,352.77,352.78,0.0,0.0
1630879366.39985490,78628536,0.1,0.09,0.12,0.09,352.77,352.77,0.0,0.0
1630879366.49981499,78728496,0.09,0.08,0.15,0.13,352.77,352.77,0.0,0.0
1630879366.59977484,78828456,0.07,0.06,0.16,0.16,352.77,352.77,0.0,0.0
1630879366.69973493,78928416,0.07,0.06,0.14,0.16,352.77,352.77,0.0,0.0
1630879366.79969501,79028376,0.07,0.06,0.13,0.13,352.77,352.77,0.0,0.0
1630879366.89965487,79128336,0.09,0.07,0.11,0.11,352.77,352.77,0.0,0.0
1630879366.99961495,79228296,0.11,0.09,0.09,0.09,352.77,352.77,0.0,0.0
1630879367.09957480,79328256,0.08,0.09,0.09,0.07,352.77,352.77,0.0,0.0
1630879367.19953489,79428216,0.06,0.06,0.13,0.09,352.77,352.77,0.0,0.0
1630879367.29949498,79528176,0.05,0.04,0.17,0.14,352.77,352.77,0.0,0.0
1630879367.40028787,79628969,0.08,0.06,0.18,0.17,352.77,352.77,0.0,0.0
1630879367.50024796,79728929,0.12,0.1,0.18,0.19,352.77,352.77,0.0,0.0
1630879367.60020781,79828889,0.13,0.13,0.17,0.19,352.77,352.77,0.0,0.0
1630879367.70016789,79928849,0.1,0.13,0.14,0.17,352.77,352.77,0.0,0.0
1630879367.80012798,80028809,0.06,0.09,0.1,0.13,352.77,352.77,0.0,0.0
1630879367.90008783,80128769,0.06,0.06,0.09,0.09,352.77,352.77,0.0,0.0
1630879368.00004792,80228729,0.08,0.05,0.1,0.07,352.77,352.77,0.0,0.0
1630879368.10000801,80328689,0.11,0.06,0.13,0.08,352.77,352.77,0.0,0.0
1630879368.19996786,80428649,0.14,0.1,0.15,0.11,352.77,352.77,0.0,0.0
1630879368.29992795,80528609,0.16,0.14,0.13,0.11,352.77,352.77,0.0,0.0
1630879368.39988780,80628569,0.18,0.16,0.13,0.11,352.77,352.77,0.0,0.0
1630879368.49984789,80728529,0.2,0.19,0.14,0.12,352.77,352.77,0.0,0.0
1630879368.59980798,80828489,0.19,0.2,0.15,0.13,352.77,352.77,0.0,0.0
1630879368.69976783,80928449,0.17,0.18,0.15,0.15,352.77,352.77,0.0,0.0
1630879368.79972792,81028409,0.16,0.16,0.16,0.15,352.77,352.77,0.0,0.0
1630879368.89968801,81128369,0.15,0.15,0.14,0.15,352.77,352.77,0.0,0.0
1630879368.99964786,81228329,0.14,0.14,0.11,0.13,352.77,352.77,0.0,0.0
1630879369.09960794,81328289,0.13,0.14,0.08,0.11,352.77,352.77,0.0,0.0
1630879369.19956779,81428249,0.13,0.13,0.07,0.08,352.77,352.77,0.0,0.0
1630879369.29952788,81528209,0.14,0.13,0.09,0.07,352.77,352.78,0.0,0.0
1630879369.39948797,81628169,0.16,0.13,0.09,0.07,352.77,352.78,0.0,0.0
1630879369.50028086,81728962,0.16,0.14,0.12,0.1,352.77,352.78,0.0,0.0
1630879369.60024095,81828922,0.16,0.15,0.16,0.14,352.77,352.78,0.0,0.0
1630879369.70020080,81928882,0.15,0.14,0.19,0.18,352.77,352.77,0.0,0.0
1630879369.80016088,82028842,0.17,0.14,0.2,0.21,352.77,352.77,0.0,0.0
1630879369.90012097,82128802,0.14,0.14,0.18,0.21,352.77,352.77,0.0,0.0
1630879370.00008082,82228762,0.09,0.1,0.12,0.17,352.77,352.77,0.0,0.0
1630879370.10004091,82328722,0.08,0.07,0.08,0.11,352.77,352.77,0.0,0.0
1630879370.20000100,82428682,0.09,0.06,0.09,0.07,352.77,352.77,0.0,0.0
1630879370.29996085,82528642,0.1,0.07,0.13,0.08,352.77,352.77,0.0,0.0
1630879370.39992094,82628602,0.13,0.09,0.15,0.1,352.77,352.77,0.0,0.0
1630879370.49988103,82728562,0.15,0.13,0.17,0.13,352.77,352.77,0.0,0.0
1630879370.59984088,82828522,0.16,0.15,0.15,0.14,352.77,352.77,0.0,0.0
1630879370.69980097,82928482,0.17,0.17,0.12,0.12,352.77,352.77,0.0,0.0
1630879370.79976082,83028442,0.15,0.18,0.11,0.11,352.77,352.77,0.0,0.0
1630879370.89972091,83128402,0.11,0.15,0.1,0.1,352.77,352.77,0.0,0.0
1630879370.99968100,83228362,0.07,0.09,0.11,0.09,352.77,352.77,0.0,0.0
1630879371.09964085,83328322,0.07,0.06,0.12,0.1,352.77,352.76,0.0,0.0
1630879371.19960093,83428282,0.08,0.05,0.14,0.11,352.77,352.76,0.0,0.0
1630879371.29956102,83528242,0.08,0.05,0.16,0.14,352.77,352.77,0.0,0.0
1630879371.39952087,83628202,0.09,0.07,0.18,0.16,352.77,352.77,0.0,0.0
1630879371.49948096,83728162,0.1,0.08,0.19,0.18,352.77,352.77,0.0,0.0
1630879371.60027385,83828955,0.13,0.1,0.19,0.19,352.77,352.77,0.0,0.0
1630879371.70023394,83928915,0.15,0.12,0.17,0.19,352.77,352.77,0.0,0.0
1630879371.80019403,84028875,0.17,0.14,0.16,0.17,352.77,352.77,0.0,0.0
1630879371.90015388,84128835,0.2,0.18,0.14,0.14,352.77,352.77,0.0,0.0
1630879372.00011396,84228795,0.21,0.21,0.09,0.11,352.77,352.77,0.0,0.0
1630879372.10007381,84328755,0.18,0.21,0.09,0.08,352.77,352.77,0.0,0.0
1630879372.20003390,84428715,0.17,0.19,0.1,0.08,352.77,352.77,0.0,0.0
1630879372.29999399,84528675,0.14,0.16,0.1,0.08,352.77,352.77,0.0,0.0
1630879372.39995384,84628635,0.14,0.14,0.07,0.07,352.77,352.77,0.0,0.0
1630879372.49991393,84728595,0.13,0.13,0.05,0.05,352.77,352.76,0.0,0.0
1630879372.59987402,84828555,0.15,0.12,0.06,0.04,352.77,352.76,0.0,0.0
1630879372.69983387,84928515,0.16,0.14,0.09,0.05,352.77,352.76,0.0,0.0
1630879372.79979396,85028475,0.14,0.14,0.1,0.07,352.77,352.76,0.0,0.0
1630879372.89975381,85128435,0.12,0.12,0.14,0.11,352.77,352.76,0.0,0.0
1630879372.99971390,85228395,0.1,0.1,0.19,0.16,352.77,352.76,0.0,0.0
1630879373.09967399,85328355,0.11,0.08,0.21,0.21,352.77,352.76,0.0,0.0
1630879373.19963384,85428315,0.13,0.08,0.22,0.25,352.77,352.76,0.0,0.0
1630879373.29959393,85528275,0.17,0.12,0.17,0.22,352.77,352.76,0.0,0.0
1630879373.39955401,85628235,0.15,0.15,0.09,0.14,352.77,352.76,0.0,0.0
1630879373.49951386,85728195,0.13,0.15,0.05,0.07,352.77,352.76,0.0,0.0
1630879373.59947395,85828155,0.13,0.13,0.04,0.02,352.77,352.76,0.0,0.0
1630879373.70026684,85928948,0.13,0.13,0.05,0.01,352.77,352.76,0.0,0.0
1630879373.80022693,86028908,0.13,0.12,0.08,0.02,352.77,352.76,0.0,0.0
1630879373.90018702,86128868,0.12,0.11,0.11,0.07,352.77,352.76,0.0,0.0
1630879374.00014687,86228828,0.14,0.12,0.13,0.11,352.77,352.77,0.0,0.0
1630879374.10010695,86328788,0.16,0.13,0.11,0.12,352.77,352.77,0.0,0.0
1630879374.20006680,86428748,0.17,0.15,0.11,0.12,352.77,352.77,0.0,0.0
1630879374.30002689,86528708,0.17,0.16,0.06,0.1,352.77,352.77,0.0,0.0
1630879374.39998698,86628668,0.14,0.15,0.05,0.06,352.77,352.77,0.0,0.0
1630879374.49994683,86728628,0.1,0.12,0.1,0.07,352.77,352.76,0.0,0.0
1630879374.59990692,86828588,0.05,0.07,0.13,0.1,352.77,352.76,0.0,0.0
1630879374.69986701,86928548,0.03,0.02,0.13,0.13,352.77,352.76,0.0,0.0
1630879374.79982686,87028508,0.07,0.01,0.11,0.13,352.77,352.76,0.0,0.0
1630879374.89978695,87128468,0.13,0.06,0.12,0.14,352.77,352.76,0.0,0.0
1630879374.99974680,87228428,0.17,0.13,0.13,0.13,352.77,352.77,0.0,0.0
1630879375.09970689,87328388,0.15,0.17,0.1,0.12,352.77,352.77,0.0,0.0
1630879375.19966698,87428348,0.15,0.17,0.07,0.08,352.77,352.77,0.0,0.0
1630879375.29962683,87528308,0.13,0.15,0.04,0.04,352.77,352.77,0.0,0.0
1630879375.39958692,87628268,0.13,0.13,0.05,0.02,352.77,352.77,0.0,0.0
1630879375.49954700,87728228,0.14,0.13,0.07,0.02,352.77,352.77,0.0,0.0
1630879375.59950686,87828188,0.15,0.14,0.11,0.06,352.77,352.77,0.0,0.0
1630879375.70029998,87928981,0.11,0.13,0.13,0.1,352.77,352.78,0.0,0.0
1630879375.80025983,88028941,0.06,0.09,0.14,0.13,352.77,352.78,0.0,0.0
1630879375.90021992,88128901,0.06,0.06,0.14,0.14,352.77,352.78,0.0,0.0
1630879376.00018001,88228861,0.09,0.06,0.14,0.14,352.77,352.78,0.0,0.0
1630879376.10013986,88328821,0.1,0.08,0.14,0.14,352.77,352.78,0.0,0.0
1630879376.20009995,88428781,0.1,0.1,0.12,0.14,352.77,352.78,0.0,0.0
1630879376.30005980,88528741,0.09,0.11,0.1,0.11,352.77,352.77,0.0,0.0
1630879376.40001988,88628701,0.07,0.08,0.1,0.11,352.77,352.77,0.0,0.0
1630879376.49997997,88728661,0.07,0.06,0.09,0.1,352.77,352.77,0.0,0.0
1630879376.59993982,88828621,0.09,0.06,0.09,0.08,352.77,352.77,0.0,0.0
1630879376.69989991,88928581,0.11,0.08,0.13,0.09,352.77,352.77,0.0,0.0
1630879376.79986000,89028541,0.16,0.12,0.17,0.13,352.77,352.76,0.0,0.0
1630879376.89981985,89128501,0.2,0.17,0.19,0.17,352.77,352.76,0.0,0.0
1630879376.99977994,89228461,0.21,0.2,0.2,0.19,352.77,352.76,0.0,0.0
1630879377.09974003,89328421,0.19,0.21,0.19,0.19,352.77,352.77,0.0,0.0
1630879377.19969988,89428381,0.17,0.19,0.18,0.18,352.77,352.77,0.0,0.0
1630879377.29965997,89528341,0.17,0.18,0.18,0.18,352.77,352.77,0.0,0.0
1630879377.39961982,89628301,0.18,0.18,0.15,0.16,352.77,352.77,0.0,0.0
1630879377.49957991,89728261,0.16,0.17,0.16,0.15,352.77,352.77,0.0,0.0
1630879377.59954000,89828221,0.14,0.14,0.17,0.16,352.77,352.77,0.0,0.0
1630879377.69949985,89928181,0.15,0.13,0.18,0.17,352.77,352.77,0.0,0.0
1630879377.80029297,90028974,0.18,0.15,0.18,0.17,352.77,352.77,0.0,0.0
1630879377.90025282,90128934,0.19,0.17,0.17,0.18,352.77,352.77,0.0,0.0
1630879378.00021291,90228894,0.2,0.18,0.17,0.18,352.77,352.77,0.0,0.0
1630879378.10017300,90328854,0.22,0.2,0.18,0.18,352.77,352.77,0.0,0.0
1630879378.20013285,90428814,0.2,0.21,0.18,0.18,352.77,352.77,0.0,0.0
1630879378.30009294,90528774,0.18,0.19,0.19,0.18,352.77,352.77,0.0,0.0
1630879378.40005302,90628734,0.17,0.17,0.16,0.17,352.77,352.77,0.0,0.0
1630879378.50001287,90728694,0.16,0.16,0.14,0.15,352.77,352.77,0.0,0.0
1630879378.59997296,90828654,0.18,0.16,0.12,0.12,352.77,352.77,0.0,0.0
1630879378.69993281,90928614,0.21,0.19,0.13,0.11,352.77,352.77,0.0,0.0
1630879378.79989290,91028574,0.2,0.2,0.15,0.12,352.77,352.77,0.0,0.0
1630879378.89985299,91128534,0.15,0.18,0.17,0.14,352.77,352.77,0.0,0.0
1630879378.99981284,91228494,0.11,0.13,0.19,0.16,352.77,352.77,0.0,0.0
1630879379.09977293,91328454,0.11,0.1,0.19,0.19,352.77,352.77,0.0,0.0
1630879379.19973302,91428414,0.11,0.09,0.18,0.18,352.77,352.77,0.0,0.0
1630879379.29969287,91528374,0.1,0.09,0.16,0.17,352.77,352.77,0.0,0.0
1630879379.39965296,91628334,0.08,0.07,0.17,0.16,352.77,352.77,0.0,0.0
1630879379.49961281,91728294,0.06,0.06,0.2,0.17,352.77,352.77,0.0,0.0
1630879379.59957290,91828254,0.08,0.05,0.19,0.18,352.77,352.77,0.0,0.0
1630879379.69953299,91928214,0.14,0.09,0.16,0.17,352.77,352.77,0.0,0.0
1630879379.79949284,92028174,0.18,0.15,0.14,0.14,352.77,352.77,0.0,0.0
1630879379.90028596,92128967,0.18,0.18,0.13,0.12,352.77,352.77,0.0,0.0
1630879380.00024581,92228927,0.18,0.18,0.14,0.12,352.77,352.77,0.0,0.0
1630879380.10020590,92328887,0.19,0.19,0.17,0.14,352.77,352.77,0.0,0.0
1630879380.20016599,92428847,0.19,0.19,0.17,0.16,352.77,352.77,0.0,0.0
1630879380.30012584,92528807,0.19,0.19,0.15,0.15,352.77,352.77,0.0,0.0
1630879380.40008593,92628767,0.19,0.18,0.16,0.15,352.77,352.77,0.0,0.0
1630879380.50004601,92728727,0.19,0.18,0.17,0.16,352.77,352.77,0.0,0.0
1630879380.60000587,92828687,0.17,0.17,0.12,0.14,352.77,352.76,0.0,0.0
1630879380.69996595,92928647,0.17,0.16,0.09,0.1,352.77,352.76,0.0,0.0
1630879380.79992580,93028607,0.18,0.16,0.09,0.07,352.77,352.76,0.0,0.0
1630879380.89988589,93128567,0.17,0.16,0.08,0.06,352.77,352.76,0.0,0.0
1630879380.99984598,93228527,0.16,0.15,0.1,0.06,352.77,352.76,0.0,0.0
1630879381.09980583,93328487,0.16,0.15,0.11,0.08,352.77,352.76,0.0,0.0
1630879381.19976592,93428447,0.19,0.17,0.1,0.09,352.77,352.77,0.0,0.0
1630879381.29972601,93528407,0.21,0.2,0.1,0.09,352.77,352.77,0.0,0.0
1630879381.39968586,93628367,0.19,0.21,0.09,0.08,352.77,352.77,0.0,0.0
1630879381.49964595,93728327,0.17,0.19,0.09,0.08,352.77,352.77,0.0,0.0
1630879381.59960580,93828287,0.16,0.16,0.11,0.08,352.77,352.77,0.0,0.0
1630879381.69956589,93928247,0.16,0.15,0.11,0.1,352.77,352.77,0.0,0.0
1630879381.79952598,94028207,0.16,0.14,0.12,0.11,352.77,352.77,0.0,0.0
1630879381.89948583,94128167,0.16,0.15,0.13,0.13,352.77,352.77,0.0,0.0
1630879382.00027895,94228960,0.18,0.15,0.14,0.14,352.77,352.77,0.0,0.0
1630879382.10023880,94328920,0.22,0.19,0.14,0.14,352.77,352.77,0.0,0.0
1630879382.20019889,94428880,0.23,0.21,0.14,0.14,352.77,352.77,0.0,0.0
1630879382.30015898,94528840,0.25,0.23,0.15,0.15,352.77,352.77,0.0,0.0
1630879382.40011883,94628800,0.36,0.29,0.25,0.19,352.77,352.77,0.0,0.0
1630879382.50007892,94728760,0.64,0.48,0.5,0.36,352.77,352.77,0.0,0.0
1630879382.60003901,94828720,1.11,0.88,0.93,0.72,352.77,352.77,0.0,0.0
1630879382.69999886,94928680,1.69,1.46,1.5,1.27,352.77,352.78,0.0,0.0
1630879382.79995894,95028640,2.34,2.15,2.15,1.96,352.77,352.79,0.0,0.0
1630879382.89991879,95128600,2.98,2.88,2.82,2.71,352.77,352.81,0.0,0.01
1630879382.99987888,95228560,3.55,3.56,3.38,3.39,352.77,352.83,0.0,0.01
1630879383.09983897,95328520,4.01,4.12,3.83,3.95,352.77,352.84,0.0,0.01
1630879383.19979882,95428480,4.39,4.55,4.19,4.36,352.77,352.83,0.0,0.01
1630879383.29975891,95528440,4.69,4.86,4.53,4.69,352.77,352.82,0.0,0.01
1630879383.39971900,95628400,4.97,5.1,4.88,4.98,352.77,352.81,0.0,0.01
1630879383.49967885,95728360,5.26,5.34,5.21,5.27,352.77,352.8,0.0,0.01
1630879383.59963894,95828320,5.51,5.56,5.5,5.55,352.77,352.79,0.0,0.01
1630879383.69959903,95928280,5.71,5.76,5.69,5.76,352.77,352.77,0.0,0.0
1630879383.79955888,96028240,5.87,5.91,5.81,5.89,352.77,352.75,0.0,0.0
1630879383.89951897,96128200,6.02,6.04,5.93,5.99,352.77,352.74,0.0,0.0
1630879383.99947882,96228160,6.12,6.15,6.07,6.08,352.77,352.73,0.0,0.0
1630879384.10027194,96328953,6.28,6.24,6.24,6.23,353.28,352.74,0.0,0.0
1630879384.20023203,96428913,6.52,6.26,6.46,6.58,356.3,352.94,0.0,0.0
1630879384.30019188,96528873,6.87,6.19,6.69,7.23,1.82,353.93,0.0,0.0
1630879384.40015197,96628833,7.43,6.28,6.74,7.88,7.82,356.39,0.0,0.0
1630879384.50011182,96728793,8.23,6.77,6.45,8.15,13.82,0.54,0.0,0.01
1630879384.60007191,96828753,9.24,7.67,5.71,7.81,19.81,6.22,0.0,0.02
1630879384.70003200,96928713,10.33,8.9,4.54,6.79,25.81,13.11,0.0,0.03
1630879384.79999185,97028673,11.34,10.23,2.96,5.12,31.81,20.85,0.0,0.04
1630879384.89995193,97128633,12.14,11.42,1.12,2.94,37.81,29.14,0.0,0.05
1630879384.99991202,97228593,12.64,12.3,-0.86,0.42,43.81,37.71,0.0,0.06
1630879385.09987187,97328553,12.79,12.71,-2.84,-2.19,49.81,46.33,0.0,0.07
1630879385.19983196,97428513,12.58,12.6,-4.74,-4.7,55.81,54.79,0.0,0.07
1630879385.29979181,97528473,12.1,12.01,-6.51,-6.97,61.81,62.88,0.0,0.08
1630879385.39975190,97628433,11.45,11.11,-8.11,-8.88,67.81,70.47,0.0,0.08
1630879385.49971199,97728393,10.68,10.08,-9.54,-10.42,73.81,77.46,0.0,0.08
1630879385.59967184,97828353,9.81,9.02,-10.8,-11.63,79.82,83.83,0.0,0.07
1630879385.69963193,97928313,8.87,8.01,-11.89,-12.57,85.82,89.65,0.0,0.07
1630879385.79959202,98028273,7.9,7.1,-12.82,-13.3,91.82,95.02,0.0,0.06
1630879385.89955187,98128233,6.88,6.25,-13.59,-13.87,97.82,100.09,0.0,0.06
1630879385.99951196,98228193,5.76,5.42,-14.24,-14.33,103.82,104.99,0.0,0.05
1630879386.10030484,98328986,4.56,4.54,-14.8,-14.75,109.82,109.89,0.0,0.05
1630879386.20026493,98428946,3.25,3.54,-15.23,-15.12,115.82,114.9,0.0,0.04
1630879386.30022502,98528906,1.82,2.27,-15.57,-15.46,120.64,120.09,0.0,0.04
1630879386.40018487,98628866,0.31,0.37,-15.8,-15.74,123.21,125.24,0.0,0.04
1630879386.50014496,98728826,-1.1,-1.91,-15.88,-15.83,124.54,129.8,0.0,0.04
1630879386.60010481,98828786,-2.21,-4.06,-15.88,-15.73,125.24,133.27,0.0,0.04
1630879386.70006490,98928746,-2.79,-5.53,-15.86,-15.53,125.63,135.39,0.0,0.03
1630879386.80002499,99028706,-2.8,-6.05,-15.89,-15.38,125.88,136.18,0.0,0.03
1630879386.89998484,99128666,-2.39,-5.67,-16.02,-15.36,126.07,135.82,0.0,0.02
1630879386.99994493,99228626,-1.67,-4.57,-16.19,-15.49,126.25,134.57,0.0,0.02
1630879387.09990501,99328586,-0.86,-3.04,-16.36,-15.75,126.43,132.71,0.0,0.03
1630879387.19986486,99428546,-0.09,-1.39,-16.53,-16.04,126.61,130.54,0.0,0.03
1630879387.29982495,99528506,0.56,0.16,-16.67,-16.34,126.79,128.36,0.0,0.03
1630879387.39978480,99628466,1.04,1.43,-16.74,-16.55,126.96,126.42,0.0,0.04
1630879387.49974489,99728426,1.32,2.3,-16.75,-16.66,127.12,124.93,0.0,0.04
1630879387.59970498,99828386,1.43,2.77,-16.72,-16.67,127.25,124.0,0.0,0.03
1630879387.69966483,99928346,1.36,2.84,-16.71,-16.64,127.36,123.64,0.0,0.03
1630879387.79962492,100028306,1.14,2.55,-16.73,-16.63,127.45,123.81,0.0,0.03
1630879387.89958501,100128266,0.86,2.02,-16.76,-16.65,127.51,124.39,0.0,0.03
1630879387.99954486,100228226,0.56,1.36,-16.83,-16.71,127.55,125.26,0.0,0.02
1630879388.09950495,100328186,0.28,0.69,-16.89,-16.8,127.58,126.26,0.0,0.02
1630879388.20029783,100428979,0.04,0.07,-16.94,-16.88,127.6,127.26,0.0,0.01
1630879388.30025792,100528939,-0.14,-0.42,-16.95,-16.93,127.61,128.15,0.0,0.01
1630879388.40021801,100628899,-0.28,-0.79,-16.96,-16.95,127.62,128.84,0.0,0.01
1630879388.50017786,100728859,-0.34,-1.0,-17.0,-16.97,127.64,129.3,0.0,0.01
1630879388.60013795,100828819,-0.32,-1.04,-17.05,-17.01,127.65,129.51,0.0,0.01
1630879388.70009780,100928779,-0.24,-0.93,-17.09,-17.06,127.67,129.49,0.0,0.01
1630879388.80005789,101028739,-0.16,-0.73,-17.12,-17.1,127.69,129.29,0.0,0.01
1630879388.90001798,101128699,-0.07,-0.5,-17.14,-17.13,127.71,128.97,0.0,0.01
1630879388.99997783,101228659,0.04,-0.24,-17.15,-17.15,127.73,128.58,0.0,0.01
1630879389.09993792,101328619,0.17,0.02,-17.2,-17.18,127.75,128.18,0.0,0.01
1630879389.19989800,101428579,0.25,0.25,-17.24,-17.23,127.77,127.83,0.0,0.01
1630879389.29985785,101528539,0.28,0.41,-17.28,-17.27,127.78,127.55,0.0,0.01
1630879389.39981794,101628499,0.27,0.47,-17.32,-17.31,127.79,127.37,0.0,0.01
1630879389.49977779,101728459,0.26,0.47,-17.33,-17.34,127.8,127.28,0.0,0.01
1630879389.59973788,101828419,0.24,0.42,-17.33,-17.34,127.8,127.29,0.0,0.01
1630879389.69969797,101928379,0.23,0.36,-17.31,-17.32,127.8,127.37,0.0,0.01
1630879389.79965782,102028339,0.2,0.29,-17.33,-17.32,127.8,127.5,0.0,0.01
1630879389.89961791,102128299,0.16,0.2,-17.37,-17.35,127.8,127.66,0.0,0.01
1630879389.99957800,102228259,0.11,0.09,-17.43,-17.4,127.79,127.82,0.0,0.01
1630879390.09953785,102328219,0.06,0.0,-17.48,-17.46,127.78,127.97,0.0,0.01
1630879390.19949794,102428179,0.0,-0.08,-17.52,-17.51,127.78,128.08,0.0,0.01
1630879390.30029082,102528972,-0.04,-0.17,-17.53,-17.55,127.77,128.15,0.0,0.01
1630879390.40025091,102628932,-0.05,-0.22,-17.52,-17.54,127.76,128.18,0.0,0.01
1630879390.50021100,102728892,-0.04,-0.22,-17.53,-17.54,127.75,128.17,0.0,0.01
1630879390.60017085,102828852,-0.01,-0.18,-17.54,-17.55,127.74,128.13,0.0,0.01
1630879390.70013094,102928812,0.04,-0.09,-17.56,-17.56,127.73,128.06,0.0,0.01
1630879390.80009103,103028772,0.09,0.0,-17.61,-17.6,127.73,127.98,0.0,0.01
1630879390.90005088,103128732,0.11,0.07,-17.64,-17.64,127.72,127.91,0.0,0.01
1630879391.00001097,103228692,0.13,0.12,-17.66,-17.68,127.72,127.83,0.0,0.01
1630879391.09997082,103328652,0.13,0.15,-17.66,-17.69,127.71,127.77,0.0,0.01
1630879391.19993091,103428612,0.14,0.16,-17.66,-17.69,127.71,127.73,0.0,0.01
1630879391.29989100,103528572,0.16,0.17,-17.65,-17.68,127.7,127.71,0.0,0.01
1630879391.39985085,103628532,0.15,0.16,-17.66,-17.67,127.7,127.7,0.0,0.01
1630879391.49981093,103728492,0.12,0.13,-17.67,-17.66,127.69,127.71,0.0,0.01
1630879391.59977102,103828452,0.1,0.09,-17.68,-17.67,127.69,127.73,0.0,0.01
1630879391.69973087,103928412,0.11,0.07,-17.69,-17.68,127.68,127.75,0.0,0.01
1630879391.79969096,104028372,0.11,0.06,-17.72,-17.7,127.67,127.77,0.0,0.01
1630879391.89965081,104128332,0.11,0.06,-17.75,-17.73,127.67,127.79,0.0,0.01
1630879391.99961090,104228292,0.11,0.05,-17.76,-17.76,127.66,127.81,0.0,0.01
1630879392.09957099,104328252,0.12,0.04,-17.79,-17.78,127.66,127.81,0.0,0.01
1630879392.19953084,104428212,0.13,0.05,-17.8,-17.8,127.65,127.81,0.0,0.01
1630879392.29949093,104528172,0.14,0.06,-17.8,-17.81,127.65,127.8,0.0,0.01
1630879392.40028381,104628965,0.13,0.08,-17.78,-17.8,127.65,127.78,0.0,0.01
1630879392.50024390,104728925,0.13,0.09,-17.77,-17.79,127.64,127.77,0.0,0.01
1630879392.60020399,104828885,0.12,0.09,-17.79,-17.8,127.64,127.75,0.0,0.01
1630879392.70016384,104928845,0.12,0.08,-17.81,-17.81,127.64,127.74,0.0,0.01
1630879392.80012393,105028805,0.16,0.1,-17.84,-17.83,127.64,127.73,0.0,0.01
1630879392.90008402,105128765,0.21,0.15,-17.86,-17.86,127.64,127.72,0.0,0.01
1630879393.00004387,105228725,0.22,0.19,-17.88,-17.88,127.64,127.72,0.0,0.01
1630879393.10000396,105328685,0.22,0.21,-17.89,-17.9,127.64,127.72,0.0,0.01
1630879393.19996381,105428645,0.19,0.18,-17.91,-17.92,127.64,127.72,0.0,0.01
1630879393.29992390,105528605,0.17,0.15,-17.94,-17.93,127.63,127.73,0.0,0.01
1630879393.39988399,105628565,0.17,0.14,-17.96,-17.96,127.63,127.73,0.0,0.01
1630879393.49984384,105728525,0.2,0.14,-17.94,-17.97,127.63,127.74,0.0,0.0
1630879393.59980392,105828485,0.23,0.16,-17.92,-17.96,127.63,127.74,0.0,0.0
1630879393.69976401,105928445,0.23,0.19,-17.91,-17.94,127.63,127.74,0.0,0.0
1630879393.79972386,106028405,0.2,0.19,-17.92,-17.93,127.63,127.74,0.0,0.0
1630879393.89968395,106128365,0.2,0.18,-17.95,-17.94,127.63,127.74,0.0,0.0
1630879393.99964380,106228325,0.19,0.17,-18.0,-17.98,127.63,127.74,0.0,0.0
1630879394.09960389,106328285,0.19,0.16,-18.02,-18.02,127.62,127.73,0.0,0.0
1630879394.19956398,106428245,0.2,0.17,-18.02,-18.03,127.62,127.72,0.0,0.0
1630879394.29952383,106528205,0.2,0.17,-18.01,-18.03,127.62,127.72,0.0,0.0
1630879394.39948392,106628165,0.2,0.17,-17.98,-18.01,127.62,127.71,0.0,0.0
1630879394.50027680,106728958,0.21,0.18,-17.95,-17.97,127.62,127.7,0.0,0.0
1630879394.60023689,106828918,0.23,0.19,-17.93,-17.93,127.62,127.7,0.0,0.0
1630879394.70019698,106928878,0.22,0.2,-17.95,-17.93,127.62,127.7,0.0,0.0
1630879394.80015683,107028838,0.21,0.19,-18.0,-17.97,127.62,127.7,0.0,0.0
1630879394.90011692,107128798,0.19,0.17,-18.03,-18.02,127.62,127.69,0.0,0.0
1630879395.00007701,107228758,0.18,0.15,-18.05,-18.06,127.62,127.7,0.0,0.0
1630879395.10003686,107328718,0.17,0.14,-18.06,-18.09,127.62,127.7,0.0,0.0
1630879395.19999695,107428678,0.15,0.13,-18.06,-18.1,127.61,127.7,0.0,0.0
1630879395.29995680,107528638,0.16,0.12,-18.05,-18.1,127.61,127.7,0.0,0.0
1630879395.39991689,107628598,0.18,0.13,-18.04,-18.08,127.61,127.7,0.0,0.0
1630879395.49987698,107728558,0.18,0.15,-18.03,-18.05,127.61,127.7,0.0,0.0
1630879395.59983683,107828518,0.17,0.15,-18.02,-18.04,127.61,127.7,0.0,0.0
1630879395.69979692,107928478,0.15,0.13,-18.02,-18.02,127.61,127.7,0.0,0.0
1630879395.79975700,108028438,0.13,0.12,-18.05,-18.03,127.61,127.69,0.0,0.0
1630879395.89971685,108128398,0.15,0.12,-18.08,-18.06,127.61,127.69,0.0,0.0
1630879395.99967694,108228358,0.15,0.12,-18.1,-18.1,127.61,127.69,0.0,0.0
1630879396.09963703,108328318,0.15,0.12,-18.11,-18.12,127.61,127.69,0.0,0.0
1630879396.19959688,108428278,0.19,0.13,-18.12,-18.13,127.61,127.68,0.0,0.0
1630879396.29955697,108528238,0.23,0.17,-18.11,-18.14,127.61,127.68,0.0,0.0
1630879396.39951682,108628198,0.23,0.2,-18.1,-18.13,127.61,127.68,0.0,0.0
1630879396.49947691,108728158,0.23,0.21,-18.08,-18.1,127.61,127.68,0.0,0.0
1630879396.60026979,108828951,0.22,0.2,-18.05,-18.07,127.62,127.69,0.0,0.0
1630879396.70022988,108928911,0.2,0.18,-18.03,-18.04,127.62,127.69,0.0,0.0
1630879396.80018997,109028871,0.18,0.16,-18.02,-18.02,127.62,127.69,0.0,0.0
1630879396.90014982,109128831,0.2,0.15,-18.03,-18.02,127.62,127.69,0.0,0.0
1630879397.00010991,109228791,0.22,0.17,-18.05,-18.03,127.63,127.7,0.0,0.0
1630879397.10007000,109328751,0.25,0.2,-18.08,-18.07,127.63,127.7,0.0,0.0
1630879397.20002985,109428711,0.28,0.24,-18.12,-18.12,127.63,127.7,0.0,0.0
1630879397.29998994,109528671,0.29,0.27,-18.13,-18.15,127.64,127.71,0.0,0.0
1630879397.39995003,109628631,0.29,0.28,-18.09,-18.15,127.64,127.71,0.0,0.0
1630879397.49990988,109728591,0.28,0.28,-18.06,-18.1,127.65,127.71,0.0,0.0
1630879397.59986997,109828551,0.27,0.26,-18.06,-18.08,127.65,127.72,0.0,0.0
1630879397.69982982,109928511,0.27,0.25,-18.09,-18.08,127.65,127.72,0.0,0.0
1630879397.79978991,110028471,0.26,0.24,-18.13,-18.11,127.65,127.72,0.0,0.0
1630879397.89974999,110128431,0.27,0.24,-18.17,-18.15,127.66,127.72,0.0,0.0
1630879397.99970984,110228391,0.29,0.25,-18.21,-18.2,127.66,127.72,0.0,0.0
1630879398.09966993,110328351,0.28,0.26,-18.23,-18.24,127.66,127.73,0.0,0.0
1630879398.19963002,110428311,0.27,0.25,-18.22,-18.26,127.66,127.73,0.0,0.0
1630879398.29958987,110528271,0.26,0.24,-18.19,-18.23,127.66,127.73,0.0,0.0
1630879398.39954996,110628231,0.26,0.23,-18.19,-18.21,127.67,127.73,0.0,0.0
1630879398.49950981,110728191,0.24,0.22,-18.2,-18.21,127.67,127.74,0.0,0.0
1630879398.60030293,110828984,0.23,0.2,-18.2,-18.21,127.67,127.74,0.0,0.0
1630879398.70026302,110928944,0.22,0.2,-18.18,-18.21,127.67,127.74,0.0,0.0
1630879398.80022287,111028904,0.22,0.19,-18.16,-18.2,127.67,127.74,0.0,0.0
1630879398.90018296,111128864,0.23,0.19,-18.16,-18.18,127.67,127.74,0.0,0.0
1630879399.00014281,111228824,0.24,0.21,-18.17,-18.19,127.67,127.73,0.0,0.0
1630879399.10010290,111328784,0.25,0.22,-18.18,-18.2,127.67,127.73,0.0,0.0
1630879399.20006299,111428744,0.26,0.23,-18.17,-18.2,127.67,127.73,0.0,0.0
1630879399.30002284,111528704,0.23,0.22,-18.18,-18.19,127.67,127.73,0.0,0.0
1630879399.39998293,111628664,0.21,0.2,-18.17,-18.18,127.67,127.73,0.0,0.0
1630879399.49994302,111728624,0.23,0.19,-18.16,-18.17,127.67,127.73,0.0,0.0
1630879399.59990287,111828584,0.25,0.2,-18.16,-18.16,127.67,127.72,0.0,0.0
1630879399.69986296,111928544,0.26,0.23,-18.17,-18.16,127.68,127.72,0.0,0.0
1630879399.79982281,112028504,0.26,0.24,-18.2,-18.18,127.68,127.72,0.0,0.0
1630879399.89978290,112128464,0.26,0.25,-18.22,-18.2,127.68,127.72,0.0,0.0
1630879399.99974298,112228424,0.28,0.26,-18.22,-18.23,127.68,127.73,0.0,0.0
1630879400.09970284,112328384,0.3,0.28,-18.2,-18.23,127.68,127.73,0.0,0.0
1630879400.19966292,112428344,0.31,0.29,-18.19,-18.22,127.69,127.73,0.0,0.0
1630879400.29962301,112528304,0.31,0.29,-18.2,-18.21,127.69,127.74,0.0,0.0
1630879400.39958286,112628264,0.29,0.27,-18.21,-18.22,127.69,127.74,0.0,0.0
1630879400.49954295,112728224,0.26,0.25,-18.2,-18.22,127.69,127.75,0.0,0.0
1630879400.59950280,112828184,0.25,0.22,-18.2,-18.22,127.69,127.75,0.0,0.0
1630879400.70029593,112928977,0.25,0.2,-18.19,-18.22,127.69,127.75,0.0,0.0
1630879400.80025601,113028937,0.26,0.21,-18.18,-18.21,127.69,127.75,0.0,0.0
1630879400.90021586,113128897,0.28,0.23,-18.18,-18.19,127.69,127.75,0.0,0.0
1630879401.00017595,113228857,0.3,0.26,-18.18,-18.19,127.69,127.74,0.0,0.0
1630879401.10013580,113328817,0.31,0.29,-18.17,-18.17,127.69,127.74,0.0,0.0
1630879401.20009589,113428777,0.3,0.29,-18.16,-18.17,127.69,127.74,0.0,0.0
1630879401.30005598,113528737,0.28,0.28,-18.17,-18.18,127.7,127.73,0.0,0.0
1630879401.40001583,113628697,0.25,0.25,-18.17,-18.19,127.7,127.73,0.0,0.0
1630879401.49997592,113728657,0.25,0.23,-18.15,-18.17,127.7,127.74,0.0,0.0
1630879401.59993601,113828617,0.27,0.24,-18.15,-18.16,127.7,127.74,0.0,0.0
1630879401.69989586,113928577,0.31,0.28,-18.14,-18.15,127.71,127.75,0.0,0.0
1630879401.79985595,114028537,0.33,0.31,-18.13,-18.14,127.71,127.75,0.0,0.0
1630879401.89981580,114128497,0.32,0.32,-18.15,-18.14,127.71,127.76,0.0,0.0
1630879401.99977589,114228457,0.33,0.32,-18.19,-18.18,127.71,127.76,0.0,0.0
1630879402.09973598,114328417,0.35,0.33,-18.21,-18.21,127.72,127.77,0.0,0.0
1630879402.19969583,114428377,0.35,0.33,-18.23,-18.24,127.72,127.77,0.0,0.0
1630879402.29965591,114528337,0.37,0.34,-18.25,-18.27,127.72,127.77,0.0,0.0
1630879402.39961600,114628297,0.36,0.34,-18.26,-18.28,127.73,127.77,0.0,0.0
1630879402.49957585,114728257,0.35,0.33,-18.25,-18.27,127.73,127.77,0.0,0.0
1630879402.59953594,114828217,0.32,0.31,-18.23,-18.26,127.73,127.77,0.0,0.0
1630879402.69949603,114928177,0.3,0.28,-18.21,-18.23,127.73,127.77,0.0,0.0
1630879402.80028892,115028970,0.29,0.26,-18.18,-18.2,127.72,127.77,0.0,0.0
1630879402.90024900,115128930,0.3,0.26,-18.19,-18.19,127.72,127.77,0.0,0.0
1630879403.00020885,115228890,0.31,0.26,-18.2,-18.19,127.72,127.77,0.0,0.0
1630879403.10016894,115328850,0.34,0.29,-18.21,-18.2,127.72,127.76,0.0,0.0
1630879403.20012879,115428810,0.37,0.32,-18.22,-18.22,127.72,127.76,0.0,0.0
1630879403.30008888,115528770,0.38,0.36,-18.23,-18.23,127.72,127.76,0.0,0.0
1630879403.40004897,115628730,0.36,0.36,-18.24,-18.25,127.72,127.75,0.0,0.0
1630879403.50000882,115728690,0.33,0.34,-18.22,-18.25,127.72,127.75,0.0,0.0
1630879403.59996891,115828650,0.34,0.32,-18.21,-18.23,127.72,127.75,0.0,0.0
1630879403.69992900,115928610,0.36,0.33,-18.21,-18.22,127.72,127.75,0.0,0.0
1630879403.79988885,116028570,0.37,0.35,-18.22,-18.22,127.72,127.76,0.0,0.0
1630879403.89984894,116128530,0.34,0.34,-18.24,-18.23,127.72,127.76,0.0,0.0
1630879403.99980903,116228490,0.35,0.34,-18.26,-18.26,127.73,127.76,0.0,0.0
1630879404.09976888,116328450,0.35,0.35,-18.25,-18.27,127.72,127.76,0.0,0.0
1630879404.19972897,116428410,0.33,0.33,-18.23,-18.26,127.72,127.76,0.0,0.0
1630879404.29968882,116528370,0.31,0.3,-18.23,-18.24,127.72,127.76,0.0,0.0
1630879404.39964890,116628330,0.32,0.29,-18.23,-18.24,127.72,127.75,0.0,0.0
1630879404.49960899,116728290,0.34,0.31,-18.21,-18.23,127.72,127.75,0.0,0.0
1630879404.59956884,116828250,0.34,0.32,-18.2,-18.21,127.72,127.75,0.0,0.0
1630879404.69952893,116928210,0.35,0.32,-18.19,-18.2,127.72,127.75,0.0,0.0
1630879404.79948902,117028170,0.36,0.33,-18.21,-18.2,127.72,127.75,0.0,0.0
1630879404.90028191,117128963,0.38,0.35,-18.2,-18.21,127.72,127.75,0.0,0.0
1630879405.00024199,117228923,0.38,0.36,-18.2,-18.21,127.72,127.74,0.0,0.0
1630879405.10020185,117328883,0.39,0.37,-18.23,-18.23,127.72,127.74,0.0,0.0
1630879405.20016193,117428843,0.4,0.38,-18.25,-18.25,127.72,127.74,0.0,0.0
1630879405.30012202,117528803,0.39,0.38,-18.22,-18.25,127.72,127.74,0.0,0.0
1630879405.40008187,117628763,0.38,0.38,-18.2,-18.24,127.72,127.74,0.0,0.0
1630879405.50004196,117728723,0.37,0.37,-18.2,-18.22,127.72,127.74,0.0,0.0
1630879405.60000181,117828683,0.36,0.35,-18.2,-18.21,127.72,127.75,0.0,0.0
1630879405.69996190,117928643,0.34,0.33,-18.22,-18.22,127.72,127.75,0.0,0.0
1630879405.79992199,118028603,0.35,0.31,-18.23,-18.23,127.73,127.75,0.0,0.0
1630879405.89988184,118128563,0.35,0.31,-18.22,-18.23,127.73,127.76,0.0,0.0
1630879405.99984193,118228523,0.37,0.33,-18.21,-18.22,127.73,127.76,0.0,0.0
1630879406.09980202,118328483,0.38,0.35,-18.19,-18.2,127.73,127.76,0.0,0.0
1630879406.19976187,118428443,0.39,0.37,-18.18,-18.19,127.73,127.76,0.0,0.0
1630879406.29972196,118528403,0.38,0.38,-18.2,-18.19,127.73,127.76,0.0,0.0
1630879406.39968181,118628363,0.36,0.36,-18.23,-18.22,127.73,127.76,0.0,0.0
1630879406.49964190,118728323,0.35,0.34,-18.23,-18.23,127.72,127.76,0.0,0.0
1630879406.59960198,118828283,0.32,0.31,-18.23,-18.24,127.72,127.75,0.0,0.0
1630879406.69956183,118928243,0.33,0.3,-18.23,-18.24,127.72,127.75,0.0,0.0
1630879406.79952192,119028203,0.32,0.29,-18.25,-18.25,127.72,127.74,0.0,0.0
1630879406.89948201,119128163,0.29,0.28,-18.26,-18.27,127.71,127.74,0.0,0.0
1630879407.00027490,119228956,0.28,0.26,-18.27,-18.28,127.71,127.73,0.0,0.0
1630879407.10023499,119328916,0.29,0.25,-18.21,-18.26,127.71,127.73,0.0,0.0
1630879407.20019484,119428876,0.34,0.29,-18.17,-18.21,127.71,127.72,0.0,0.0
1630879407.30015492,119528836,0.39,0.36,-18.18,-18.19,127.7,127.72,0.0,0.0
1630879407.40011501,119628796,0.39,0.39,-18.2,-18.2,127.7,127.71,0.0,0.0
1630879407.50007486,119728756,0.38,0.41,-18.2,-18.2,127.7,127.71,0.0,0.0
1630879407.60003495,119828716,0.38,0.4,-18.17,-18.19,127.7,127.71,0.0,0.0
1630879407.69999480,119928676,0.38,0.39,-18.16,-18.16,127.7,127.71,0.0,0.0
1630879407.79995489,120028636,0.4,0.4,-18.16,-18.17,127.71,127.71,0.0,0.0
1630879407.89991498,120128596,0.4,0.39,-18.19,-18.18,127.71,127.72,0.0,0.0
1630879407.99987483,120228556,0.38,0.38,-18.23,-18.22,127.71,127.73,0.0,0.0
1630879408.09983492,120328516,0.37,0.36,-18.25,-18.25,127.71,127.73,0.0,0.0
1630879408.19979501,120428476,0.4,0.36,-18.24,-18.26,127.72,127.74,0.0,0.0
1630879408.29975486,120528436,0.43,0.38,-18.21,-18.25,127.72,127.74,0.0,0.0
1630879408.39971495,120628396,0.46,0.42,-18.19,-18.22,127.72,127.75,0.0,0.0
1630879408.49967480,120728356,0.46,0.44,-18.21,-18.22,127.73,127.75,0.0,0.0
1630879408.59963489,120828316,0.43,0.43,-18.22,-18.23,127.73,127.75,0.0,0.0
1630879408.69959497,120928276,0.43,0.41,-18.22,-18.23,127.73,127.75,0.0,0.0
1630879408.79955482,121028236,0.44,0.41,-18.22,-18.23,127.74,127.76,0.0,0.0
1630879408.89951491,121128196,0.43,0.41,-18.21,-18.23,127.74,127.76,0.0,0.0
1630879408.99947500,121228156,0.4,0.4,-18.2,-18.22,127.74,127.76,0.0,0.0
1630879409.10026789,121328949,0.38,0.37,-18.18,-18.2,127.74,127.76,0.0,0.0
1630879409.20022798,121428909,0.37,0.35,-18.18,-18.19,127.74,127.76,0.0,0.0
1630879409.30018783,121528869,0.38,0.35,-18.18,-18.18,127.74,127.76,0.0,0.0
1630879409.40014791,121628829,0.41,0.38,-18.18,-18.18,127.74,127.76,0.0,0.0
1630879409.50010800,121728789,0.44,0.41,-18.2,-18.2,127.74,127.76,0.0,0.0
1630879409.60006785,121828749,0.46,0.45,-18.21,-18.22,127.74,127.76,0.0,0.0
1630879409.70002794,121928709,0.44,0.46,-18.23,-18.24,127.74,127.76,0.0,0.0
1630879409.79998803,122028669,0.44,0.45,-18.25,-18.26,127.74,127.75,0.0,0.0
1630879409.89994788,122128629,0.41,0.43,-18.26,-18.28,127.74,127.75,0.0,0.0
1630879409.99990797,122228589,0.37,0.38,-18.26,-18.28,127.74,127.75,0.0,0.0
1630879410.09986782,122328549,0.37,0.34,-18.25,-18.28,127.74,127.75,0.0,0.0
1630879410.19982791,122428509,0.4,0.35,-18.22,-18.26,127.74,127.75,0.0,0.0
1630879410.29978800,122528469,0.43,0.37,-18.18,-18.22,127.74,127.75,0.0,0.0
1630879410.39974785,122628429,0.45,0.42,-18.18,-18.19,127.74,127.75,0.0,0.0
1630879410.49970794,122728389,0.45,0.44,-18.2,-18.19,127.74,127.75,0.0,0.0
1630879410.59966803,122828349,0.43,0.44,-18.23,-18.21,127.74,127.75,0.0,0.0
1630879410.69962788,122928309,0.4,0.42,-18.25,-18.24,127.74,127.75,0.0,0.0
1630879410.79958797,123028269,0.36,0.37,-18.26,-18.26,127.74,127.75,0.0,0.0
1630879410.89954782,123128229,0.37,0.35,-18.26,-18.28,127.74,127.75,0.0,0.0
1630879410.99950790,123228189,0.41,0.37,-18.25,-18.27,127.74,127.75,0.0,0.0
1630879411.10030103,123328982,0.43,0.4,-18.26,-18.26,127.74,127.75,0.0,0.0
1630879411.20026088,123428942,0.45,0.43,-18.26,-18.26,127.74,127.75,0.0,0.0
1630879411.30022097,123528902,0.47,0.46,-18.25,-18.26,127.74,127.75,0.0,0.0
1630879411.40018082,123628862,0.51,0.5,-18.26,-18.26,127.74,127.74,0.0,0.0
1630879411.50014091,123728822,0.5,0.52,-18.26,-18.26,127.74,127.74,0.0,0.0
1630879411.60010099,123828782,0.46,0.49,-18.24,-18.25,127.75,127.74,0.0,0.0
1630879411.70006084,123928742,0.42,0.44,-18.22,-18.24,127.75,127.75,0.0,0.0
1630879411.80002093,124028702,0.4,0.39,-18.22,-18.23,127.75,127.75,0.0,0.0
1630879411.89998102,124128662,0.4,0.37,-18.2,-18.22,127.74,127.76,0.0,0.0
1630879411.99994087,124228622,0.42,0.38,-18.2,-18.21,127.74,127.76,0.0,0.0
1630879412.09990096,124328582,0.43,0.4,-18.22,-18.22,127.74,127.76,0.0,0.0
1630879412.19986081,124428542,0.43,0.41,-18.22,-18.23,127.74,127.76,0.0,0.0
1630879412.29982090,124528502,0.44,0.42,-18.2,-18.22,127.74,127.76,0.0,0.0
1630879412.39978099,124628462,0.45,0.43,-18.18,-18.2,127.74,127.76,0.0,0.0
1630879412.49974084,124728422,0.47,0.45,-18.17,-18.19,127.74,127.76,0.0,0.0
1630879412.59970093,124828382,0.52,0.48,-18.16,-18.17,127.74,127.75,0.0,0.0
1630879412.69966102,124928342,0.53,0.52,-18.16,-18.17,127.75,127.75,0.0,0.0
1630879412.79962087,125028302,0.52,0.53,-18.17,-18.17,127.75,127.75,0.0,0.0
1630879412.89958096,125128262,0.5,0.51,-18.17,-18.18,127.75,127.75,0.0,0.0
1630879412.99954081,125228222,0.49,0.49,-18.19,-18.19,127.75,127.75,0.0,0.0
1630879413.09950089,125328182,0.47,0.47,-18.2,-18.21,127.75,127.75,0.0,0.0
1630879413.20029402,125428975,0.46,0.45,-18.19,-18.21,127.75,127.75,0.0,0.01
1630879413.30025387,125528935,0.45,0.44,-18.17,-18.2,127.74,127.75,0.0,0.01
1630879413.40021396,125628895,0.47,0.45,-18.16,-18.17,127.74,127.75,0.0,0.01
1630879413.50017381,125728855,0.5,0.48,-18.14,-18.16,127.75,127.75,0.0,0.0
1630879413.60013390,125828815,0.52,0.51,-18.13,-18.15,127.75,127.75,0.0,0.0
1630879413.70009398,125928775,0.52,0.53,-18.15,-18.15,127.75,127.75,0.0,0.0
1630879413.80005383,126028735,0.51,0.53,-18.17,-18.16,127.75,127.75,0.0,0.0
1630879413.90001392,126128695,0.52,0.53,-18.19,-18.18,127.75,127.75,0.0,0.0
1630879413.99997401,126228655,0.52,0.52,-18.19,-18.19,127.75,127.75,0.0,0.01
1630879414.09993386,126328615,0.52,0.51,-18.2,-18.2,127.75,127.76,0.0,0.01
1630879414.19989395,126428575,0.51,0.5,-18.21,-18.21,127.75,127.76,0.0,0.01
1630879414.29985380,126528535,0.48,0.48,-18.22,-18.22,127.75,127.76,0.0,0.01
1630879414.39981389,126628495,0.44,0.45,-18.25,-18.25,127.75,127.76,0.0,0.01
1630879414.49977398,126728455,0.43,0.42,-18.27,-18.28,127.75,127.76,0.0,0.01
1630879414.59973383,126828415,0.45,0.42,-18.26,-18.29,127.75,127.76,0.0,0.01
1630879414.69969392,126928375,0.46,0.43,-18.25,-18.27,127.75,127.76,0.0,0.01
1630879414.79965401,127028335,0.47,0.44,-18.25,-18.26,127.74,127.76,0.0,0.01
1630879414.89961386,127128295,0.47,0.45,-18.27,-18.27,127.74,127.75,0.0,0.01
1630879414.99957395,127228255,0.44,0.44,-18.28,-18.29,127.74,127.75,0.0,0.01
1630879415.09953380,127328215,0.43,0.42,-18.28,-18.3,127.73,127.74,0.0,0.01
1630879415.19949389,127428175,0.45,0.41,-18.26,-18.3,127.73,127.74,0.0,0.01
1630879415.30028701,127528968,0.46,0.43,-18.21,-18.25,127.73,127.74,0.0,0.01
1630879415.40024686,127628928,0.45,0.43,-18.17,-18.2,127.73,127.73,0.0,0.01
1630879415.50020695,127728888,0.43,0.42,-18.16,-18.16,127.73,127.73,0.0,0.01
1630879415.60016680,127828848,0.43,0.41,-18.19,-18.17,127.72,127.73,0.0,0.0
1630879415.70012689,127928808,0.44,0.41,-18.22,-18.2,127.72,127.73,0.0,0.01
1630879415.80008698,128028768,0.46,0.43,-18.22,-18.23,127.72,127.73,0.0,0.01
1630879415.90004683,128128728,0.48,0.45,-18.23,-18.24,127.72,127.73,0.0,0.01
1630879416.00000691,128228688,0.49,0.48,-18.24,-18.26,127.72,127.72,0.0,0.01
1630879416.09996700,128328648,0.47,0.48,-18.23,-18.27,127.72,127.72,0.0,0.01
1630879416.19992685,128428608,0.46,0.46,-18.23,-18.26,127.72,127.72,0.0,0.01
1630879416.29988694,128528568,0.48,0.47,-18.22,-18.24,127.72,127.72,0.0,0.01
1630879416.39984703,128628528,0.49,0.47,-18.19,-18.21,127.72,127.72,0.0,0.01
1630879416.49980688,128728488,0.51,0.48,-18.16,-18.18,127.72,127.72,0.0,0.01
1630879416.59976697,128828448,0.56,0.52,-18.14,-18.15,127.73,127.72,0.0,0.01
1630879416.69972682,128928408,0.58,0.56,-18.15,-18.15,127.73,127.73,0.0,0.01
1630879416.79968691,129028368,0.55,0.57,-18.15,-18.15,127.74,127.73,0.0,0.01
1630879416.89964700,129128328,0.51,0.54,-18.16,-18.16,127.74,127.74,0.0,0.01
1630879416.99960685,129228288,0.5,0.51,-18.16,-18.16,127.74,127.74,0.0,0.01
