timestamp,TimeUS,DesRoll,Roll,DesPitch,Pitch,DesYaw,Yaw,ErrRP,ErrYaw
1630621641.70004010,42328895,0.0,0.1,0.0,0.09,352.88,352.89,0.0,0.0
1630621641.79999995,42428855,0.0,0.1,0.0,0.09,352.88,352.89,0.0,0.0
1630621641.89996004,42528815,0.0,0.1,0.0,0.09,352.88,352.89,0.0,0.0
1630621641.99991989,42628775,0.0,0.1,0.0,0.08,352.88,352.89,0.0,0.0
1630621642.09987998,42728735,0.0,0.1,0.0,0.09,352.88,352.89,0.0,0.0
1630621642.19984007,42828695,0.0,0.1,0.0,0.08,352.88,352.89,0.0,0.0
1630621642.29979992,42928655,0.0,0.1,0.0,0.08,352.88,352.89,0.0,0.0
1630621642.39976001,43028615,0.0,0.1,0.0,0.08,352.87,352.88,0.0,0.0
1630621642.49972010,43128575,0.0,0.1,0.0,0.08,352.87,352.88,0.0,0.0
1630621642.59967995,43228535,0.0,0.1,0.0,0.08,352.87,352.88,0.0,0.0
1630621642.69964004,43328495,0.0,0.1,0.0,0.08,352.87,352.88,0.0,0.0
1630621642.79960012,43428455,0.0,0.1,0.0,0.08,352.87,352.88,0.0,0.0
1630621642.89955997,43528415,0.0,0.1,0.0,0.08,352.87,352.88,0.0,0.0
1630621642.99952006,43628375,0.0,0.1,0.0,0.08,352.87,352.88,0.0,0.0
1630621643.09947991,43728335,0.0,0.1,0.0,0.08,352.87,352.88,0.0,0.0
1630621643.19944000,43828295,0.0,0.1,0.0,0.08,352.87,352.88,0.0,0.0
1630621643.29940009,43928255,0.0,0.1,0.0,0.08,352.87,352.88,0.0,0.0
1630621643.39935994,44028215,0.0,0.1,0.0,0.08,352.87,352.88,0.0,0.0
1630621643.49932003,44128175,0.0,0.1,0.0,0.08,352.87,352.88,0.0,0.0
1630621643.60011292,44228968,0.0,0.09,0.0,0.08,352.87,352.88,0.0,0.0
1630621643.70007300,44328928,0.0,0.09,0.0,0.08,352.87,352.88,0.0,0.0
1630621643.80003309,44428888,0.0,0.09,0.0,0.07,352.87,352.88,0.0,0.0
1630621643.89999294,44528848,0.0,0.09,0.0,0.07,352.87,352.88,0.0,0.0
1630621643.99995303,44628808,0.0,0.09,0.0,0.07,352.87,352.88,0.0,0.0
1630621644.09991312,44728768,0.0,0.09,0.0,0.07,352.87,352.88,0.0,0.0
1630621644.19987297,44828728,0.0,0.09,0.0,0.07,352.87,352.88,0.0,0.0
1630621644.29983306,44928688,0.0,0.09,0.0,0.07,352.87,352.88,0.0,0.0
1630621644.39979291,45028648,0.0,0.09,0.0,0.07,352.87,352.88,0.0,0.0
1630621644.49975300,45128608,0.0,0.09,0.0,0.07,352.87,352.88,0.0,0.0
1630621644.59971309,45228568,0.0,0.09,0.0,0.07,352.87,352.88,0.0,0.0
1630621644.69967294,45328528,-0.09,0.09,-0.09,0.07,352.87,352.88,0.0,0.0
1630621644.79963303,45428488,-0.06,0.09,-0.07,0.07,352.87,352.88,0.0,0.0
1630621644.89959311,45528448,-0.11,0.09,-0.11,0.07,352.87,352.88,0.0,0.0
1630621644.99955297,45628408,-0.16,0.08,-0.16,0.07,352.87,352.88,0.0,0.0
1630621645.09951305,45728368,-0.21,0.08,-0.21,0.07,352.87,352.88,0.0,0.0
1630621645.19947290,45828328,-0.24,0.08,-0.24,0.07,352.87,352.88,0.0,0.0
1630621645.29943299,45928288,-0.27,0.08,-0.27,0.07,352.87,352.88,0.0,0.0
1630621645.39939308,46028248,-0.3,0.08,-0.28,0.07,352.87,352.88,0.0,0.0
1630621645.49935293,46128208,-0.31,0.08,-0.28,0.07,352.87,352.88,0.0,0.0
1630621645.59931302,46228168,-0.32,0.08,-0.28,0.07,352.87,352.88,0.0,0.0
1630621645.70010591,46328961,-0.35,0.08,-0.32,0.07,352.87,352.88,0.0,0.0
1630621645.80006599,46428921,-0.36,0.08,-0.34,0.07,352.87,352.88,0.0,0.0
1630621645.90002608,46528881,-0.36,0.08,-0.35,0.07,352.87,352.88,0.0,0.0
1630621645.99998593,46628841,-0.36,0.08,-0.37,0.07,352.87,352.88,0.0,0.0
1630621646.09994602,46728801,-0.4,0.08,-0.39,0.06,352.87,352.88,0.0,0.0
1630621646.19990611,46828761,-0.46,0.07,-0.4,0.06,352.87,352.88,0.0,0.0
1630621646.29986596,46928721,-0.46,-0.13,-0.4,-0.11,352.87,352.88,0.0,0.0
1630621646.39982605,47028681,-0.4,-0.41,-0.34,-0.36,352.87,352.88,0.0,0.0
1630621646.49978590,47128641,-0.31,-0.58,-0.27,-0.53,352.87,352.88,0.0,0.0
1630621646.59974599,47228601,-0.17,-0.62,-0.15,-0.57,352.87,352.88,0.0,0.0
1630621646.69970608,47328561,0.0,-0.51,0.01,-0.47,352.87,352.88,0.0,0.0
1630621646.79966593,47428521,0.21,-0.31,0.16,-0.29,352.87,352.88,0.0,0.0
1630621646.89962602,47528481,0.41,-0.05,0.28,-0.11,352.87,352.88,0.0,0.0
1630621646.99958611,47628441,0.5,0.16,0.37,0.04,352.87,352.87,0.0,0.0
1630621647.09954596,47728401,0.5,0.27,0.41,0.16,352.87,352.87,0.0,0.0
1630621647.19950604,47828361,0.45,0.27,0.41,0.22,352.87,352.87,0.0,0.0
1630621647.29946589,47928321,0.44,0.25,0.36,0.21,352.87,352.87,0.0,0.0
1630621647.39942598,48028281,0.43,0.23,0.3,0.15,352.87,352.87,0.0,0.0
1630621647.49938607,48128241,0.42,0.22,0.27,0.1,352.87,352.87,0.0,0.0
1630621647.59934592,48228201,0.41,0.21,0.27,0.07,352.87,352.87,0.0,0.0
1630621647.69930601,48328161,0.38,0.2,0.28,0.08,352.87,352.88,0.0,0.0
1630621647.80009890,48428954,0.35,0.18,0.32,0.13,352.87,352.88,0.0,0.0
1630621647.90005898,48528914,0.33,0.17,0.34,0.18,352.87,352.88,0.0,0.0
1630621648.00001907,48628874,0.32,0.17,0.33,0.21,352.78,352.79,0.0,0.0
1630621648.09997892,48728834,0.29,0.17,0.3,0.22,352.78,352.79,0.0,0.0
1630621648.19993901,48828794,0.28,0.17,0.26,0.2,352.78,352.8,0.0,0.0
1630621648.29989910,48928754,0.28,0.16,0.2,0.16,352.78,352.8,0.0,0.0
1630621648.39985895,49028714,0.3,0.18,0.16,0.1,352.78,352.8,0.0,0.0
1630621648.49981904,49128674,0.31,0.21,0.15,0.06,352.78,352.8,0.0,0.0
1630621648.59977913,49228634,0.3,0.23,0.16,0.05,352.78,352.8,0.0,0.0
1630621648.69973898,49328594,0.27,0.23,0.16,0.07,352.78,352.8,0.0,0.0
1630621648.79969907,49428554,0.21,0.19,0.14,0.09,352.78,352.8,0.0,0.0
1630621648.89965892,49528514,0.17,0.14,0.1,0.08,352.78,352.8,0.0,0.0
1630621648.99961901,49628474,0.14,0.09,0.06,0.04,352.78,352.8,0.0,0.0
1630621649.09957910,49728434,0.11,0.06,0.05,0.0,352.78,352.8,0.0,0.0
1630621649.19953895,49828394,0.07,0.02,0.1,0.01,352.78,352.79,0.0,0.0
1630621649.29949903,49928354,0.06,0.0,0.15,0.06,352.78,352.78,0.0,0.0
1630621649.39945912,50028314,0.07,0.0,0.17,0.11,352.78,352.78,0.0,0.0
1630621649.49941897,50128274,0.08,0.01,0.13,0.13,352.78,352.78,0.0,0.0
1630621649.59937906,50228234,0.09,0.03,0.07,0.09,352.78,352.77,0.0,0.0
1630621649.69933891,50328194,0.09,0.05,0.01,0.03,352.78,352.78,0.0,0.0
1630621649.79929900,50428154,0.08,0.06,-0.05,-0.04,352.78,352.78,0.0,0.0
1630621649.90009212,50528947,0.08,0.07,-0.09,-0.11,352.78,352.78,0.0,0.0
1630621650.00005198,50628907,0.07,0.07,-0.08,-0.14,352.78,352.78,0.0,0.0
1630621650.10001206,50728867,0.06,0.06,-0.03,-0.11,352.78,352.79,0.0,0.0
1630621650.19997191,50828827,0.05,0.05,0.05,-0.04,352.78,352.79,0.0,0.0
1630621650.29993200,50928787,0.09,0.07,0.12,0.05,352.78,352.79,0.0,0.0
1630621650.39989209,51028747,0.12,0.1,0.12,0.11,352.78,352.8,0.0,0.0
1630621650.49985194,51128707,0.12,0.13,0.09,0.12,352.78,352.79,0.0,0.0
1630621650.59981203,51228667,0.14,0.15,0.05,0.09,352.78,352.79,0.0,0.0
1630621650.69977212,51328627,0.18,0.17,0.04,0.06,352.78,352.79,0.0,0.0
1630621650.79973197,51428587,0.17,0.16,0.05,0.05,352.78,352.79,0.0,0.0
1630621650.89969206,51528547,0.13,0.14,0.08,0.06,352.78,352.79,0.0,0.0
1630621650.99965191,51628507,0.1,0.09,0.09,0.08,352.78,352.79,0.0,0.0
1630621651.09961200,51728467,0.08,0.05,0.07,0.08,352.78,352.79,0.0,0.0
1630621651.19957209,51828427,0.06,0.04,0.06,0.06,352.78,352.79,0.0,0.0
1630621651.29953194,51928387,0.06,0.03,0.07,0.05,352.78,352.79,0.0,0.0
1630621651.39949203,52028347,0.06,0.03,0.1,0.06,352.78,352.79,0.0,0.0
1630621651.49945211,52128307,0.06,0.04,0.11,0.08,352.78,352.8,0.0,0.0
1630621651.59941196,52228267,0.04,0.03,0.1,0.09,352.78,352.8,0.0,0.0
1630621651.69937205,52328227,0.06,0.03,0.1,0.09,352.78,352.8,0.0,0.0
1630621651.79933190,52428187,0.09,0.05,0.11,0.1,352.78,352.8,0.0,0.0
1630621651.90012503,52528980,0.11,0.08,0.11,0.11,352.78,352.8,0.0,0.0
1630621652.00008512,52628940,0.09,0.1,0.09,0.1,352.78,352.8,0.0,0.0
1630621652.10004497,52728900,0.08,0.09,0.1,0.09,352.78,352.8,0.0,0.0
1630621652.20000505,52828860,0.08,0.09,0.12,0.09,352.78,352.79,0.0,0.0
1630621652.29996490,52928820,0.08,0.08,0.17,0.14,352.78,352.79,0.0,0.0
1630621652.39992499,53028780,0.06,0.06,0.2,0.18,352.78,352.79,0.0,0.0
1630621652.49988508,53128740,0.07,0.06,0.17,0.19,352.78,352.79,0.0,0.0
1630621652.59984493,53228700,0.06,0.06,0.14,0.17,352.78,352.79,0.0,0.0
1630621652.69980502,53328660,0.05,0.05,0.11,0.13,352.78,352.79,0.0,0.0
1630621652.79976511,53428620,0.05,0.05,0.09,0.09,352.78,352.79,0.0,0.0
1630621652.89972496,53528580,0.06,0.06,0.11,0.07,352.78,352.79,0.0,0.0
1630621652.99968505,53628540,0.06,0.06,0.15,0.11,352.78,352.8,0.0,0.0
1630621653.09964490,53728500,0.1,0.07,0.17,0.16,352.78,352.8,0.0,0.0
1630621653.19960499,53828460,0.13,0.1,0.2,0.19,352.78,352.8,0.0,0.0
1630621653.29956508,53928420,0.15,0.14,0.18,0.19,352.78,352.8,0.0,0.0
1630621653.39952493,54028380,0.15,0.15,0.15,0.17,352.78,352.8,0.0,0.0
1630621653.49948502,54128340,0.11,0.14,0.1,0.13,352.78,352.8,0.0,0.0
1630621653.59944510,54228300,0.06,0.09,0.06,0.08,352.78,352.8,0.0,0.0
1630621653.69940495,54328260,0.03,0.04,0.03,0.03,352.78,352.8,0.0,0.0
1630621653.79936504,54428220,0.04,0.02,0.06,0.02,352.78,352.8,0.0,0.0
1630621653.89932489,54528180,0.07,0.03,0.1,0.05,352.78,352.79,0.0,0.0
1630621654.00011802,54628973,0.09,0.06,0.11,0.09,352.78,352.79,0.0,0.0
1630621654.10007811,54728933,0.1,0.08,0.08,0.08,352.78,352.79,0.0,0.0
1630621654.20003796,54828893,0.14,0.12,0.06,0.06,352.78,352.8,0.0,0.0
1630621654.29999804,54928853,0.14,0.14,0.05,0.04,352.78,352.8,0.0,0.0
1630621654.39995790,55028813,0.12,0.14,0.03,0.02,352.78,352.8,0.0,0.0
1630621654.49991798,55128773,0.07,0.11,0.02,0.01,352.78,352.79,0.0,0.0
1630621654.59987807,55228733,0.03,0.06,0.0,0.0,352.78,352.79,0.0,0.0
1630621654.69983792,55328693,0.02,0.03,0.02,0.0,352.78,352.79,0.0,0.0
1630621654.79979801,55428653,0.05,0.02,0.08,0.04,352.78,352.79,0.0,0.0
1630621654.89975810,55528613,0.08,0.05,0.07,0.07,352.78,352.79,0.0,0.0
1630621654.99971795,55628573,0.11,0.09,0.07,0.07,352.78,352.78,0.0,0.0
1630621655.09967804,55728533,0.09,0.1,0.05,0.07,352.78,352.78,0.0,0.0
1630621655.19963813,55828493,0.07,0.08,0.04,0.04,352.78,352.78,0.0,0.0
1630621655.29959798,55928453,0.07,0.06,0.04,0.02,352.78,352.78,0.0,0.0
1630621655.39955807,56028413,0.08,0.08,0.04,0.02,352.78,352.78,0.0,0.0
1630621655.49951792,56128373,0.08,0.08,0.05,0.03,352.78,352.78,0.0,0.0
1630621655.59947801,56228333,0.08,0.08,0.04,0.02,352.78,352.79,0.0,0.0
1630621655.69943810,56328293,0.07,0.07,0.03,0.02,352.78,352.79,0.0,0.0
1630621655.79939795,56428253,0.05,0.05,0.05,0.03,352.78,352.79,0.0,0.0
1630621655.89935803,56528213,0.06,0.04,0.05,0.05,352.78,352.79,0.0,0.0
1630621655.99931812,56628173,0.09,0.05,0.05,0.05,352.78,352.8,0.0,0.0
1630621656.10011101,56728966,0.11,0.08,0.04,0.05,352.78,352.8,0.0,0.0
1630621656.20007110,56828926,0.11,0.1,0.03,0.04,352.78,352.8,0.0,0.0
1630621656.30003095,56928886,0.1,0.11,0.03,0.04,352.78,352.8,0.0,0.0
1630621656.39999104,57028846,0.09,0.1,0.04,0.04,352.78,352.8,0.0,0.0
1630621656.49995112,57128806,0.07,0.09,0.07,0.05,352.78,352.79,0.0,0.0
1630621656.59991097,57228766,0.06,0.07,0.08,0.06,352.78,352.79,0.0,0.0
1630621656.69987106,57328726,0.06,0.06,0.11,0.09,352.78,352.79,0.0,0.0
1630621656.79983091,57428686,0.06,0.06,0.13,0.12,352.78,352.79,0.0,0.0
1630621656.89979100,57528646,0.04,0.04,0.15,0.15,352.78,352.79,0.0,0.0
1630621656.99975109,57628606,0.04,0.02,0.14,0.16,352.78,352.79,0.0,0.0
1630621657.09971094,57728566,0.08,0.04,0.14,0.16,352.78,352.79,0.0,0.0
1630621657.19967103,57828526,0.1,0.08,0.15,0.16,352.78,352.79,0.0,0.0
1630621657.29963112,57928486,0.11,0.12,0.14,0.16,352.78,352.79,0.0,0.0
1630621657.39959097,58028446,0.1,0.13,0.11,0.14,352.78,352.79,0.0,0.0
1630621657.49955106,58128406,0.06,0.1,0.07,0.09,352.78,352.79,0.0,0.0
1630621657.59951091,58228366,0.03,0.05,0.05,0.04,352.78,352.79,0.0,0.0
1630621657.69947100,58328326,0.01,0.01,0.05,0.02,352.78,352.79,0.0,0.0
1630621657.79943109,58428286,0.02,0.0,0.06,0.03,352.78,352.79,0.0,0.0
1630621657.89939094,58528246,0.04,0.01,0.07,0.04,352.78,352.79,0.0,0.0
1630621657.99935102,58628206,0.05,0.03,0.07,0.05,352.78,352.79,0.0,0.0
1630621658.09931111,58728166,0.06,0.05,0.09,0.08,352.78,352.79,0.0,0.0
1630621658.20010400,58828959,0.06,0.06,0.09,0.09,352.78,352.79,0.0,0.0
1630621658.30006409,58928919,0.07,0.07,0.06,0.08,352.78,352.79,0.0,0.0
1630621658.40002394,59028879,0.1,0.08,0.01,0.05,352.78,352.79,0.0,0.0
1630621658.49998403,59128839,0.12,0.11,0.0,0.01,352.78,352.79,0.0,0.0
1630621658.59994411,59228799,0.13,0.13,-0.01,-0.02,352.78,352.79,0.0,0.0
1630621658.69990396,59328759,0.15,0.14,0.01,-0.03,352.78,352.79,0.0,0.0
1630621658.79986405,59428719,0.15,0.16,0.04,0.0,352.78,352.79,0.0,0.0
1630621658.89982390,59528679,0.13,0.15,0.05,0.02,352.78,352.79,0.0,0.0
1630621658.99978399,59628639,0.12,0.13,0.06,0.03,352.78,352.79,0.0,0.0
1630621659.09974408,59728599,0.09,0.1,0.05,0.04,352.78,352.79,0.0,0.0
1630621659.19970393,59828559,0.06,0.06,0.04,0.03,352.78,352.79,0.0,0.0
1630621659.29966402,59928519,0.07,0.04,0.03,0.03,352.78,352.79,0.0,0.0
1630621659.39962411,60028479,0.11,0.05,0.02,0.02,352.78,352.79,0.0,0.0
1630621659.49958396,60128439,0.1,0.08,0.0,0.0,352.78,352.79,0.0,0.0
1630621659.59954405,60228399,0.1,0.09,0.03,0.01,352.78,352.79,0.0,0.0
1630621659.69950390,60328359,0.09,0.09,0.07,0.04,352.78,352.79,0.0,0.0
1630621659.79946399,60428319,0.09,0.09,0.11,0.09,352.78,352.79,0.0,0.0
1630621659.89942408,60528279,0.07,0.09,0.13,0.13,352.78,352.8,0.0,0.0
1630621659.99938393,60628239,0.07,0.08,0.11,0.14,352.78,352.8,0.0,0.0
1630621660.09934402,60728199,0.08,0.07,0.09,0.12,352.78,352.79,0.0,0.0
1630621660.19930410,60828159,0.11,0.08,0.1,0.11,352.78,352.79,0.0,0.0
1630621660.30009699,60928952,0.11,0.1,0.07,0.09,352.78,352.79,0.0,0.0
1630621660.40005708,61028912,0.09,0.11,0.06,0.07,352.78,352.79,0.0,0.0
1630621660.50001693,61128872,0.07,0.08,0.07,0.06,352.78,352.79,0.0,0.0
1630621660.59997702,61228832,0.08,0.08,0.09,0.07,352.78,352.79,0.0,0.0
1630621660.69993711,61328792,0.11,0.09,0.1,0.09,352.78,352.79,0.0,0.0
1630621660.79989696,61428752,0.12,0.12,0.11,0.1,352.78,352.79,0.0,0.0
1630621660.89985704,61528712,0.11,0.12,0.11,0.09,352.78,352.79,0.0,0.0
1630621660.99981689,61628672,0.11,0.11,0.1,0.09,352.78,352.79,0.0,0.0
1630621661.09977698,61728632,0.13,0.12,0.12,0.09,352.78,352.79,0.0,0.0
1630621661.19973707,61828592,0.12,0.12,0.14,0.12,352.78,352.79,0.0,0.0
1630621661.29969692,61928552,0.14,0.13,0.12,0.13,352.78,352.79,0.0,0.0
1630621661.39965701,62028512,0.14,0.14,0.06,0.09,352.78,352.79,0.0,0.0
1630621661.49961710,62128472,0.11,0.13,0.04,0.04,352.78,352.78,0.0,0.0
1630621661.59957695,62228432,0.1,0.11,0.05,0.02,352.78,352.78,0.0,0.0
1630621661.69953704,62328392,0.13,0.11,0.08,0.04,352.78,352.78,0.0,0.0
1630621661.79949713,62428352,0.15,0.13,0.11,0.07,352.78,352.78,0.0,0.0
1630621661.89945698,62528312,0.14,0.14,0.12,0.1,352.78,352.78,0.0,0.0
1630621661.99941707,62628272,0.12,0.13,0.11,0.12,352.78,352.79,0.0,0.0
1630621662.09937692,62728232,0.07,0.09,0.08,0.1,352.78,352.79,0.0,0.0
1630621662.19933701,62828192,0.06,0.06,0.06,0.06,352.78,352.79,0.0,0.0
1630621662.30013013,62928985,0.07,0.05,0.05,0.04,352.78,352.8,0.0,0.0
1630621662.40008998,63028945,0.07,0.05,0.06,0.04,352.78,352.8,0.0,0.0
1630621662.50005007,63128905,0.06,0.05,0.08,0.05,352.78,352.8,0.0,0.0
1630621662.60000992,63228865,0.06,0.05,0.1,0.07,352.78,352.8,0.0,0.0
1630621662.69997001,63328825,0.04,0.04,0.15,0.12,352.78,352.8,0.0,0.0
1630621662.79993010,63428785,0.05,0.04,0.2,0.19,352.78,352.8,0.0,0.0
1630621662.89988995,63528745,0.07,0.06,0.21,0.23,352.78,352.8,0.0,0.0
1630621662.99985003,63628705,0.09,0.06,0.19,0.22,352.78,352.8,0.0,0.0
1630621663.09981012,63728665,0.11,0.09,0.18,0.21,352.78,352.8,0.0,0.0
1630621663.19976997,63828625,0.12,0.11,0.17,0.18,352.78,352.8,0.0,0.0
1630621663.29973006,63928585,0.12,0.12,0.15,0.15,352.78,352.79,0.0,0.0
1630621663.39968991,64028545,0.11,0.11,0.13,0.13,352.78,352.79,0.0,0.0
1630621663.49965000,64128505,0.1,0.1,0.15,0.13,352.78,352.79,0.0,0.0
1630621663.59961009,64228465,0.09,0.08,0.15,0.13,352.78,352.78,0.0,0.0
1630621663.69956994,64328425,0.08,0.07,0.11,0.11,352.78,352.78,0.0,0.0
1630621663.79953003,64428385,0.08,0.07,0.1,0.09,352.78,352.78,0.0,0.0
1630621663.89949012,64528345,0.07,0.06,0.09,0.08,352.78,352.79,0.0,0.0
1630621663.99944997,64628305,0.1,0.08,0.09,0.07,352.78,352.79,0.0,0.0
1630621664.09941006,64728265,0.13,0.11,0.09,0.07,352.78,352.79,0.0,0.0
1630621664.19936991,64828225,0.12,0.12,0.07,0.07,352.78,352.79,0.0,0.0
1630621664.29933000,64928185,0.15,0.13,0.06,0.05,352.78,352.79,0.0,0.0
1630621664.40012312,65028978,0.15,0.13,0.06,0.05,352.78,352.79,0.0,0.0
1630621664.50008297,65128938,0.16,0.13,0.07,0.06,352.78,352.79,0.0,0.0
1630621664.60004306,65228898,0.19,0.16,0.08,0.07,352.78,352.79,0.0,0.0
1630621664.70000291,65328858,0.17,0.17,0.09,0.08,352.78,352.79,0.0,0.0
1630621664.79996300,65428818,0.11,0.13,0.12,0.11,352.78,352.79,0.0,0.0
1630621664.89992309,65528778,0.08,0.09,0.15,0.14,352.78,352.79,0.0,0.0
1630621664.99988294,65628738,0.06,0.05,0.15,0.15,352.78,352.79,0.0,0.0
1630621665.09984303,65728698,0.07,0.05,0.11,0.13,352.78,352.79,0.0,0.0
1630621665.19980311,65828658,0.07,0.05,0.1,0.11,352.78,352.79,0.0,0.0
1630621665.29976296,65928618,0.07,0.06,0.08,0.09,352.78,352.79,0.0,0.0
1630621665.39972305,66028578,0.08,0.07,0.05,0.06,352.78,352.79,0.0,0.0
1630621665.49968290,66128538,0.07,0.07,0.03,0.03,352.78,352.79,0.0,0.0
1630621665.59964299,66228498,0.05,0.05,0.02,0.01,352.78,352.79,0.0,0.0
1630621665.69960308,66328458,0.04,0.03,0.05,0.01,352.78,352.79,0.0,0.0
1630621665.79956293,66428418,0.06,0.03,0.07,0.03,352.78,352.79,0.0,0.0
1630621665.89952302,66528378,0.07,0.04,0.1,0.06,352.78,352.79,0.0,0.0
1630621665.99948311,66628338,0.07,0.05,0.11,0.09,352.78,352.79,0.0,0.0
1630621666.09944296,66728298,0.07,0.06,0.11,0.1,352.78,352.79,0.0,0.0
1630621666.19940305,66828258,0.07,0.07,0.12,0.11,352.78,352.79,0.0,0.0
1630621666.29936290,66928218,0.08,0.08,0.08,0.1,352.78,352.79,0.0,0.0
1630621666.39932299,67028178,0.07,0.08,0.05,0.06,352.78,352.79,0.0,0.0
1630621666.50011611,67128971,0.04,0.07,0.05,0.04,352.78,352.79,0.0,0.0
1630621666.60007596,67228931,0.05,0.05,0.08,0.05,352.78,352.79,0.0,0.0
1630621666.70003605,67328891,0.1,0.07,0.11,0.08,352.78,352.79,0.0,0.0
1630621666.79999590,67428851,0.15,0.12,0.13,0.12,352.78,352.8,0.0,0.0
1630621666.89995599,67528811,0.19,0.17,0.12,0.14,352.78,352.8,0.0,0.0
1630621666.99991608,67628771,0.17,0.19,0.12,0.13,352.78,352.8,0.0,0.0
1630621667.09987593,67728731,0.17,0.18,0.12,0.13,352.78,352.8,0.0,0.0
1630621667.19983602,67828691,0.18,0.18,0.1,0.12,352.78,352.8,0.0,0.0
1630621667.29979610,67928651,0.16,0.17,0.08,0.09,352.78,352.8,0.0,0.0
1630621667.39975595,68028611,0.14,0.14,0.11,0.09,352.78,352.79,0.0,0.0
1630621667.49971604,68128571,0.1,0.1,0.12,0.1,352.78,352.79,0.0,0.0
1630621667.59967589,68228531,0.11,0.08,0.13,0.11,352.78,352.78,0.0,0.0
1630621667.69963598,68328491,0.14,0.1,0.14,0.13,352.78,352.78,0.0,0.0
1630621667.79959607,68428451,0.18,0.14,0.14,0.14,352.78,352.78,0.0,0.0
1630621667.89955592,68528411,0.2,0.18,0.14,0.15,352.78,352.78,0.0,0.0
1630621667.99951601,68628371,0.19,0.19,0.13,0.14,352.78,352.78,0.0,0.0
1630621668.09947610,68728331,0.18,0.18,0.1,0.11,352.78,352.79,0.0,0.0
1630621668.19943595,68828291,0.13,0.15,0.07,0.07,352.78,352.79,0.0,0.0
1630621668.29939604,68928251,0.13,0.13,0.07,0.06,352.78,352.79,0.0,0.0
1630621668.39935613,69028211,0.13,0.13,0.1,0.07,352.78,352.79,0.0,0.0
1630621668.49931598,69128171,0.14,0.13,0.11,0.09,352.78,352.8,0.0,0.0
1630621668.60010910,69228964,0.14,0.14,0.12,0.1,352.78,352.8,0.0,0.0
1630621668.70006895,69328924,0.14,0.14,0.16,0.13,352.78,352.8,0.0,0.0
1630621668.80002904,69428884,0.1,0.12,0.16,0.16,352.78,352.8,0.0,0.0
1630621668.89998913,69528844,0.08,0.08,0.15,0.17,352.78,352.8,0.0,0.0
1630621668.99994898,69628804,0.1,0.08,0.14,0.16,352.78,352.8,0.0,0.0
1630621669.09990907,69728764,0.13,0.1,0.12,0.14,352.78,352.8,0.0,0.0
1630621669.19986892,69828724,0.14,0.12,0.1,0.12,352.78,352.79,0.0,0.0
1630621669.29982901,69928684,0.12,0.13,0.13,0.12,352.78,352.79,0.0,0.0
1630621669.39978909,70028644,0.09,0.1,0.13,0.13,352.78,352.79,0.0,0.0
1630621669.49974895,70128604,0.08,0.08,0.09,0.1,352.78,352.79,0.0,0.0
1630621669.59970903,70228564,0.11,0.09,0.07,0.07,352.78,352.79,0.0,0.0
1630621669.69966912,70328524,0.16,0.13,0.07,0.05,352.78,352.79,0.0,0.0
1630621669.79962897,70428484,0.17,0.16,0.06,0.04,352.78,352.79,0.0,0.0
1630621669.89958906,70528444,0.16,0.17,0.07,0.04,352.78,352.79,0.0,0.0
1630621669.99954891,70628404,0.15,0.16,0.09,0.05,352.78,352.79,0.0,0.0
1630621670.09950900,70728364,0.13,0.14,0.08,0.07,352.78,352.79,0.0,0.0
1630621670.19946909,70828324,0.12,0.12,0.06,0.05,352.78,352.79,0.0,0.0
1630621670.29942894,70928284,0.11,0.11,0.07,0.05,352.78,352.79,0.0,0.0
1630621670.39938903,71028244,0.1,0.09,0.09,0.07,352.78,352.79,0.0,0.0
1630621670.49934912,71128204,0.07,0.08,0.11,0.1,352.78,352.79,0.0,0.0
1630621670.59930897,71228164,0.03,0.04,0.11,0.11,352.78,352.79,0.0,0.0
1630621670.70010209,71328957,0.03,0.03,0.1,0.1,352.78,352.78,0.0,0.0
1630621670.80006194,71428917,0.04,0.02,0.09,0.08,352.78,352.78,0.0,0.0
1630621670.90002203,71528877,0.08,0.04,0.08,0.06,352.78,352.78,0.0,0.0
1630621670.99998212,71628837,0.09,0.06,0.09,0.06,352.78,352.78,0.0,0.0
1630621671.09994197,71728797,0.12,0.1,0.11,0.08,352.78,352.78,0.0,0.0
1630621671.19990206,71828757,0.15,0.13,0.14,0.11,352.78,352.78,0.0,0.0
1630621671.29986191,71928717,0.12,0.15,0.15,0.15,352.78,352.78,0.0,0.0
1630621671.39982200,72028677,0.07,0.11,0.11,0.13,352.78,352.78,0.0,0.0
1630621671.49978209,72128637,0.04,0.06,0.07,0.09,352.78,352.79,0.0,0.0
1630621671.59974194,72228597,0.03,0.02,0.07,0.07,352.78,352.79,0.0,0.0
1630621671.69970202,72328557,0.03,0.0,0.08,0.06,352.78,352.79,0.0,0.0
1630621671.79966211,72428517,0.05,0.02,0.08,0.06,352.78,352.79,0.0,0.0
1630621671.89962196,72528477,0.07,0.05,0.09,0.08,352.78,352.79,0.0,0.0
1630621671.99958205,72628437,0.07,0.07,0.08,0.09,352.78,352.79,0.0,0.0
1630621672.09954190,72728397,0.02,0.05,0.1,0.1,352.78,352.79,0.0,0.0
1630621672.19950199,72828357,-0.03,0.0,0.13,0.12,352.78,352.79,0.0,0.0
1630621672.29946208,72928317,-0.04,-0.05,0.11,0.13,352.78,352.79,0.0,0.0
1630621672.39942193,73028277,0.0,-0.06,0.08,0.1,352.78,352.79,0.0,0.0
1630621672.49938202,73128237,0.04,-0.02,0.08,0.08,352.78,352.79,0.0,0.0
1630621672.59934211,73228197,0.07,0.02,0.06,0.06,352.78,352.8,0.0,0.0
1630621672.69930196,73328157,0.09,0.07,0.05,0.04,352.78,352.8,0.0,0.0
1630621672.80009508,73428950,0.11,0.1,0.07,0.04,352.78,352.8,0.0,0.0
1630621672.90005493,73528910,0.13,0.13,0.1,0.07,352.78,352.8,0.0,0.0
1630621673.00001502,73628870,0.13,0.14,0.09,0.09,352.78,352.79,0.0,0.0
1630621673.09997511,73728830,0.17,0.16,0.07,0.09,352.78,352.79,0.0,0.0
1630621673.19993496,73828790,0.19,0.19,0.04,0.06,352.78,352.79,0.0,0.0
1630621673.29989505,73928750,0.18,0.2,0.05,0.05,352.78,352.79,0.0,0.0
1630621673.39985490,74028710,0.16,0.18,0.05,0.05,352.78,352.79,0.0,0.0
1630621673.49981499,74128670,0.16,0.16,0.08,0.05,352.78,352.78,0.0,0.0
1630621673.59977508,74228630,0.18,0.16,0.12,0.08,352.78,352.78,0.0,0.0
1630621673.69973493,74328590,0.19,0.17,0.12,0.11,352.78,352.78,0.0,0.0
1630621673.79969501,74428550,0.18,0.18,0.11,0.11,352.78,352.78,0.0,0.0
1630621673.89965510,74528510,0.19,0.18,0.08,0.1,352.78,352.78,0.0,0.0
1630621673.99961495,74628470,0.19,0.19,0.03,0.07,352.78,352.78,0.0,0.0
1630621674.09957504,74728430,0.2,0.19,0.01,0.03,352.78,352.78,0.0,0.0
1630621674.19953489,74828390,0.21,0.21,0.0,0.0,352.78,352.79,0.0,0.0
1630621674.29949498,74928350,0.17,0.2,0.0,-0.01,352.78,352.79,0.0,0.0
1630621674.39945507,75028310,0.13,0.16,0.02,-0.01,352.78,352.79,0.0,0.0
1630621674.49941492,75128270,0.13,0.13,0.03,0.01,352.78,352.79,0.0,0.0
1630621674.59937501,75228230,0.16,0.14,0.03,0.02,352.78,352.79,0.0,0.0
1630621674.69933510,75328190,0.18,0.15,0.04,0.03,352.78,352.78,0.0,0.0
1630621674.80012798,75428983,0.22,0.18,0.06,0.05,352.78,352.78,0.0,0.0
1630621674.90008807,75528943,0.25,0.22,0.06,0.06,352.78,352.78,0.0,0.0
1630621675.00004792,75628903,0.24,0.24,0.02,0.04,352.78,352.78,0.0,0.0
1630621675.10000801,75728863,0.19,0.22,0.02,0.02,352.78,352.78,0.0,0.0
1630621675.19996810,75828823,0.16,0.19,0.04,0.02,352.78,352.78,0.0,0.0
1630621675.29992795,75928783,0.16,0.16,0.05,0.03,352.78,352.78,0.0,0.0
1630621675.39988804,76028743,0.18,0.16,0.06,0.04,352.78,352.78,0.0,0.0
1630621675.49984813,76128703,0.16,0.16,0.08,0.06,352.78,352.78,0.0,0.0
1630621675.59980798,76228663,0.15,0.15,0.1,0.09,352.78,352.78,0.0,0.0
1630621675.69976807,76328623,0.16,0.15,0.09,0.09,352.78,352.78,0.0,0.0
1630621675.79972792,76428583,0.19,0.16,0.08,0.07,352.78,352.78,0.0,0.0
1630621675.89968801,76528543,0.2,0.18,0.1,0.08,352.78,352.79,0.0,0.0
1630621675.99964809,76628503,0.2,0.19,0.12,0.1,352.78,352.79,0.0,0.0
1630621676.09960794,76728463,0.18,0.18,0.12,0.12,352.78,352.79,0.0,0.0
1630621676.19956803,76828423,0.14,0.15,0.12,0.12,352.78,352.79,0.0,0.0
1630621676.29952812,76928383,0.11,0.11,0.14,0.12,352.78,352.8,0.0,0.0
1630621676.39948797,77028343,0.1,0.08,0.13,0.12,352.78,352.8,0.0,0.0
1630621676.49944806,77128303,0.13,0.08,0.13,0.12,352.78,352.79,0.0,0.0
1630621676.59940791,77228263,0.17,0.13,0.15,0.13,352.78,352.79,0.0,0.0
1630621676.69936800,77328223,0.21,0.19,0.15,0.15,352.78,352.79,0.0,0.0
1630621676.79932809,77428183,0.2,0.21,0.12,0.13,352.78,352.78,0.0,0.0
1630621676.90012097,77528976,0.16,0.19,0.13,0.12,352.78,352.78,0.0,0.0
1630621677.00008106,77628936,0.12,0.15,0.12,0.11,352.78,352.78,0.0,0.0
1630621677.10004091,77728896,0.11,0.11,0.09,0.09,352.78,352.78,0.0,0.0
1630621677.20000100,77828856,0.13,0.11,0.09,0.07,352.78,352.79,0.0,0.0
1630621677.29996109,77928816,0.14,0.12,0.13,0.09,352.78,352.79,0.0,0.0
1630621677.39992094,78028776,0.16,0.13,0.15,0.13,352.78,352.79,0.0,0.0
1630621677.49988103,78128736,0.17,0.16,0.12,0.14,352.78,352.79,0.0,0.0
1630621677.59984112,78228696,0.16,0.17,0.05,0.1,352.78,352.79,0.0,0.0
1630621677.69980097,78328656,0.12,0.16,0.0,0.03,352.78,352.79,0.0,0.0
1630621677.79976106,78428616,0.11,0.14,0.02,0.0,352.78,352.79,0.0,0.0
1630621677.89972091,78528576,0.1,0.11,0.07,0.03,352.78,352.79,0.0,0.0
1630621677.99968100,78628536,0.09,0.08,0.12,0.08,352.78,352.79,0.0,0.0
1630621678.09964108,78728496,0.07,0.06,0.15,0.13,352.78,352.79,0.0,0.0
1630621678.19960093,78828456,0.04,0.03,0.15,0.16,352.78,352.79,0.0,0.0
1630621678.29956102,78928416,0.05,0.04,0.14,0.15,352.78,352.79,0.0,0.0
1630621678.39952111,79028376,0.05,0.04,0.12,0.13,352.78,352.79,0.0,0.0
1630621678.49948096,79128336,0.07,0.04,0.11,0.11,352.78,352.79,0.0,0.0
1630621678.59944105,79228296,0.09,0.07,0.08,0.09,352.78,352.79,0.0,0.0
1630621678.69940090,79328256,0.07,0.07,0.08,0.07,352.78,352.79,0.0,0.0
1630621678.79936099,79428216,0.04,0.04,0.12,0.09,352.78,352.78,0.0,0.0
1630621678.89932108,79528176,0.04,0.02,0.16,0.13,352.78,352.78,0.0,0.0
1630621679.00011396,79628969,0.06,0.04,0.17,0.16,352.78,352.78,0.0,0.0
1630621679.10007405,79728929,0.09,0.07,0.17,0.17,352.78,352.79,0.0,0.0
1630621679.20003390,79828889,0.1,0.1,0.15,0.18,352.78,352.79,0.0,0.0
1630621679.29999399,79928849,0.06,0.09,0.12,0.16,352.78,352.79,0.0,0.0
1630621679.39995408,80028809,0.01,0.04,0.09,0.12,352.78,352.79,0.0,0.0
1630621679.49991393,80128769,0.01,0.01,0.08,0.08,352.78,352.79,0.0,0.0
1630621679.59987402,80228729,0.04,0.01,0.09,0.06,352.78,352.79,0.0,0.0
1630621679.69983411,80328689,0.08,0.03,0.12,0.08,352.78,352.78,0.0,0.0
1630621679.79979396,80428649,0.12,0.08,0.14,0.1,352.78,352.79,0.0,0.0
1630621679.89975405,80528609,0.15,0.13,0.12,0.11,352.78,352.79,0.0,0.0
1630621679.99971390,80628569,0.17,0.16,0.12,0.11,352.78,352.79,0.0,0.0
1630621680.09967399,80728529,0.19,0.19,0.13,0.11,352.78,352.79,0.0,0.0
1630621680.19963408,80828489,0.18,0.19,0.14,0.12,352.78,352.79,0.0,0.0
1630621680.29959393,80928449,0.16,0.18,0.14,0.13,352.78,352.79,0.0,0.0
1630621680.39955401,81028409,0.16,0.16,0.15,0.14,352.78,352.79,0.0,0.0
1630621680.49951410,81128369,0.15,0.15,0.13,0.14,352.78,352.79,0.0,0.0
1630621680.59947395,81228329,0.15,0.15,0.11,0.12,352.78,352.79,0.0,0.0
1630621680.69943404,81328289,0.13,0.14,0.08,0.1,352.78,352.79,0.0,0.0
1630621680.79939389,81428249,0.13,0.13,0.06,0.07,352.78,352.79,0.0,0.0
1630621680.89935398,81528209,0.14,0.13,0.08,0.06,352.78,352.8,0.0,0.0
1630621680.99931407,81628169,0.16,0.13,0.1,0.07,352.78,352.8,0.0,0.0
1630621681.10010695,81728962,0.16,0.14,0.13,0.1,352.78,352.8,0.0,0.0
1630621681.20006704,81828922,0.16,0.15,0.17,0.15,352.78,352.8,0.0,0.0
1630621681.30002689,81928882,0.15,0.14,0.21,0.2,352.78,352.8,0.0,0.0
1630621681.39998698,82028842,0.16,0.14,0.22,0.24,352.78,352.79,0.0,0.0
1630621681.49994707,82128802,0.13,0.13,0.2,0.24,352.78,352.79,0.0,0.0
1630621681.59990692,82228762,0.08,0.09,0.14,0.2,352.78,352.79,0.0,0.0
1630621681.69986701,82328722,0.07,0.06,0.1,0.14,352.78,352.79,0.0,0.0
1630621681.79982710,82428682,0.08,0.04,0.11,0.1,352.78,352.78,0.0,0.0
1630621681.89978695,82528642,0.09,0.04,0.14,0.11,352.78,352.78,0.0,0.0
1630621681.99974704,82628602,0.12,0.07,0.15,0.12,352.78,352.78,0.0,0.0
1630621682.09970713,82728562,0.15,0.11,0.17,0.15,352.78,352.78,0.0,0.0
1630621682.19966698,82828522,0.16,0.15,0.15,0.15,352.78,352.78,0.0,0.0
1630621682.29962707,82928482,0.17,0.17,0.12,0.14,352.78,352.78,0.0,0.0
1630621682.39958692,83028442,0.15,0.18,0.11,0.12,352.78,352.78,0.0,0.0
1630621682.49954700,83128402,0.1,0.15,0.1,0.1,352.78,352.78,0.0,0.0
1630621682.59950709,83228362,0.07,0.1,0.11,0.09,352.78,352.78,0.0,0.0
1630621682.69946694,83328322,0.07,0.06,0.12,0.09,352.78,352.78,0.0,0.0
1630621682.79942703,83428282,0.07,0.06,0.13,0.1,352.78,352.79,0.0,0.0
1630621682.89938712,83528242,0.07,0.06,0.15,0.12,352.78,352.79,0.0,0.0
1630621682.99934697,83628202,0.08,0.06,0.17,0.14,352.78,352.79,0.0,0.0
1630621683.09930706,83728162,0.09,0.08,0.18,0.16,352.78,352.79,0.0,0.0
1630621683.20009995,83828955,0.12,0.09,0.18,0.18,352.78,352.79,0.0,0.0
1630621683.30006003,83928915,0.14,0.12,0.16,0.17,352.78,352.79,0.0,0.0
1630621683.40002012,84028875,0.16,0.14,0.15,0.16,352.78,352.79,0.0,0.0
1630621683.49997997,84128835,0.19,0.17,0.13,0.13,352.78,352.79,0.0,0.0
1630621683.59994006,84228795,0.2,0.21,0.08,0.1,352.78,352.79,0.0,0.0
1630621683.69989991,84328755,0.18,0.21,0.08,0.07,352.78,352.79,0.0,0.0
1630621683.79986000,84428715,0.17,0.19,0.1,0.07,352.78,352.79,0.0,0.0
1630621683.89982009,84528675,0.15,0.16,0.09,0.07,352.78,352.78,0.0,0.0
1630621683.99977994,84628635,0.15,0.14,0.07,0.06,352.78,352.78,0.0,0.0
1630621684.09974003,84728595,0.14,0.14,0.05,0.05,352.78,352.78,0.0,0.0
1630621684.19970012,84828555,0.16,0.14,0.05,0.04,352.78,352.78,0.0,0.0
1630621684.29965997,84928515,0.17,0.15,0.08,0.05,352.78,352.78,0.0,0.0
1630621684.39962006,85028475,0.15,0.15,0.1,0.07,352.78,352.78,0.0,0.0
1630621684.49957991,85128435,0.13,0.14,0.14,0.1,352.78,352.78,0.0,0.0
1630621684.59954000,85228395,0.11,0.12,0.18,0.15,352.78,352.78,0.0,0.0
1630621684.69950008,85328355,0.12,0.1,0.21,0.2,352.78,352.78,0.0,0.0
1630621684.79945993,85428315,0.14,0.09,0.22,0.24,352.78,352.78,0.0,0.0
1630621684.89942002,85528275,0.17,0.13,0.16,0.22,352.78,352.78,0.0,0.0
1630621684.99938011,85628235,0.16,0.16,0.09,0.14,352.78,352.78,0.0,0.0
1630621685.09933996,85728195,0.14,0.15,0.05,0.07,352.78,352.78,0.0,0.0
1630621685.19930005,85828155,0.14,0.13,0.04,0.02,352.78,352.78,0.0,0.0
1630621685.30009294,85928948,0.14,0.13,0.05,0.01,352.78,352.78,0.0,0.0
1630621685.40005302,86028908,0.14,0.13,0.08,0.03,352.78,352.78,0.0,0.0
1630621685.50001311,86128868,0.13,0.13,0.11,0.07,352.78,352.78,0.0,0.0
1630621685.59997296,86228828,0.15,0.13,0.12,0.1,352.78,352.79,0.0,0.0
1630621685.69993305,86328788,0.17,0.15,0.11,0.11,352.78,352.79,0.0,0.0
1630621685.79989290,86428748,0.18,0.16,0.1,0.11,352.78,352.79,0.0,0.0
1630621685.89985299,86528708,0.18,0.18,0.06,0.09,352.78,352.79,0.0,0.0
1630621685.99981308,86628668,0.16,0.17,0.06,0.05,352.78,352.79,0.0,0.0
1630621686.09977293,86728628,0.11,0.14,0.11,0.07,352.78,352.79,0.0,0.0
1630621686.19973302,86828588,0.07,0.09,0.14,0.11,352.78,352.79,0.0,0.0
1630621686.29969311,86928548,0.06,0.05,0.15,0.14,352.78,352.79,0.0,0.0
1630621686.39965296,87028508,0.08,0.04,0.15,0.15,352.78,352.79,0.0,0.0
1630621686.49961305,87128468,0.09,0.06,0.17,0.16,352.78,352.79,0.0,0.0
1630621686.59957290,87228428,0.08,0.07,0.19,0.18,352.78,352.79,0.0,0.0
1630621686.69953299,87328388,0.07,0.06,0.18,0.19,352.78,352.78,0.0,0.0
1630621686.79949307,87428348,0.08,0.07,0.15,0.17,352.78,352.78,0.0,0.0
1630621686.89945292,87528308,0.09,0.08,0.12,0.13,352.78,352.78,0.0,0.0
1630621686.99941301,87628268,0.11,0.1,0.11,0.11,352.78,352.79,0.0,0.0
1630621687.09937310,87728228,0.13,0.12,0.12,0.1,352.78,352.79,0.0,0.0
1630621687.19933295,87828188,0.14,0.14,0.14,0.11,352.78,352.79,0.0,0.0
1630621687.30012608,87928981,0.11,0.13,0.15,0.13,352.78,352.79,0.0,0.0
1630621687.40008593,88028941,0.08,0.09,0.15,0.15,352.78,352.79,0.0,0.0
1630621687.50004601,88128901,0.07,0.06,0.15,0.15,352.78,352.79,0.0,0.0
1630621687.60000610,88228861,0.1,0.06,0.16,0.15,352.78,352.79,0.0,0.0
1630621687.69996595,88328821,0.11,0.08,0.15,0.15,352.78,352.79,0.0,0.0
1630621687.79992604,88428781,0.11,0.09,0.14,0.14,352.78,352.79,0.0,0.0
1630621687.89988589,88528741,0.1,0.1,0.13,0.12,352.78,352.79,0.0,0.0
1630621687.99984598,88628701,0.08,0.09,0.13,0.12,352.78,352.79,0.0,0.0
1630621688.09980607,88728661,0.08,0.08,0.11,0.1,352.78,352.79,0.0,0.0
1630621688.19976592,88828621,0.09,0.07,0.11,0.09,352.78,352.79,0.0,0.0
1630621688.29972601,88928581,0.11,0.09,0.13,0.1,352.78,352.79,0.0,0.0
1630621688.39968610,89028541,0.15,0.12,0.16,0.13,352.78,352.79,0.0,0.0
1630621688.49964595,89128501,0.18,0.16,0.16,0.16,352.78,352.79,0.0,0.0
1630621688.59960604,89228461,0.19,0.19,0.15,0.16,352.78,352.79,0.0,0.0
1630621688.69956613,89328421,0.19,0.21,0.14,0.16,352.78,352.79,0.0,0.0
1630621688.79952598,89428381,0.18,0.2,0.13,0.15,352.78,352.79,0.0,0.0
1630621688.89948606,89528341,0.18,0.19,0.12,0.13,352.78,352.79,0.0,0.0
1630621688.99944592,89628301,0.19,0.19,0.1,0.11,352.78,352.79,0.0,0.0
1630621689.09940600,89728261,0.18,0.19,0.11,0.09,352.78,352.79,0.0,0.0
1630621689.19936609,89828221,0.16,0.17,0.12,0.09,352.78,352.79,0.0,0.0
1630621689.29932594,89928181,0.16,0.15,0.13,0.11,352.78,352.79,0.0,0.0
1630621689.40011907,90028974,0.18,0.16,0.14,0.12,352.78,352.79,0.0,0.0
1630621689.50007892,90128934,0.2,0.18,0.14,0.12,352.78,352.79,0.0,0.0
1630621689.60003901,90228894,0.21,0.19,0.14,0.13,352.78,352.79,0.0,0.0
1630621689.69999909,90328854,0.23,0.21,0.15,0.14,352.78,352.79,0.0,0.0
1630621689.79995894,90428814,0.21,0.22,0.16,0.15,352.78,352.79,0.0,0.0
1630621689.89991903,90528774,0.2,0.2,0.17,0.16,352.78,352.79,0.0,0.0
1630621689.99987912,90628734,0.19,0.19,0.15,0.15,352.78,352.79,0.0,0.0
1630621690.09983897,90728694,0.18,0.17,0.13,0.13,352.78,352.79,0.0,0.0
1630621690.19979906,90828654,0.21,0.18,0.11,0.1,352.78,352.79,0.0,0.0
1630621690.29975891,90928614,0.23,0.2,0.11,0.09,352.78,352.79,0.0,0.0
1630621690.39971900,91028574,0.22,0.21,0.13,0.1,352.78,352.79,0.0,0.0
1630621690.49967909,91128534,0.17,0.19,0.14,0.11,352.78,352.79,0.0,0.0
1630621690.59963894,91228494,0.13,0.14,0.17,0.14,352.78,352.79,0.0,0.0
1630621690.69959903,91328454,0.14,0.11,0.17,0.15,352.78,352.78,0.0,0.0
1630621690.79955912,91428414,0.13,0.11,0.15,0.15,352.78,352.78,0.0,0.0
1630621690.89951897,91528374,0.13,0.1,0.14,0.15,352.78,352.78,0.0,0.0
1630621690.99947906,91628334,0.13,0.11,0.13,0.14,352.78,352.78,0.0,0.0
1630621691.09943891,91728294,0.13,0.11,0.16,0.16,352.78,352.78,0.0,0.0
1630621691.19939899,91828254,0.14,0.11,0.16,0.17,352.78,352.78,0.0,0.0
1630621691.29935908,91928214,0.18,0.15,0.14,0.15,352.78,352.78,0.0,0.0
1630621691.39931893,92028174,0.2,0.2,0.13,0.13,352.78,352.78,0.0,0.0
1630621691.50011206,92128967,0.19,0.21,0.14,0.13,352.78,352.79,0.0,0.0
1630621691.60007191,92228927,0.17,0.2,0.16,0.14,352.78,352.79,0.0,0.0
1630621691.70003200,92328887,0.17,0.18,0.19,0.18,352.78,352.79,0.0,0.0
1630621691.79999208,92428847,0.18,0.17,0.19,0.2,352.78,352.79,0.0,0.0
1630621691.89995193,92528807,0.18,0.17,0.17,0.2,352.78,352.8,0.0,0.0
1630621691.99991202,92628767,0.18,0.17,0.18,0.19,352.78,352.8,0.0,0.0
1630621692.09987211,92728727,0.18,0.17,0.19,0.19,352.78,352.79,0.0,0.0
1630621692.19983196,92828687,0.17,0.17,0.14,0.17,352.78,352.79,0.0,0.0
1630621692.29979205,92928647,0.17,0.16,0.11,0.12,352.78,352.79,0.0,0.0
1630621692.39975190,93028607,0.17,0.15,0.11,0.1,352.78,352.79,0.0,0.0
1630621692.49971199,93128567,0.16,0.16,0.1,0.08,352.78,352.79,0.0,0.0
1630621692.59967208,93228527,0.15,0.14,0.12,0.09,352.78,352.78,0.0,0.0
1630621692.69963193,93328487,0.15,0.14,0.13,0.12,352.78,352.78,0.0,0.0
1630621692.79959202,93428447,0.17,0.14,0.13,0.13,352.78,352.78,0.0,0.0
1630621692.89955211,93528407,0.2,0.17,0.12,0.12,352.78,352.78,0.0,0.0
1630621692.99951196,93628367,0.18,0.19,0.12,0.11,352.78,352.78,0.0,0.0
1630621693.09947205,93728327,0.16,0.18,0.11,0.1,352.78,352.78,0.0,0.0
1630621693.19943190,93828287,0.15,0.16,0.13,0.1,352.78,352.79,0.0,0.0
1630621693.29939198,93928247,0.15,0.15,0.14,0.11,352.78,352.79,0.0,0.0
1630621693.39935207,94028207,0.16,0.14,0.15,0.13,352.78,352.79,0.0,0.0
1630621693.49931192,94128167,0.16,0.14,0.17,0.15,352.78,352.79,0.0,0.0
1630621693.60010505,94228960,0.17,0.15,0.17,0.16,352.78,352.79,0.0,0.0
1630621693.70006490,94328920,0.21,0.17,0.2,0.18,352.78,352.79,0.0,0.0
1630621693.80002499,94428880,0.37,0.28,0.36,0.27,352.78,352.79,0.0,0.0
1630621693.89998507,94528840,0.72,0.54,0.71,0.52,352.78,352.79,0.0,0.0
1630621693.99994493,94628800,1.23,0.99,1.21,0.97,352.78,352.79,0.0,0.0
1630621694.09990501,94728760,1.87,1.63,1.8,1.58,352.78,352.8,0.0,0.0
1630621694.19986510,94828720,2.58,2.39,2.44,2.28,352.78,352.82,0.0,0.0
1630621694.29982495,94928680,3.24,3.17,3.06,3.0,352.78,352.84,0.0,0.01
1630621694.39978504,95028640,3.76,3.83,3.57,3.63,352.78,352.86,0.0,0.01
1630621694.49974489,95128600,4.14,4.32,3.97,4.12,352.78,352.86,0.0,0.01
1630621694.59970498,95228560,4.46,4.66,4.29,4.46,352.78,352.85,0.0,0.01
1630621694.69966507,95328520,4.78,4.93,4.6,4.73,352.78,352.83,0.0,0.01
1630621694.79962492,95428480,5.12,5.2,4.93,4.99,352.78,352.81,0.0,0.01
1630621694.89958501,95528440,5.41,5.48,5.27,5.28,352.78,352.8,0.0,0.01
1630621694.99954510,95628400,5.63,5.7,5.55,5.57,352.78,352.79,0.0,0.01
1630621695.09950495,95728360,5.8,5.87,5.76,5.81,352.78,352.78,0.0,0.0
1630621695.19946504,95828320,5.92,5.98,5.91,5.98,352.78,352.76,0.0,0.0
1630621695.29942513,95928280,6.04,6.08,6.02,6.1,352.78,352.75,0.0,0.0
1630621695.39938498,96028240,6.17,6.17,6.11,6.17,352.78,352.74,0.0,0.0
1630621695.49934506,96128200,6.36,6.26,6.26,6.33,354.11,352.77,0.0,0.0
1630621695.59930491,96228160,6.61,6.22,6.5,6.76,358.15,353.19,0.0,0.0
1630621695.70009804,96328953,7.02,6.16,6.68,7.44,4.08,354.67,0.0,0.0
1630621695.80005813,96428913,7.67,6.38,6.64,7.98,10.08,357.78,0.0,0.0
1630621695.90001798,96528873,8.59,7.04,6.23,8.08,16.08,2.54,0.0,0.01
1630621695.99997807,96628833,9.69,8.11,5.33,7.5,22.08,8.72,0.0,0.02
1630621696.09993792,96728793,10.79,9.44,3.97,6.22,28.08,15.97,0.0,0.03
1630621696.19989800,96828753,11.75,10.77,2.26,4.32,34.08,23.94,0.0,0.04
1630621696.29985809,96928713,12.43,11.88,0.36,1.98,40.08,32.36,0.0,0.05
1630621696.39981794,97028673,12.75,12.56,-1.63,-0.58,46.08,40.97,0.0,0.06
1630621696.49977803,97128633,12.72,12.73,-3.6,-3.18,52.08,49.56,0.0,0.07
1630621696.59973812,97228593,12.41,12.39,-5.47,-5.62,58.08,57.9,0.0,0.08
1630621696.69969797,97328553,11.86,11.67,-7.17,-7.76,64.08,65.82,0.0,0.08
1630621696.79965806,97428513,11.13,10.69,-8.7,-9.52,70.08,73.18,0.0,0.08
1630621696.89961791,97528473,10.31,9.63,-10.07,-10.94,76.08,79.93,0.0,0.08
1630621696.99957800,97628433,9.44,8.6,-11.25,-12.04,82.08,86.09,0.0,0.07
1630621697.09953809,97728393,8.49,7.64,-12.24,-12.87,88.08,91.72,0.0,0.07
1630621697.19949794,97828353,7.47,6.74,-13.09,-13.5,94.08,96.96,0.0,0.06
1630621697.29945803,97928313,6.41,5.89,-13.83,-14.01,100.09,101.94,0.0,0.06
1630621697.39941812,98028273,5.28,5.05,-14.49,-14.48,106.09,106.83,0.0,0.05
1630621697.49937797,98128233,4.06,4.15,-15.01,-14.92,112.09,111.75,0.0,0.05
1630621697.59933805,98228193,2.7,3.1,-15.42,-15.3,117.94,116.84,0.0,0.04
1630621697.70013094,98328986,1.23,1.59,-15.72,-15.64,121.78,122.07,0.0,0.04
1630621697.80009103,98428946,-0.26,-0.51,-15.84,-15.83,123.76,127.07,0.0,0.04
1630621697.90005112,98528906,-1.59,-2.82,-15.84,-15.79,124.8,131.25,0.0,0.04
1630621698.00001097,98628866,-2.49,-4.73,-15.82,-15.61,125.35,134.21,0.0,0.04
1630621698.09997106,98728826,-2.86,-5.84,-15.83,-15.41,125.67,135.8,0.0,0.03
1630621698.19993091,98828786,-2.72,-6.02,-15.91,-15.32,125.89,136.11,0.0,0.03
1630621698.29989100,98928746,-2.16,-5.34,-16.06,-15.37,126.07,135.37,0.0,0.02
1630621698.39985108,99028706,-1.38,-4.03,-16.25,-15.57,126.25,133.85,0.0,0.03
1630621698.49981093,99128666,-0.58,-2.43,-16.45,-15.87,126.43,131.83,0.0,0.03
1630621698.59977102,99228626,0.15,-0.78,-16.61,-16.19,126.61,129.62,0.0,0.03
1630621698.69973111,99328586,0.74,0.66,-16.68,-16.44,126.79,127.49,0.0,0.03
1630621698.79969096,99428546,1.14,1.78,-16.72,-16.58,126.96,125.71,0.0,0.04
1630621698.89965105,99528506,1.36,2.5,-16.74,-16.65,127.11,124.42,0.0,0.04
1630621698.99961090,99628466,1.41,2.81,-16.74,-16.67,127.24,123.72,0.0,0.03
1630621699.09957099,99728426,1.31,2.75,-16.73,-16.66,127.34,123.58,0.0,0.03
1630621699.19953108,99828386,1.11,2.4,-16.73,-16.65,127.42,123.93,0.0,0.03
1630621699.29949093,99928346,0.82,1.85,-16.77,-16.67,127.48,124.64,0.0,0.02
1630621699.39945102,100028306,0.49,1.17,-16.84,-16.73,127.52,125.59,0.0,0.02
1630621699.49941111,100128266,0.19,0.49,-16.9,-16.82,127.55,126.61,0.0,0.02
1630621699.59937096,100228226,-0.04,-0.12,-16.97,-16.9,127.57,127.59,0.0,0.01
1630621699.69933105,100328186,-0.21,-0.59,-17.02,-16.98,127.58,128.42,0.0,0.01
1630621699.80012393,100428979,-0.31,-0.89,-17.04,-17.03,127.59,129.02,0.0,0.01
1630621699.90008402,100528939,-0.34,-1.03,-17.03,-17.04,127.61,129.38,0.0,0.01
1630621700.00004411,100628899,-0.33,-1.03,-17.02,-17.02,127.62,129.5,0.0,0.01
1630621700.10000396,100728859,-0.26,-0.91,-17.05,-17.03,127.64,129.4,0.0,0.01
1630621700.19996405,100828819,-0.14,-0.69,-17.12,-17.07,127.66,129.14,0.0,0.01
1630621700.29992390,100928779,0.0,-0.41,-17.16,-17.13,127.68,128.78,0.0,0.01
1630621700.39988399,101028739,0.09,-0.12,-17.19,-17.17,127.7,128.38,0.0,0.01
1630621700.49984407,101128699,0.17,0.11,-17.22,-17.21,127.72,127.99,0.0,0.01
1630621700.59980392,101228659,0.25,0.31,-17.23,-17.23,127.74,127.66,0.0,0.01
1630621700.69976401,101328619,0.31,0.46,-17.27,-17.26,127.75,127.41,0.0,0.01
1630621700.79972410,101428579,0.32,0.53,-17.31,-17.29,127.76,127.27,0.0,0.01
1630621700.89968395,101528539,0.28,0.52,-17.34,-17.33,127.77,127.22,0.0,0.01
1630621700.99964404,101628499,0.2,0.43,-17.38,-17.38,127.77,127.27,0.0,0.01
1630621701.09960389,101728459,0.15,0.31,-17.4,-17.41,127.77,127.38,0.0,0.01
1630621701.19956398,101828419,0.11,0.19,-17.39,-17.42,127.77,127.53,0.0,0.01
1630621701.29952407,101928379,0.08,0.08,-17.37,-17.4,127.76,127.69,0.0,0.01
1630621701.39948392,102028339,0.07,0.01,-17.39,-17.39,127.76,127.85,0.0,0.01
1630621701.49944401,102128299,0.04,-0.04,-17.43,-17.41,127.75,127.99,0.0,0.01
1630621701.59940410,102228259,0.02,-0.1,-17.49,-17.47,127.74,128.09,0.0,0.01
1630621701.69936395,102328219,0.0,-0.13,-17.54,-17.52,127.74,128.15,0.0,0.01
1630621701.79932404,102428179,-0.01,-0.16,-17.58,-17.58,127.73,128.16,0.0,0.01
1630621701.90011692,102528972,-0.03,-0.17,-17.58,-17.61,127.72,128.14,0.0,0.01
1630621702.00007701,102628932,-0.02,-0.16,-17.57,-17.6,127.72,128.09,0.0,0.01
1630621702.10003710,102728892,0.0,-0.12,-17.57,-17.59,127.71,128.02,0.0,0.01
1630621702.19999695,102828852,0.03,-0.06,-17.58,-17.58,127.7,127.94,0.0,0.01
1630621702.29995704,102928812,0.08,0.01,-17.6,-17.59,127.7,127.86,0.0,0.01
1630621702.39991713,103028772,0.12,0.09,-17.65,-17.62,127.7,127.8,0.0,0.01
1630621702.49987698,103128732,0.14,0.14,-17.69,-17.66,127.69,127.74,0.0,0.01
1630621702.59983706,103228692,0.15,0.16,-17.71,-17.7,127.69,127.71,0.0,0.01
1630621702.69979692,103328652,0.15,0.16,-17.72,-17.72,127.69,127.69,0.0,0.01
1630621702.79975700,103428612,0.15,0.16,-17.72,-17.74,127.69,127.69,0.0,0.01
1630621702.89971709,103528572,0.17,0.16,-17.71,-17.74,127.68,127.7,0.0,0.01
1630621702.99967694,103628532,0.15,0.15,-17.72,-17.73,127.68,127.72,0.0,0.01
1630621703.09963703,103728492,0.12,0.12,-17.72,-17.74,127.68,127.74,0.0,0.01
1630621703.19959712,103828452,0.1,0.07,-17.72,-17.74,127.67,127.77,0.0,0.01
1630621703.29955697,103928412,0.1,0.05,-17.72,-17.73,127.67,127.79,0.0,0.01
1630621703.39951706,104028372,0.1,0.04,-17.74,-17.74,127.66,127.8,0.0,0.01
1630621703.49947691,104128332,0.1,0.03,-17.76,-17.77,127.66,127.81,0.0,0.01
1630621703.59943700,104228292,0.11,0.03,-17.77,-17.78,127.66,127.82,0.0,0.01
1630621703.69939709,104328252,0.12,0.04,-17.8,-17.8,127.65,127.81,0.0,0.01
1630621703.79935694,104428212,0.13,0.06,-17.81,-17.82,127.65,127.8,0.0,0.01
1630621703.89931703,104528172,0.14,0.08,-17.82,-17.83,127.64,127.78,0.0,0.01
1630621704.00010991,104628965,0.13,0.09,-17.81,-17.82,127.64,127.76,0.0,0.01
1630621704.10007000,104728925,0.12,0.09,-17.8,-17.81,127.64,127.74,0.0,0.01
1630621704.20003009,104828885,0.11,0.08,-17.82,-17.81,127.63,127.73,0.0,0.01
1630621704.29998994,104928845,0.12,0.07,-17.84,-17.83,127.63,127.72,0.0,0.01
1630621704.39995003,105028805,0.16,0.1,-17.87,-17.86,127.63,127.71,0.0,0.01
1630621704.49991012,105128765,0.2,0.15,-17.89,-17.89,127.63,127.71,0.0,0.01
1630621704.59986997,105228725,0.22,0.19,-17.9,-17.9,127.63,127.71,0.0,0.01
1630621704.69983006,105328685,0.21,0.2,-17.91,-17.92,127.63,127.72,0.0,0.01
1630621704.79978991,105428645,0.17,0.17,-17.93,-17.93,127.63,127.72,0.0,0.01
1630621704.89974999,105528605,0.15,0.13,-17.95,-17.95,127.62,127.73,0.0,0.01
1630621704.99971008,105628565,0.16,0.11,-17.97,-17.98,127.62,127.73,0.0,0.0
1630621705.09966993,105728525,0.18,0.12,-17.96,-17.99,127.62,127.73,0.0,0.0
1630621705.19963002,105828485,0.22,0.15,-17.94,-17.98,127.62,127.73,0.0,0.0
1630621705.29959011,105928445,0.23,0.18,-17.93,-17.95,127.62,127.73,0.0,0.0
1630621705.39954996,106028405,0.2,0.18,-17.93,-17.95,127.62,127.73,0.0,0.0
1630621705.49951005,106128365,0.2,0.18,-17.96,-17.96,127.62,127.73,0.0,0.0
1630621705.59946990,106228325,0.2,0.17,-18.02,-18.0,127.62,127.72,0.0,0.0
1630621705.69942999,106328285,0.19,0.16,-18.03,-18.04,127.62,127.72,0.0,0.0
1630621705.79939008,106428245,0.2,0.17,-18.04,-18.05,127.62,127.71,0.0,0.0
1630621705.89934993,106528205,0.2,0.17,-18.03,-18.06,127.62,127.7,0.0,0.0
1630621705.99931002,106628165,0.2,0.17,-18.01,-18.04,127.62,127.7,0.0,0.0
1630621706.10010290,106728958,0.21,0.17,-17.96,-17.99,127.61,127.7,0.0,0.0
1630621706.20006299,106828918,0.22,0.19,-17.94,-17.95,127.62,127.7,0.0,0.0
1630621706.30002308,106928878,0.22,0.19,-17.96,-17.94,127.62,127.69,0.0,0.0
1630621706.39998293,107028838,0.21,0.19,-18.01,-17.98,127.62,127.69,0.0,0.0
1630621706.49994302,107128798,0.19,0.17,-18.05,-18.03,127.62,127.69,0.0,0.0
1630621706.59990311,107228758,0.18,0.15,-18.07,-18.08,127.62,127.7,0.0,0.0
1630621706.69986296,107328718,0.17,0.14,-18.08,-18.1,127.62,127.7,0.0,0.0
1630621706.79982305,107428678,0.15,0.12,-18.08,-18.11,127.61,127.7,0.0,0.0
1630621706.89978290,107528638,0.16,0.11,-18.07,-18.11,127.61,127.7,0.0,0.0
1630621706.99974298,107628598,0.18,0.12,-18.05,-18.09,127.61,127.7,0.0,0.0
1630621707.09970307,107728558,0.18,0.14,-18.04,-18.07,127.61,127.7,0.0,0.0
1630621707.19966292,107828518,0.17,0.15,-18.04,-18.06,127.61,127.7,0.0,0.0
1630621707.29962301,107928478,0.14,0.13,-18.04,-18.04,127.61,127.7,0.0,0.0
1630621707.39958310,108028438,0.13,0.11,-18.06,-18.04,127.61,127.69,0.0,0.0
1630621707.49954295,108128398,0.15,0.11,-18.09,-18.06,127.61,127.69,0.0,0.0
1630621707.59950304,108228358,0.15,0.12,-18.11,-18.1,127.61,127.69,0.0,0.0
1630621707.69946313,108328318,0.14,0.12,-18.12,-18.13,127.61,127.68,0.0,0.0
1630621707.79942298,108428278,0.18,0.13,-18.13,-18.14,127.61,127.68,0.0,0.0
1630621707.89938307,108528238,0.22,0.17,-18.12,-18.15,127.61,127.68,0.0,0.0
1630621707.99934292,108628198,0.23,0.2,-18.11,-18.14,127.61,127.68,0.0,0.0
1630621708.09930301,108728158,0.22,0.2,-18.1,-18.11,127.61,127.68,0.0,0.0
1630621708.20009589,108828951,0.21,0.2,-18.07,-18.08,127.62,127.69,0.0,0.0
1630621708.30005598,108928911,0.19,0.18,-18.05,-18.05,127.62,127.69,0.0,0.0
1630621708.40001607,109028871,0.17,0.15,-18.04,-18.03,127.62,127.69,0.0,0.0
1630621708.49997592,109128831,0.19,0.14,-18.05,-18.04,127.62,127.69,0.0,0.0
1630621708.59993601,109228791,0.21,0.17,-18.06,-18.06,127.62,127.69,0.0,0.0
1630621708.69989610,109328751,0.24,0.2,-18.1,-18.09,127.63,127.7,0.0,0.0
1630621708.79985595,109428711,0.27,0.24,-18.13,-18.14,127.63,127.7,0.0,0.0
1630621708.89981604,109528671,0.29,0.26,-18.14,-18.17,127.64,127.7,0.0,0.0
1630621708.99977612,109628631,0.29,0.28,-18.1,-18.15,127.64,127.71,0.0,0.0
1630621709.09973598,109728591,0.27,0.28,-18.06,-18.1,127.65,127.71,0.0,0.0
1630621709.19969606,109828551,0.26,0.25,-18.06,-18.07,127.65,127.72,0.0,0.0
1630621709.29965591,109928511,0.26,0.24,-18.1,-18.08,127.65,127.72,0.0,0.0
1630621709.39961600,110028471,0.26,0.23,-18.14,-18.12,127.66,127.72,0.0,0.0
1630621709.49957609,110128431,0.28,0.24,-18.17,-18.16,127.66,127.73,0.0,0.0
1630621709.59953594,110228391,0.3,0.26,-18.21,-18.21,127.67,127.73,0.0,0.0
1630621709.69949603,110328351,0.29,0.27,-18.23,-18.25,127.67,127.73,0.0,0.0
1630621709.79945612,110428311,0.28,0.26,-18.22,-18.27,127.68,127.74,0.0,0.0
1630621709.89941597,110528271,0.27,0.25,-18.19,-18.23,127.68,127.74,0.0,0.0
1630621709.99937606,110628231,0.26,0.24,-18.19,-18.2,127.68,127.75,0.0,0.0
1630621710.09933591,110728191,0.24,0.22,-18.19,-18.19,127.68,127.75,0.0,0.0
1630621710.20012903,110828984,0.22,0.19,-18.19,-18.2,127.68,127.76,0.0,0.0
1630621710.30008912,110928944,0.21,0.18,-18.18,-18.2,127.68,127.76,0.0,0.0
1630621710.40004897,111028904,0.21,0.17,-18.16,-18.19,127.68,127.76,0.0,0.0
1630621710.50000906,111128864,0.22,0.18,-18.17,-18.18,127.68,127.75,0.0,0.0
1630621710.59996891,111228824,0.24,0.2,-18.18,-18.19,127.68,127.75,0.0,0.0
1630621710.69992900,111328784,0.25,0.22,-18.19,-18.2,127.68,127.74,0.0,0.0
1630621710.79988909,111428744,0.26,0.24,-18.18,-18.2,127.69,127.74,0.0,0.0
1630621710.89984894,111528704,0.24,0.23,-18.18,-18.19,127.69,127.73,0.0,0.0
1630621710.99980903,111628664,0.21,0.2,-18.18,-18.18,127.69,127.73,0.0,0.0
1630621711.09976912,111728624,0.23,0.19,-18.17,-18.17,127.69,127.74,0.0,0.0
1630621711.19972897,111828584,0.25,0.2,-18.17,-18.17,127.69,127.74,0.0,0.0
1630621711.29968905,111928544,0.26,0.22,-18.18,-18.17,127.69,127.74,0.0,0.0
1630621711.39964890,112028504,0.25,0.24,-18.21,-18.19,127.69,127.74,0.0,0.0
1630621711.49960899,112128464,0.25,0.24,-18.22,-18.22,127.69,127.74,0.0,0.0
1630621711.59956908,112228424,0.26,0.25,-18.22,-18.23,127.69,127.74,0.0,0.0
1630621711.69952893,112328384,0.28,0.27,-18.19,-18.22,127.69,127.74,0.0,0.0
1630621711.79948902,112428344,0.28,0.27,-18.18,-18.2,127.69,127.75,0.0,0.0
1630621711.89944911,112528304,0.29,0.27,-18.2,-18.2,127.69,127.75,0.0,0.0
1630621711.99940896,112628264,0.27,0.26,-18.21,-18.22,127.69,127.75,0.0,0.0
1630621712.09936905,112728224,0.24,0.23,-18.21,-18.23,127.69,127.75,0.0,0.0
1630621712.19932890,112828184,0.24,0.2,-18.2,-18.24,127.69,127.75,0.0,0.0
1630621712.30012202,112928977,0.25,0.19,-18.19,-18.23,127.69,127.75,0.0,0.0
1630621712.40008211,113028937,0.27,0.2,-18.18,-18.21,127.69,127.74,0.0,0.0
1630621712.50004196,113128897,0.29,0.24,-18.18,-18.19,127.69,127.74,0.0,0.0
1630621712.60000205,113228857,0.31,0.27,-18.18,-18.18,127.7,127.74,0.0,0.0
1630621712.69996190,113328817,0.32,0.3,-18.18,-18.17,127.7,127.73,0.0,0.0
1630621712.79992199,113428777,0.29,0.29,-18.18,-18.18,127.7,127.73,0.0,0.0
1630621712.89988208,113528737,0.26,0.27,-18.19,-18.19,127.7,127.73,0.0,0.0
1630621712.99984193,113628697,0.24,0.24,-18.18,-18.19,127.7,127.74,0.0,0.0
1630621713.09980202,113728657,0.23,0.21,-18.15,-18.17,127.7,127.74,0.0,0.0
1630621713.19976211,113828617,0.25,0.22,-18.14,-18.16,127.7,127.74,0.0,0.0
1630621713.29972196,113928577,0.29,0.26,-18.14,-18.14,127.7,127.74,0.0,0.0
1630621713.39968204,114028537,0.32,0.3,-18.13,-18.13,127.7,127.74,0.0,0.0
1630621713.49964190,114128497,0.31,0.31,-18.15,-18.13,127.7,127.74,0.0,0.0
1630621713.59960198,114228457,0.32,0.32,-18.19,-18.18,127.71,127.75,0.0,0.0
1630621713.69956207,114328417,0.34,0.33,-18.22,-18.22,127.71,127.75,0.0,0.0
1630621713.79952192,114428377,0.35,0.34,-18.24,-18.25,127.71,127.75,0.0,0.0
1630621713.89948201,114528337,0.36,0.35,-18.26,-18.28,127.72,127.76,0.0,0.0
1630621713.99944210,114628297,0.36,0.35,-18.26,-18.29,127.72,127.76,0.0,0.0
1630621714.09940195,114728257,0.35,0.33,-18.26,-18.28,127.72,127.76,0.0,0.0
1630621714.19936204,114828217,0.32,0.31,-18.24,-18.27,127.73,127.77,0.0,0.0
1630621714.29932213,114928177,0.29,0.28,-18.22,-18.25,127.73,127.77,0.0,0.0
1630621714.40011501,115028970,0.28,0.26,-18.19,-18.22,127.73,127.77,0.0,0.0
1630621714.50007510,115128930,0.29,0.25,-18.19,-18.19,127.72,127.77,0.0,0.0
1630621714.60003495,115228890,0.3,0.26,-18.2,-18.19,127.72,127.77,0.0,0.0
1630621714.69999504,115328850,0.33,0.28,-18.2,-18.2,127.72,127.77,0.0,0.0
1630621714.79995489,115428810,0.36,0.31,-18.21,-18.21,127.72,127.77,0.0,0.0
1630621714.89991498,115528770,0.37,0.34,-18.22,-18.23,127.72,127.76,0.0,0.0
1630621714.99987507,115628730,0.34,0.33,-18.23,-18.24,127.72,127.76,0.0,0.0
1630621715.09983492,115728690,0.32,0.31,-18.21,-18.24,127.72,127.76,0.0,0.0
1630621715.19979501,115828650,0.32,0.3,-18.2,-18.22,127.72,127.75,0.0,0.0
1630621715.29975510,115928610,0.36,0.32,-18.2,-18.2,127.72,127.75,0.0,0.0
1630621715.39971495,116028570,0.36,0.34,-18.21,-18.21,127.72,127.75,0.0,0.0
1630621715.49967504,116128530,0.34,0.33,-18.24,-18.23,127.72,127.75,0.0,0.0
1630621715.59963512,116228490,0.34,0.33,-18.27,-18.26,127.72,127.75,0.0,0.0
1630621715.69959497,116328450,0.33,0.33,-18.25,-18.28,127.72,127.76,0.0,0.0
1630621715.79955506,116428410,0.31,0.31,-18.23,-18.27,127.72,127.76,0.0,0.0
1630621715.89951491,116528370,0.3,0.29,-18.23,-18.25,127.72,127.76,0.0,0.0
1630621715.99947500,116628330,0.32,0.28,-18.23,-18.25,127.72,127.76,0.0,0.0
1630621716.09943509,116728290,0.34,0.3,-18.21,-18.23,127.72,127.76,0.0,0.0
1630621716.19939494,116828250,0.34,0.31,-18.2,-18.22,127.72,127.75,0.0,0.0
1630621716.29935503,116928210,0.36,0.33,-18.2,-18.21,127.72,127.75,0.0,0.0
1630621716.39931512,117028170,0.36,0.34,-18.22,-18.21,127.72,127.75,0.0,0.0
1630621716.50010800,117128963,0.38,0.36,-18.21,-18.22,127.72,127.75,0.0,0.0
1630621716.60006809,117228923,0.38,0.37,-18.21,-18.22,127.73,127.75,0.0,0.0
1630621716.70002794,117328883,0.39,0.37,-18.23,-18.23,127.73,127.75,0.0,0.0
1630621716.79998803,117428843,0.39,0.37,-18.26,-18.26,127.73,127.75,0.0,0.0
1630621716.89994812,117528803,0.37,0.37,-18.23,-18.26,127.73,127.75,0.0,0.0
1630621716.99990797,117628763,0.36,0.36,-18.21,-18.25,127.73,127.75,0.0,0.0
1630621717.09986806,117728723,0.36,0.35,-18.2,-18.23,127.73,127.75,0.0,0.0
1630621717.19982791,117828683,0.34,0.33,-18.2,-18.22,127.73,127.76,0.0,0.0
1630621717.29978800,117928643,0.32,0.31,-18.22,-18.22,127.72,127.76,0.0,0.0
1630621717.39974809,118028603,0.33,0.29,-18.23,-18.23,127.72,127.76,0.0,0.0
1630621717.49970794,118128563,0.33,0.29,-18.22,-18.23,127.72,127.76,0.0,0.0
1630621717.59966803,118228523,0.35,0.31,-18.21,-18.22,127.72,127.76,0.0,0.0
1630621717.69962811,118328483,0.37,0.33,-18.19,-18.21,127.72,127.75,0.0,0.0
1630621717.79958797,118428443,0.38,0.36,-18.19,-18.2,127.72,127.75,0.0,0.0
1630621717.89954805,118528403,0.38,0.38,-18.2,-18.2,127.72,127.75,0.0,0.0
1630621717.99950790,118628363,0.36,0.36,-18.23,-18.23,127.72,127.74,0.0,0.0
1630621718.09946799,118728323,0.34,0.34,-18.24,-18.25,127.72,127.74,0.0,0.0
1630621718.19942808,118828283,0.32,0.31,-18.23,-18.25,127.72,127.74,0.0,0.0
1630621718.29938793,118928243,0.32,0.3,-18.23,-18.24,127.72,127.74,0.0,0.0
1630621718.39934802,119028203,0.32,0.3,-18.25,-18.24,127.72,127.73,0.0,0.0
1630621718.49930811,119128163,0.29,0.28,-18.27,-18.25,127.71,127.73,0.0,0.0
1630621718.60010099,119228956,0.27,0.26,-18.28,-18.28,127.71,127.73,0.0,0.0
1630621718.70006108,119328916,0.28,0.25,-18.23,-18.27,127.71,127.73,0.0,0.0
1630621718.80002093,119428876,0.33,0.29,-18.19,-18.23,127.71,127.73,0.0,0.0
1630621718.89998102,119528836,0.39,0.35,-18.2,-18.2,127.71,127.73,0.0,0.0
1630621718.99994111,119628796,0.39,0.39,-18.22,-18.21,127.71,127.73,0.0,0.0
1630621719.09990096,119728756,0.38,0.39,-18.21,-18.22,127.71,127.73,0.0,0.0
1630621719.19986105,119828716,0.38,0.39,-18.18,-18.2,127.72,127.73,0.0,0.0
1630621719.29982090,119928676,0.38,0.38,-18.16,-18.18,127.72,127.73,0.0,0.0
1630621719.39978099,120028636,0.39,0.39,-18.17,-18.18,127.72,127.73,0.0,0.0
1630621719.49974108,120128596,0.39,0.38,-18.19,-18.19,127.72,127.73,0.0,0.0
1630621719.59970093,120228556,0.36,0.37,-18.22,-18.21,127.72,127.74,0.0,0.0
1630621719.69966102,120328516,0.35,0.35,-18.24,-18.24,127.72,127.74,0.0,0.0
1630621719.79962111,120428476,0.37,0.34,-18.23,-18.25,127.72,127.74,0.0,0.0
1630621719.89958096,120528436,0.4,0.36,-18.2,-18.24,127.72,127.74,0.0,0.0
1630621719.99954104,120628396,0.44,0.4,-18.19,-18.22,127.72,127.74,0.0,0.0
1630621720.09950089,120728356,0.43,0.41,-18.21,-18.21,127.72,127.74,0.0,0.0
1630621720.19946098,120828316,0.41,0.4,-18.22,-18.23,127.72,127.74,0.0,0.0
1630621720.29942107,120928276,0.4,0.39,-18.21,-18.23,127.72,127.74,0.0,0.0
1630621720.39938092,121028236,0.42,0.38,-18.22,-18.23,127.73,127.74,0.0,0.0
1630621720.49934101,121128196,0.41,0.4,-18.21,-18.23,127.73,127.74,0.0,0.0
1630621720.59930110,121228156,0.39,0.38,-18.2,-18.21,127.73,127.74,0.0,0.0
1630621720.70009398,121328949,0.37,0.36,-18.18,-18.19,127.73,127.74,0.0,0.0
1630621720.80005407,121428909,0.36,0.34,-18.18,-18.18,127.73,127.75,0.0,0.0
1630621720.90001392,121528869,0.37,0.35,-18.18,-18.18,127.73,127.75,0.0,0.0
1630621720.99997401,121628829,0.4,0.37,-18.19,-18.19,127.73,127.75,0.0,0.0
1630621721.09993410,121728789,0.44,0.41,-18.21,-18.21,127.74,127.75,0.0,0.0
1630621721.19989395,121828749,0.46,0.44,-18.22,-18.23,127.74,127.76,0.0,0.0
1630621721.29985404,121928709,0.44,0.45,-18.24,-18.25,127.74,127.76,0.0,0.0
1630621721.39981413,122028669,0.44,0.45,-18.26,-18.27,127.75,127.76,0.0,0.0
1630621721.49977398,122128629,0.41,0.43,-18.27,-18.29,127.75,127.76,0.0,0.0
1630621721.59973407,122228589,0.37,0.38,-18.27,-18.29,127.75,127.76,0.0,0.0
1630621721.69969392,122328549,0.36,0.34,-18.26,-18.29,127.75,127.77,0.0,0.0
1630621721.79965401,122428509,0.39,0.34,-18.23,-18.27,127.75,127.77,0.0,0.0
1630621721.89961410,122528469,0.43,0.37,-18.19,-18.22,127.75,127.77,0.0,0.0
1630621721.99957395,122628429,0.46,0.42,-18.18,-18.2,127.75,127.77,0.0,0.0
1630621722.09953403,122728389,0.45,0.45,-18.2,-18.2,127.75,127.76,0.0,0.0
1630621722.19949412,122828349,0.43,0.44,-18.23,-18.22,127.75,127.76,0.0,0.0
1630621722.29945397,122928309,0.39,0.41,-18.25,-18.24,127.75,127.76,0.0,0.0
1630621722.39941406,123028269,0.34,0.35,-18.26,-18.27,127.75,127.77,0.0,0.0
1630621722.49937391,123128229,0.35,0.32,-18.26,-18.28,127.75,127.77,0.0,0.0
1630621722.59933400,123228189,0.38,0.33,-18.24,-18.27,127.74,127.77,0.0,0.0
1630621722.70012712,123328982,0.41,0.37,-18.24,-18.26,127.74,127.76,0.0,0.0
1630621722.80008698,123428942,0.42,0.4,-18.24,-18.25,127.74,127.76,0.0,0.0
1630621722.90004706,123528902,0.45,0.44,-18.23,-18.24,127.74,127.76,0.0,0.0
1630621723.00000691,123628862,0.5,0.48,-18.24,-18.24,127.74,127.75,0.0,0.0
1630621723.09996700,123728822,0.5,0.51,-18.24,-18.25,127.74,127.75,0.0,0.0
1630621723.19992709,123828782,0.46,0.49,-18.23,-18.24,127.74,127.74,0.0,0.0
1630621723.29988694,123928742,0.42,0.44,-18.22,-18.23,127.74,127.74,0.0,0.0
1630621723.39984703,124028702,0.39,0.4,-18.22,-18.23,127.74,127.74,0.0,0.0
1630621723.49980712,124128662,0.39,0.37,-18.21,-18.23,127.74,127.74,0.0,0.0
1630621723.59976697,124228622,0.41,0.37,-18.21,-18.22,127.74,127.75,0.0,0.0
1630621723.69972706,124328582,0.43,0.38,-18.24,-18.23,127.74,127.75,0.0,0.0
1630621723.79968691,124428542,0.43,0.4,-18.24,-18.24,127.74,127.75,0.0,0.0
1630621723.89964700,124528502,0.44,0.42,-18.22,-18.23,127.74,127.76,0.0,0.0
1630621723.99960709,124628462,0.45,0.44,-18.2,-18.22,127.74,127.76,0.0,0.0
1630621724.09956694,124728422,0.47,0.45,-18.19,-18.2,127.74,127.76,0.0,0.0
1630621724.19952703,124828382,0.51,0.48,-18.18,-18.19,127.75,127.76,0.0,0.0
1630621724.29948711,124928342,0.53,0.52,-18.18,-18.18,127.75,127.76,0.0,0.0
1630621724.39944696,125028302,0.52,0.53,-18.18,-18.18,127.75,127.76,0.0,0.0
