timestamp,TimeUS,DesRoll,Roll,DesPitch,Pitch,DesYaw,Yaw,ErrRP,ErrYaw
1630623463.20000005,41228502,0.0,0.09,0.0,0.08,352.89,352.9,0.0,0.0
1630623463.29995990,41328462,0.0,0.1,0.0,0.08,352.89,352.9,0.0,0.0
1630623463.39991999,41428422,0.0,0.1,0.0,0.08,352.89,352.9,0.0,0.0
1630623463.49988008,41528382,0.0,0.1,0.0,0.08,352.89,352.9,0.0,0.0
1630623463.59983993,41628342,0.0,0.1,0.0,0.08,352.89,352.9,0.0,0.0
1630623463.69980001,41728302,0.0,0.1,0.0,0.08,352.88,352.89,0.0,0.0
1630623463.79976010,41828262,0.0,0.1,0.0,0.08,352.88,352.89,0.0,0.0
1630623463.89971995,41928222,0.0,0.1,0.0,0.08,352.88,352.89,0.0,0.0
1630623463.99968004,42028182,0.0,0.1,0.0,0.08,352.88,352.89,0.0,0.0
1630623464.10047293,42128975,0.0,0.1,0.0,0.08,352.88,352.89,0.0,0.0
1630623464.20043302,42228935,0.0,0.1,0.0,0.08,352.88,352.89,0.0,0.0
1630623464.30039310,42328895,0.0,0.1,0.0,0.09,352.88,352.89,0.0,0.0
1630623464.40035295,42428855,0.0,0.1,0.0,0.09,352.88,352.89,0.0,0.0
1630623464.50031304,42528815,0.0,0.1,0.0,0.09,352.88,352.89,0.0,0.0
1630623464.60027289,42628775,0.0,0.1,0.0,0.08,352.88,352.89,0.0,0.0
1630623464.70023298,42728735,0.0,0.1,0.0,0.09,352.88,352.89,0.0,0.0
1630623464.80019307,42828695,0.0,0.1,0.0,0.08,352.88,352.89,0.0,0.0
1630623464.90015292,42928655,0.0,0.1,0.0,0.08,352.88,352.89,0.0,0.0
1630623465.00011301,43028615,0.0,0.1,0.0,0.08,352.87,352.88,0.0,0.0
1630623465.10007310,43128575,0.0,0.1,0.0,0.08,352.87,352.88,0.0,0.0
1630623465.20003295,43228535,0.0,0.1,0.0,0.08,352.87,352.88,0.0,0.0
1630623465.29999304,43328495,0.0,0.1,0.0,0.08,352.87,352.88,0.0,0.0
1630623465.39995313,43428455,0.0,0.1,0.0,0.08,352.87,352.88,0.0,0.0
1630623465.49991298,43528415,0.0,0.1,0.0,0.08,352.87,352.88,0.0,0.0
1630623465.59987307,43628375,0.0,0.1,0.0,0.08,352.87,352.88,0.0,0.0
1630623465.69983292,43728335,0.0,0.1,0.0,0.08,352.87,352.88,0.0,0.0
1630623465.79979300,43828295,0.0,0.1,0.0,0.08,352.87,352.88,0.0,0.0
1630623465.89975309,43928255,0.0,0.1,0.0,0.08,352.87,352.88,0.0,0.0
1630623465.99971294,44028215,0.0,0.1,0.0,0.08,352.87,352.88,0.0,0.0
1630623466.09967303,44128175,-0.09,0.1,-0.09,0.08,352.87,352.88,0.0,0.0
1630623466.20046592,44228968,-0.08,0.09,-0.08,0.08,352.87,352.88,0.0,0.0
1630623466.30042601,44328928,-0.11,0.09,-0.11,0.08,352.87,352.88,0.0,0.0
1630623466.40038610,44428888,-0.18,0.09,-0.17,0.07,352.87,352.88,0.0,0.0
1630623466.50034595,44528848,-0.23,0.09,-0.22,0.07,352.87,352.88,0.0,0.0
1630623466.60030603,44628808,-0.28,0.09,-0.26,0.07,352.87,352.88,0.0,0.0
1630623466.70026612,44728768,-0.31,0.09,-0.29,0.07,352.87,352.88,0.0,0.0
1630623466.80022597,44828728,-0.33,0.09,-0.32,0.07,352.87,352.88,0.0,0.0
1630623466.90018606,44928688,-0.34,0.09,-0.34,0.07,352.87,352.88,0.0,0.0
1630623467.00014591,45028648,-0.35,0.09,-0.36,0.07,352.87,352.88,0.0,0.0
1630623467.10010600,45128608,-0.36,0.09,-0.39,0.07,352.87,352.88,0.0,0.0
1630623467.20006609,45228568,-0.37,0.09,-0.39,0.07,352.87,352.88,0.0,0.0
1630623467.30002594,45328528,-0.36,0.09,-0.36,0.07,352.87,352.88,0.0,0.0
1630623467.39998603,45428488,-0.36,0.09,-0.35,0.07,352.87,352.88,0.0,0.0
1630623467.49994612,45528448,-0.38,0.09,-0.36,0.07,352.87,352.88,0.0,0.0
1630623467.59990597,45628408,-0.39,0.08,-0.37,0.07,352.87,352.88,0.0,0.0
1630623467.69986606,45728368,-0.41,-0.07,-0.41,-0.08,352.87,352.88,0.0,0.0
1630623467.79982591,45828328,-0.41,-0.37,-0.39,-0.36,352.87,352.88,0.0,0.0
1630623467.89978600,45928288,-0.35,-0.61,-0.32,-0.57,352.87,352.88,0.0,0.0
1630623467.99974608,46028248,-0.23,-0.69,-0.21,-0.64,352.87,352.88,0.0,0.0
1630623468.09970593,46128208,-0.03,-0.59,-0.03,-0.55,352.87,352.88,0.0,0.0
1630623468.19966602,46228168,0.17,-0.37,0.16,-0.35,352.87,352.88,0.0,0.0
1630623468.30045891,46328961,0.32,-0.13,0.3,-0.12,352.87,352.88,0.0,0.0
1630623468.40041900,46428921,0.41,0.05,0.37,0.04,352.87,352.88,0.0,0.0
1630623468.50037909,46528881,0.45,0.17,0.38,0.14,352.87,352.88,0.0,0.0
1630623468.60033894,46628841,0.49,0.25,0.35,0.16,352.87,352.88,0.0,0.0
1630623468.70029902,46728801,0.49,0.29,0.31,0.13,352.87,352.88,0.0,0.0
1630623468.80025911,46828761,0.44,0.28,0.29,0.1,352.87,352.88,0.0,0.0
1630623468.90021896,46928721,0.39,0.22,0.28,0.08,352.87,352.88,0.0,0.0
1630623469.00017905,47028681,0.39,0.19,0.32,0.1,352.87,352.88,0.0,0.0
1630623469.10013890,47128641,0.4,0.19,0.34,0.14,352.87,352.88,0.0,0.0
1630623469.20009899,47228601,0.41,0.22,0.36,0.18,352.87,352.88,0.0,0.0
1630623469.30005908,47328561,0.43,0.26,0.39,0.23,352.87,352.88,0.0,0.0
1630623469.40001893,47428521,0.46,0.3,0.36,0.25,352.8,352.8,0.0,0.0
1630623469.49997902,47528481,0.49,0.35,0.32,0.23,352.8,352.8,0.0,0.0
1630623469.59993911,47628441,0.45,0.37,0.29,0.2,352.8,352.8,0.0,0.0
1630623469.69989896,47728401,0.39,0.33,0.29,0.18,352.8,352.8,0.0,0.0
1630623469.79985905,47828361,0.32,0.26,0.29,0.18,352.8,352.8,0.0,0.0
1630623469.89981890,47928321,0.3,0.21,0.25,0.18,352.8,352.8,0.0,0.0
1630623469.99977899,48028281,0.31,0.2,0.22,0.16,352.8,352.8,0.0,0.0
1630623470.09973907,48128241,0.29,0.2,0.19,0.14,352.8,352.8,0.0,0.0
1630623470.19969893,48228201,0.26,0.19,0.17,0.11,352.8,352.8,0.0,0.0
1630623470.29965901,48328161,0.21,0.16,0.15,0.1,352.8,352.8,0.0,0.0
1630623470.40045190,48428954,0.15,0.11,0.15,0.09,352.8,352.81,0.0,0.0
1630623470.50041199,48528914,0.11,0.06,0.16,0.1,352.8,352.81,0.0,0.0
1630623470.60037208,48628874,0.08,0.03,0.14,0.1,352.8,352.81,0.0,0.0
1630623470.70033193,48728834,0.06,0.0,0.13,0.09,352.8,352.81,0.0,0.0
1630623470.80029202,48828794,0.06,0.0,0.09,0.06,352.8,352.81,0.0,0.0
1630623470.90025210,48928754,0.08,0.01,0.04,0.02,352.8,352.81,0.0,0.0
1630623471.00021195,49028714,0.11,0.05,0.0,-0.01,352.8,352.81,0.0,0.0
1630623471.10017204,49128674,0.13,0.09,0.0,-0.04,352.8,352.81,0.0,0.0
1630623471.20013213,49228634,0.14,0.11,0.0,-0.04,352.8,352.81,0.0,0.0
1630623471.30009198,49328594,0.12,0.12,0.0,-0.03,352.8,352.81,0.0,0.0
1630623471.40005207,49428554,0.08,0.08,-0.02,-0.04,352.8,352.81,0.0,0.0
1630623471.50001192,49528514,0.05,0.05,-0.05,-0.07,352.8,352.8,0.0,0.0
1630623471.59997201,49628474,0.04,0.02,-0.08,-0.09,352.8,352.8,0.0,0.0
1630623471.69993210,49728434,0.03,0.0,-0.06,-0.1,352.8,352.8,0.0,0.0
1630623471.79989195,49828394,0.01,-0.01,0.01,-0.05,352.8,352.8,0.0,0.0
1630623471.89985204,49928354,0.02,-0.02,0.09,0.03,352.8,352.8,0.0,0.0
1630623471.99981213,50028314,0.04,0.0,0.12,0.09,352.8,352.81,0.0,0.0
1630623472.09977198,50128274,0.07,0.04,0.09,0.11,352.8,352.81,0.0,0.0
1630623472.19973207,50228234,0.08,0.07,0.05,0.08,352.8,352.81,0.0,0.0
1630623472.29969192,50328194,0.09,0.09,0.0,0.03,352.8,352.81,0.0,0.0
1630623472.39965200,50428154,0.08,0.09,-0.05,-0.02,352.8,352.81,0.0,0.0
1630623472.50044513,50528947,0.08,0.08,-0.08,-0.08,352.8,352.81,0.0,0.0
1630623472.60040498,50628907,0.07,0.07,-0.06,-0.1,352.8,352.81,0.0,0.0
1630623472.70036507,50728867,0.07,0.06,0.0,-0.07,352.8,352.81,0.0,0.0
1630623472.80032492,50828827,0.08,0.06,0.08,0.01,352.8,352.81,0.0,0.0
1630623472.90028501,50928787,0.13,0.09,0.15,0.11,352.8,352.81,0.0,0.0
1630623473.00024509,51028747,0.16,0.13,0.15,0.18,352.8,352.81,0.0,0.0
1630623473.10020494,51128707,0.17,0.16,0.11,0.17,352.8,352.8,0.0,0.0
1630623473.20016503,51228667,0.19,0.18,0.07,0.12,352.8,352.8,0.0,0.0
1630623473.30012512,51328627,0.22,0.22,0.06,0.08,352.8,352.8,0.0,0.0
1630623473.40008497,51428587,0.21,0.24,0.07,0.05,352.8,352.79,0.0,0.0
1630623473.50004506,51528547,0.16,0.21,0.11,0.07,352.8,352.79,0.0,0.0
1630623473.60000491,51628507,0.11,0.15,0.13,0.1,352.8,352.79,0.0,0.0
1630623473.69996500,51728467,0.07,0.08,0.12,0.12,352.8,352.8,0.0,0.0
1630623473.79992509,51828427,0.05,0.03,0.12,0.13,352.8,352.8,0.0,0.0
1630623473.89988494,51928387,0.04,0.01,0.14,0.13,352.8,352.8,0.0,0.0
1630623473.99984503,52028347,0.04,0.02,0.16,0.14,352.8,352.81,0.0,0.0
1630623474.09980512,52128307,0.04,0.03,0.15,0.15,352.8,352.81,0.0,0.0
1630623474.19976497,52228267,0.03,0.02,0.12,0.13,352.8,352.82,0.0,0.0
1630623474.29972506,52328227,0.05,0.03,0.11,0.12,352.8,352.82,0.0,0.0
1630623474.39968491,52428187,0.07,0.04,0.11,0.11,352.8,352.82,0.0,0.0
1630623474.50047803,52528980,0.09,0.06,0.1,0.1,352.8,352.82,0.0,0.0
1630623474.60043812,52628940,0.09,0.08,0.08,0.08,352.8,352.82,0.0,0.0
1630623474.70039797,52728900,0.07,0.07,0.09,0.06,352.8,352.82,0.0,0.0
1630623474.80035806,52828860,0.08,0.08,0.1,0.07,352.8,352.81,0.0,0.0
1630623474.90031791,52928820,0.08,0.08,0.16,0.11,352.8,352.81,0.0,0.0
1630623475.00027800,53028780,0.06,0.06,0.19,0.16,352.8,352.81,0.0,0.0
1630623475.10023808,53128740,0.07,0.06,0.17,0.17,352.8,352.81,0.0,0.0
1630623475.20019794,53228700,0.06,0.06,0.14,0.16,352.8,352.8,0.0,0.0
1630623475.30015802,53328660,0.05,0.06,0.1,0.13,352.8,352.8,0.0,0.0
1630623475.40011811,53428620,0.05,0.05,0.08,0.08,352.8,352.8,0.0,0.0
1630623475.50007796,53528580,0.06,0.06,0.1,0.07,352.8,352.8,0.0,0.0
1630623475.60003805,53628540,0.06,0.06,0.14,0.1,352.8,352.81,0.0,0.0
1630623475.69999790,53728500,0.09,0.07,0.16,0.14,352.8,352.81,0.0,0.0
1630623475.79995799,53828460,0.12,0.1,0.19,0.17,352.8,352.81,0.0,0.0
1630623475.89991808,53928420,0.14,0.13,0.17,0.18,352.8,352.81,0.0,0.0
1630623475.99987793,54028380,0.14,0.14,0.14,0.16,352.8,352.82,0.0,0.0
1630623476.09983802,54128340,0.1,0.12,0.09,0.12,352.8,352.82,0.0,0.0
1630623476.19979811,54228300,0.04,0.07,0.04,0.06,352.8,352.82,0.0,0.0
1630623476.29975796,54328260,0.01,0.02,0.0,0.01,352.8,352.82,0.0,0.0
1630623476.39971805,54428220,0.02,0.0,0.02,0.0,352.8,352.81,0.0,0.0
1630623476.49967790,54528180,0.05,0.0,0.05,0.01,352.8,352.81,0.0,0.0
1630623476.60047102,54628973,0.07,0.04,0.06,0.03,352.8,352.81,0.0,0.0
1630623476.70043111,54728933,0.08,0.07,0.02,0.02,352.8,352.81,0.0,0.0
1630623476.80039096,54828893,0.11,0.11,0.0,0.0,352.8,352.81,0.0,0.0
1630623476.90035105,54928853,0.11,0.13,0.0,-0.01,352.8,352.81,0.0,0.0
1630623477.00031090,55028813,0.09,0.13,0.0,-0.01,352.8,352.81,0.0,0.0
1630623477.10027099,55128773,0.03,0.08,0.0,-0.01,352.8,352.81,0.0,0.0
1630623477.20023108,55228733,0.0,0.02,-0.01,-0.01,352.8,352.81,0.0,0.0
1630623477.30019093,55328693,0.0,0.0,0.01,0.0,352.8,352.81,0.0,0.0
1630623477.40015101,55428653,0.02,0.0,0.07,0.05,352.8,352.81,0.0,0.0
1630623477.50011110,55528613,0.06,0.02,0.07,0.08,352.8,352.8,0.0,0.0
1630623477.60007095,55628573,0.09,0.06,0.06,0.08,352.8,352.8,0.0,0.0
1630623477.70003104,55728533,0.07,0.08,0.03,0.05,352.8,352.8,0.0,0.0
1630623477.79999113,55828493,0.05,0.06,0.01,0.02,352.8,352.8,0.0,0.0
1630623477.89995098,55928453,0.06,0.05,0.02,0.0,352.8,352.8,0.0,0.0
1630623477.99991107,56028413,0.08,0.07,0.02,0.0,352.8,352.8,0.0,0.0
1630623478.09987092,56128373,0.08,0.07,0.03,0.01,352.8,352.8,0.0,0.0
1630623478.19983101,56228333,0.09,0.08,0.02,0.01,352.8,352.8,0.0,0.0
1630623478.29979110,56328293,0.08,0.08,0.02,0.01,352.8,352.8,0.0,0.0
1630623478.39975095,56428253,0.06,0.06,0.04,0.03,352.8,352.8,0.0,0.0
1630623478.49971104,56528213,0.07,0.05,0.05,0.05,352.8,352.81,0.0,0.0
1630623478.59967113,56628173,0.09,0.07,0.05,0.05,352.8,352.81,0.0,0.0
1630623478.70046401,56728966,0.12,0.09,0.04,0.04,352.8,352.81,0.0,0.0
1630623478.80042410,56828926,0.12,0.11,0.03,0.03,352.8,352.81,0.0,0.0
1630623478.90038395,56928886,0.1,0.11,0.05,0.04,352.8,352.81,0.0,0.0
1630623479.00034404,57028846,0.09,0.09,0.06,0.05,352.8,352.81,0.0,0.0
1630623479.10030413,57128806,0.07,0.08,0.09,0.07,352.8,352.81,0.0,0.0
1630623479.20026398,57228766,0.06,0.07,0.1,0.08,352.8,352.81,0.0,0.0
1630623479.30022407,57328726,0.07,0.06,0.12,0.11,352.8,352.8,0.0,0.0
1630623479.40018392,57428686,0.06,0.06,0.15,0.14,352.8,352.8,0.0,0.0
1630623479.50014400,57528646,0.04,0.04,0.16,0.16,352.8,352.8,0.0,0.0
1630623479.60010409,57628606,0.04,0.02,0.14,0.17,352.8,352.8,0.0,0.0
1630623479.70006394,57728566,0.08,0.05,0.15,0.16,352.8,352.8,0.0,0.0
1630623479.80002403,57828526,0.1,0.08,0.15,0.16,352.8,352.8,0.0,0.0
1630623479.89998412,57928486,0.1,0.1,0.14,0.15,352.8,352.8,0.0,0.0
1630623479.99994397,58028446,0.09,0.11,0.12,0.13,352.8,352.8,0.0,0.0
1630623480.09990406,58128406,0.06,0.08,0.09,0.09,352.8,352.81,0.0,0.0
1630623480.19986391,58228366,0.03,0.04,0.08,0.07,352.8,352.81,0.0,0.0
1630623480.29982400,58328326,0.01,0.01,0.09,0.07,352.8,352.81,0.0,0.0
1630623480.39978409,58428286,0.02,0.0,0.11,0.08,352.8,352.81,0.0,0.0
1630623480.49974394,58528246,0.03,0.01,0.12,0.1,352.8,352.81,0.0,0.0
1630623480.59970403,58628206,0.04,0.02,0.12,0.11,352.8,352.81,0.0,0.0
1630623480.69966412,58728166,0.05,0.04,0.14,0.13,352.8,352.8,0.0,0.0
1630623480.80045700,58828959,0.05,0.05,0.14,0.14,352.8,352.8,0.0,0.0
1630623480.90041709,58928919,0.06,0.06,0.11,0.13,352.8,352.8,0.0,0.0
1630623481.00037694,59028879,0.09,0.08,0.07,0.1,352.8,352.8,0.0,0.0
1630623481.10033703,59128839,0.11,0.09,0.04,0.07,352.8,352.8,0.0,0.0
1630623481.20029712,59228799,0.12,0.1,0.02,0.04,352.8,352.8,0.0,0.0
1630623481.30025697,59328759,0.14,0.12,0.05,0.02,352.8,352.8,0.0,0.0
1630623481.40021706,59428719,0.15,0.14,0.08,0.04,352.8,352.79,0.0,0.0
1630623481.50017691,59528679,0.14,0.15,0.08,0.05,352.8,352.79,0.0,0.0
1630623481.60013700,59628639,0.12,0.14,0.08,0.05,352.8,352.79,0.0,0.0
1630623481.70009708,59728599,0.09,0.11,0.06,0.05,352.8,352.79,0.0,0.0
1630623481.80005693,59828559,0.06,0.07,0.05,0.04,352.8,352.8,0.0,0.0
1630623481.90001702,59928519,0.07,0.05,0.03,0.02,352.8,352.8,0.0,0.0
1630623481.99997711,60028479,0.1,0.06,0.01,0.01,352.8,352.8,0.0,0.0
1630623482.09993696,60128439,0.1,0.08,-0.01,-0.01,352.8,352.81,0.0,0.0
1630623482.19989705,60228399,0.1,0.08,0.0,-0.01,352.8,352.81,0.0,0.0
1630623482.29985690,60328359,0.09,0.08,0.04,0.0,352.8,352.82,0.0,0.0
1630623482.39981699,60428319,0.09,0.08,0.07,0.03,352.8,352.82,0.0,0.0
1630623482.49977708,60528279,0.08,0.09,0.07,0.06,352.8,352.82,0.0,0.0
1630623482.59973693,60628239,0.08,0.09,0.05,0.06,352.8,352.82,0.0,0.0
1630623482.69969702,60728199,0.09,0.09,0.02,0.04,352.8,352.81,0.0,0.0
1630623482.79965711,60828159,0.12,0.1,0.04,0.03,352.8,352.81,0.0,0.0
1630623482.90044999,60928952,0.11,0.12,0.01,0.02,352.8,352.8,0.0,0.0
1630623483.00041008,61028912,0.09,0.11,0.0,0.0,352.8,352.8,0.0,0.0
1630623483.10036993,61128872,0.06,0.08,0.01,0.0,352.8,352.8,0.0,0.0
1630623483.20033002,61228832,0.08,0.06,0.03,0.02,352.8,352.79,0.0,0.0
1630623483.30029011,61328792,0.11,0.08,0.04,0.03,352.8,352.79,0.0,0.0
1630623483.40024996,61428752,0.13,0.11,0.05,0.04,352.8,352.79,0.0,0.0
1630623483.50021005,61528712,0.12,0.12,0.06,0.05,352.8,352.79,0.0,0.0
1630623483.60016990,61628672,0.12,0.12,0.06,0.05,352.8,352.8,0.0,0.0
1630623483.70012999,61728632,0.13,0.13,0.1,0.07,352.8,352.8,0.0,0.0
1630623483.80009007,61828592,0.13,0.13,0.13,0.11,352.8,352.8,0.0,0.0
1630623483.90004992,61928552,0.15,0.14,0.12,0.13,352.8,352.8,0.0,0.0
1630623484.00001001,62028512,0.14,0.15,0.07,0.11,352.8,352.8,0.0,0.0
1630623484.09997010,62128472,0.11,0.14,0.05,0.07,352.8,352.8,0.0,0.0
1630623484.19992995,62228432,0.11,0.12,0.07,0.05,352.8,352.8,0.0,0.0
1630623484.29989004,62328392,0.14,0.12,0.09,0.07,352.8,352.8,0.0,0.0
1630623484.39985013,62428352,0.16,0.14,0.12,0.09,352.8,352.8,0.0,0.0
1630623484.49980998,62528312,0.16,0.15,0.13,0.12,352.8,352.8,0.0,0.0
1630623484.59977007,62628272,0.13,0.15,0.12,0.13,352.8,352.8,0.0,0.0
1630623484.69972992,62728232,0.09,0.11,0.09,0.12,352.8,352.8,0.0,0.0
1630623484.79969001,62828192,0.08,0.08,0.08,0.08,352.8,352.81,0.0,0.0
1630623484.90048313,62928985,0.08,0.07,0.08,0.07,352.8,352.81,0.0,0.0
1630623485.00044298,63028945,0.08,0.07,0.08,0.07,352.8,352.81,0.0,0.0
1630623485.10040307,63128905,0.07,0.07,0.11,0.08,352.8,352.81,0.0,0.0
1630623485.20036292,63228865,0.06,0.07,0.12,0.1,352.8,352.81,0.0,0.0
1630623485.30032301,63328825,0.03,0.04,0.16,0.14,352.8,352.81,0.0,0.0
1630623485.40028310,63428785,0.04,0.03,0.21,0.19,352.8,352.81,0.0,0.0
1630623485.50024295,63528745,0.06,0.04,0.21,0.22,352.8,352.81,0.0,0.0
1630623485.60020304,63628705,0.07,0.04,0.19,0.22,352.8,352.81,0.0,0.0
1630623485.70016313,63728665,0.09,0.07,0.18,0.2,352.8,352.81,0.0,0.0
1630623485.80012298,63828625,0.11,0.09,0.17,0.18,352.8,352.81,0.0,0.0
1630623485.90008307,63928585,0.11,0.11,0.14,0.15,352.8,352.81,0.0,0.0
1630623486.00004292,64028545,0.1,0.1,0.13,0.13,352.8,352.81,0.0,0.0
1630623486.10000300,64128505,0.1,0.09,0.15,0.12,352.8,352.8,0.0,0.0
1630623486.19996309,64228465,0.09,0.08,0.14,0.13,352.8,352.8,0.0,0.0
1630623486.29992294,64328425,0.08,0.08,0.11,0.1,352.8,352.8,0.0,0.0
1630623486.39988303,64428385,0.09,0.08,0.09,0.08,352.8,352.8,0.0,0.0
1630623486.49984312,64528345,0.09,0.08,0.09,0.07,352.8,352.8,0.0,0.0
1630623486.59980297,64628305,0.11,0.09,0.08,0.07,352.8,352.81,0.0,0.0
1630623486.69976306,64728265,0.14,0.12,0.09,0.07,352.8,352.81,0.0,0.0
1630623486.79972291,64828225,0.13,0.13,0.08,0.07,352.8,352.81,0.0,0.0
1630623486.89968300,64928185,0.15,0.13,0.07,0.06,352.8,352.81,0.0,0.0
1630623487.00047612,65028978,0.15,0.13,0.08,0.06,352.8,352.81,0.0,0.0
1630623487.10043597,65128938,0.15,0.13,0.08,0.08,352.8,352.81,0.0,0.0
1630623487.20039606,65228898,0.18,0.15,0.08,0.08,352.8,352.81,0.0,0.0
1630623487.30035591,65328858,0.16,0.16,0.09,0.09,352.8,352.8,0.0,0.0
1630623487.40031600,65428818,0.1,0.12,0.12,0.11,352.8,352.8,0.0,0.0
1630623487.50027609,65528778,0.07,0.08,0.14,0.13,352.8,352.8,0.0,0.0
1630623487.60023594,65628738,0.05,0.05,0.14,0.14,352.8,352.8,0.0,0.0
1630623487.70019603,65728698,0.07,0.05,0.1,0.12,352.8,352.8,0.0,0.0
1630623487.80015612,65828658,0.06,0.05,0.09,0.09,352.8,352.8,0.0,0.0
1630623487.90011597,65928618,0.06,0.05,0.07,0.08,352.8,352.8,0.0,0.0
1630623488.00007606,66028578,0.07,0.05,0.05,0.05,352.8,352.8,0.0,0.0
1630623488.10003591,66128538,0.06,0.05,0.02,0.02,352.8,352.8,0.0,0.0
1630623488.19999599,66228498,0.05,0.04,0.02,0.01,352.8,352.8,0.0,0.0
1630623488.29995608,66328458,0.04,0.02,0.05,0.01,352.8,352.8,0.0,0.0
1630623488.39991593,66428418,0.06,0.02,0.07,0.04,352.8,352.8,0.0,0.0
1630623488.49987602,66528378,0.06,0.04,0.1,0.06,352.8,352.8,0.0,0.0
1630623488.59983611,66628338,0.07,0.05,0.11,0.09,352.8,352.8,0.0,0.0
1630623488.69979596,66728298,0.07,0.06,0.1,0.11,352.8,352.8,0.0,0.0
1630623488.79975605,66828258,0.07,0.06,0.1,0.11,352.8,352.8,0.0,0.0
1630623488.89971590,66928218,0.08,0.06,0.07,0.09,352.8,352.8,0.0,0.0
1630623488.99967599,67028178,0.07,0.07,0.04,0.06,352.8,352.8,0.0,0.0
1630623489.10046911,67128971,0.07,0.07,0.03,0.03,352.8,352.8,0.0,0.0
1630623489.20042896,67228931,0.08,0.07,0.07,0.03,352.8,352.81,0.0,0.0
1630623489.30038905,67328891,0.14,0.11,0.11,0.07,352.8,352.81,0.0,0.0
1630623489.40034890,67428851,0.19,0.17,0.13,0.11,352.8,352.81,0.0,0.0
1630623489.50030899,67528811,0.22,0.22,0.12,0.13,352.8,352.81,0.0,0.0
1630623489.60026908,67628771,0.2,0.23,0.12,0.13,352.8,352.81,0.0,0.0
1630623489.70022893,67728731,0.19,0.21,0.12,0.13,352.8,352.81,0.0,0.0
1630623489.80018902,67828691,0.18,0.19,0.11,0.11,352.8,352.81,0.0,0.0
1630623489.90014911,67928651,0.16,0.17,0.08,0.09,352.8,352.81,0.0,0.0
1630623490.00010896,68028611,0.13,0.14,0.11,0.08,352.8,352.81,0.0,0.0
1630623490.10006905,68128571,0.09,0.11,0.12,0.09,352.8,352.81,0.0,0.0
1630623490.20002890,68228531,0.09,0.08,0.13,0.11,352.8,352.81,0.0,0.0
1630623490.29998899,68328491,0.13,0.08,0.15,0.14,352.8,352.81,0.0,0.0
1630623490.39994907,68428451,0.17,0.12,0.15,0.15,352.8,352.81,0.0,0.0
1630623490.49990892,68528411,0.2,0.16,0.15,0.16,352.8,352.81,0.0,0.0
1630623490.59986901,68628371,0.2,0.18,0.13,0.15,352.8,352.81,0.0,0.0
1630623490.69982910,68728331,0.18,0.18,0.1,0.12,352.8,352.81,0.0,0.0
1630623490.79978895,68828291,0.14,0.16,0.06,0.07,352.8,352.81,0.0,0.0
1630623490.89974904,68928251,0.13,0.14,0.06,0.05,352.8,352.81,0.0,0.0
1630623490.99970913,69028211,0.13,0.13,0.09,0.06,352.8,352.81,0.0,0.0
1630623491.09966898,69128171,0.13,0.13,0.11,0.09,352.8,352.81,0.0,0.0
1630623491.20046210,69228964,0.14,0.13,0.12,0.11,352.8,352.81,0.0,0.0
1630623491.30042195,69328924,0.13,0.14,0.15,0.13,352.8,352.81,0.0,0.0
1630623491.40038204,69428884,0.09,0.11,0.16,0.16,352.8,352.81,0.0,0.0
1630623491.50034213,69528844,0.07,0.08,0.14,0.17,352.8,352.8,0.0,0.0
1630623491.60030198,69628804,0.09,0.07,0.13,0.16,352.8,352.81,0.0,0.0
1630623491.70026207,69728764,0.12,0.08,0.1,0.13,352.8,352.8,0.0,0.0
1630623491.80022192,69828724,0.13,0.1,0.09,0.1,352.8,352.8,0.0,0.0
1630623491.90018201,69928684,0.12,0.11,0.11,0.1,352.8,352.8,0.0,0.0
1630623492.00014210,70028644,0.09,0.09,0.12,0.11,352.8,352.8,0.0,0.0
1630623492.10010195,70128604,0.09,0.08,0.09,0.09,352.8,352.8,0.0,0.0
1630623492.20006204,70228564,0.11,0.09,0.07,0.06,352.8,352.8,0.0,0.0
1630623492.30002213,70328524,0.16,0.13,0.06,0.05,352.8,352.8,0.0,0.0
1630623492.39998198,70428484,0.17,0.17,0.06,0.03,352.8,352.8,0.0,0.0
1630623492.49994206,70528444,0.16,0.17,0.07,0.04,352.8,352.81,0.0,0.0
1630623492.59990191,70628404,0.14,0.16,0.09,0.05,352.8,352.81,0.0,0.0
1630623492.69986200,70728364,0.11,0.14,0.07,0.07,352.8,352.81,0.0,0.0
1630623492.79982209,70828324,0.09,0.1,0.05,0.05,352.8,352.81,0.0,0.0
1630623492.89978194,70928284,0.08,0.08,0.06,0.05,352.8,352.81,0.0,0.0
1630623492.99974203,71028244,0.07,0.06,0.08,0.06,352.8,352.81,0.0,0.0
1630623493.09970212,71128204,0.05,0.05,0.1,0.09,352.8,352.81,0.0,0.0
1630623493.19966197,71228164,0.02,0.03,0.1,0.1,352.8,352.8,0.0,0.0
1630623493.30045509,71328957,0.02,0.02,0.09,0.1,352.8,352.8,0.0,0.0
1630623493.40041494,71428917,0.04,0.02,0.08,0.07,352.8,352.8,0.0,0.0
1630623493.50037503,71528877,0.08,0.04,0.07,0.06,352.8,352.8,0.0,0.0
1630623493.60033512,71628837,0.09,0.07,0.09,0.05,352.8,352.8,0.0,0.0
1630623493.70029497,71728797,0.12,0.1,0.11,0.08,352.8,352.8,0.0,0.0
1630623493.80025506,71828757,0.14,0.13,0.14,0.11,352.8,352.8,0.0,0.0
1630623493.90021491,71928717,0.12,0.15,0.15,0.15,352.8,352.8,0.0,0.0
1630623494.00017500,72028677,0.08,0.11,0.1,0.13,352.8,352.8,0.0,0.0
1630623494.10013509,72128637,0.05,0.07,0.07,0.09,352.8,352.8,0.0,0.0
1630623494.20009494,72228597,0.04,0.04,0.07,0.06,352.8,352.8,0.0,0.0
1630623494.30005503,72328557,0.05,0.03,0.07,0.06,352.8,352.8,0.0,0.0
1630623494.40001512,72428517,0.07,0.04,0.07,0.06,352.8,352.8,0.0,0.0
1630623494.49997497,72528477,0.09,0.07,0.08,0.07,352.8,352.8,0.0,0.0
1630623494.59993505,72628437,0.08,0.09,0.07,0.08,352.8,352.8,0.0,0.0
1630623494.69989491,72728397,0.03,0.07,0.1,0.09,352.8,352.8,0.0,0.0
1630623494.79985499,72828357,-0.01,0.0,0.13,0.11,352.8,352.8,0.0,0.0
1630623494.89981508,72928317,-0.03,-0.04,0.1,0.12,352.8,352.8,0.0,0.0
1630623494.99977493,73028277,0.01,-0.04,0.08,0.09,352.8,352.81,0.0,0.0
1630623495.09973502,73128237,0.06,0.0,0.08,0.08,352.8,352.81,0.0,0.0
1630623495.19969511,73228197,0.09,0.04,0.06,0.06,352.8,352.81,0.0,0.0
1630623495.29965496,73328157,0.1,0.08,0.05,0.04,352.8,352.81,0.0,0.0
1630623495.40044808,73428950,0.13,0.11,0.08,0.04,352.8,352.81,0.0,0.0
1630623495.50040793,73528910,0.14,0.14,0.11,0.07,352.8,352.81,0.0,0.0
1630623495.60036802,73628870,0.14,0.14,0.11,0.1,352.8,352.81,0.0,0.0
1630623495.70032811,73728830,0.17,0.16,0.09,0.1,352.8,352.81,0.0,0.0
1630623495.80028796,73828790,0.19,0.19,0.06,0.08,352.8,352.81,0.0,0.0
1630623495.90024805,73928750,0.18,0.2,0.06,0.06,352.8,352.8,0.0,0.0
1630623496.00020790,74028710,0.15,0.17,0.06,0.06,352.8,352.8,0.0,0.0
1630623496.10016799,74128670,0.15,0.15,0.09,0.06,352.8,352.8,0.0,0.0
1630623496.20012808,74228630,0.17,0.15,0.13,0.09,352.8,352.8,0.0,0.0
1630623496.30008793,74328590,0.18,0.17,0.13,0.12,352.8,352.79,0.0,0.0
1630623496.40004802,74428550,0.18,0.18,0.12,0.12,352.8,352.79,0.0,0.0
1630623496.50000811,74528510,0.19,0.19,0.09,0.12,352.8,352.8,0.0,0.0
1630623496.59996796,74628470,0.19,0.19,0.04,0.07,352.8,352.8,0.0,0.0
1630623496.69992805,74728430,0.2,0.2,0.02,0.03,352.8,352.8,0.0,0.0
1630623496.79988790,74828390,0.2,0.2,0.0,0.01,352.8,352.8,0.0,0.0
1630623496.89984798,74928350,0.16,0.18,0.0,0.0,352.8,352.8,0.0,0.0
1630623496.99980807,75028310,0.12,0.13,0.03,0.0,352.8,352.8,0.0,0.0
1630623497.09976792,75128270,0.12,0.11,0.04,0.02,352.8,352.8,0.0,0.0
1630623497.19972801,75228230,0.15,0.12,0.04,0.03,352.8,352.8,0.0,0.0
1630623497.29968810,75328190,0.17,0.14,0.06,0.04,352.8,352.8,0.0,0.0
1630623497.40048099,75428983,0.2,0.17,0.07,0.06,352.8,352.8,0.0,0.0
1630623497.50044107,75528943,0.23,0.21,0.08,0.08,352.8,352.8,0.0,0.0
1630623497.60040092,75628903,0.23,0.23,0.04,0.06,352.8,352.8,0.0,0.0
1630623497.70036101,75728863,0.18,0.2,0.04,0.04,352.8,352.79,0.0,0.0
1630623497.80032110,75828823,0.15,0.17,0.06,0.03,352.8,352.79,0.0,0.0
1630623497.90028095,75928783,0.15,0.15,0.07,0.04,352.8,352.79,0.0,0.0
1630623498.00024104,76028743,0.17,0.15,0.08,0.05,352.8,352.79,0.0,0.0
1630623498.10020113,76128703,0.15,0.16,0.1,0.08,352.8,352.79,0.0,0.0
1630623498.20016098,76228663,0.14,0.14,0.12,0.11,352.8,352.79,0.0,0.0
1630623498.30012107,76328623,0.15,0.14,0.1,0.1,352.8,352.79,0.0,0.0
1630623498.40008092,76428583,0.18,0.15,0.09,0.08,352.8,352.8,0.0,0.0
1630623498.50004101,76528543,0.19,0.17,0.12,0.09,352.8,352.8,0.0,0.0
1630623498.60000110,76628503,0.19,0.19,0.13,0.11,352.8,352.8,0.0,0.0
1630623498.69996095,76728463,0.17,0.17,0.12,0.12,352.8,352.81,0.0,0.0
1630623498.79992104,76828423,0.14,0.16,0.12,0.12,352.8,352.81,0.0,0.0
1630623498.89988112,76928383,0.11,0.13,0.14,0.14,352.8,352.81,0.0,0.0
1630623498.99984097,77028343,0.09,0.09,0.12,0.13,352.8,352.81,0.0,0.0
1630623499.09980106,77128303,0.11,0.08,0.1,0.11,352.8,352.81,0.0,0.0
1630623499.19976091,77228263,0.16,0.11,0.12,0.11,352.8,352.8,0.0,0.0
1630623499.29972100,77328223,0.2,0.17,0.12,0.12,352.8,352.8,0.0,0.0
1630623499.39968109,77428183,0.19,0.2,0.1,0.1,352.8,352.8,0.0,0.0
1630623499.50047398,77528976,0.16,0.19,0.11,0.09,352.8,352.8,0.0,0.0
1630623499.60043406,77628936,0.12,0.14,0.1,0.09,352.8,352.8,0.0,0.0
1630623499.70039392,77728896,0.11,0.11,0.08,0.07,352.8,352.8,0.0,0.0
1630623499.80035400,77828856,0.13,0.11,0.08,0.06,352.8,352.8,0.0,0.0
1630623499.90031409,77928816,0.14,0.12,0.12,0.09,352.8,352.8,0.0,0.0
1630623500.00027394,78028776,0.16,0.14,0.14,0.12,352.8,352.8,0.0,0.0
1630623500.10023403,78128736,0.17,0.15,0.1,0.12,352.8,352.8,0.0,0.0
1630623500.20019412,78228696,0.15,0.15,0.03,0.08,352.8,352.81,0.0,0.0
1630623500.30015397,78328656,0.13,0.15,-0.01,0.02,352.8,352.81,0.0,0.0
1630623500.40011406,78428616,0.12,0.13,0.0,0.0,352.8,352.81,0.0,0.0
1630623500.50007391,78528576,0.12,0.12,0.06,0.02,352.8,352.81,0.0,0.0
1630623500.60003400,78628536,0.12,0.1,0.12,0.08,352.8,352.81,0.0,0.0
1630623500.69999409,78728496,0.11,0.1,0.15,0.13,352.8,352.81,0.0,0.0
1630623500.79995394,78828456,0.09,0.08,0.15,0.16,352.8,352.8,0.0,0.0
1630623500.89991403,78928416,0.1,0.08,0.14,0.15,352.8,352.8,0.0,0.0
1630623500.99987411,79028376,0.09,0.08,0.12,0.13,352.8,352.8,0.0,0.0
1630623501.09983397,79128336,0.11,0.09,0.11,0.11,352.8,352.8,0.0,0.0
1630623501.19979405,79228296,0.13,0.11,0.09,0.09,352.8,352.8,0.0,0.0
1630623501.29975390,79328256,0.1,0.11,0.09,0.07,352.8,352.8,0.0,0.0
1630623501.39971399,79428216,0.08,0.08,0.13,0.09,352.8,352.8,0.0,0.0
1630623501.49967408,79528176,0.07,0.06,0.16,0.13,352.8,352.8,0.0,0.0
1630623501.60046697,79628969,0.09,0.07,0.18,0.16,352.8,352.8,0.0,0.0
1630623501.70042706,79728929,0.12,0.1,0.17,0.18,352.8,352.8,0.0,0.0
1630623501.80038691,79828889,0.12,0.13,0.16,0.18,352.8,352.8,0.0,0.0
1630623501.90034699,79928849,0.08,0.12,0.13,0.17,352.8,352.8,0.0,0.0
1630623502.00030708,80028809,0.04,0.07,0.09,0.12,352.8,352.8,0.0,0.0
1630623502.10026693,80128769,0.02,0.03,0.08,0.08,352.8,352.8,0.0,0.0
1630623502.20022702,80228729,0.05,0.01,0.09,0.06,352.8,352.8,0.0,0.0
1630623502.30018711,80328689,0.08,0.03,0.11,0.07,352.8,352.8,0.0,0.0
1630623502.40014696,80428649,0.11,0.06,0.13,0.1,352.8,352.8,0.0,0.0
1630623502.50010705,80528609,0.13,0.11,0.11,0.1,352.8,352.8,0.0,0.0
1630623502.60006690,80628569,0.15,0.13,0.11,0.1,352.8,352.8,0.0,0.0
1630623502.70002699,80728529,0.16,0.16,0.12,0.11,352.8,352.8,0.0,0.0
1630623502.79998708,80828489,0.15,0.16,0.13,0.11,352.8,352.8,0.0,0.0
1630623502.89994693,80928449,0.13,0.14,0.14,0.13,352.8,352.8,0.0,0.0
1630623502.99990702,81028409,0.13,0.13,0.14,0.14,352.8,352.8,0.0,0.0
1630623503.09986711,81128369,0.13,0.12,0.12,0.14,352.8,352.8,0.0,0.0
1630623503.19982696,81228329,0.12,0.12,0.1,0.12,352.8,352.8,0.0,0.0
1630623503.29978704,81328289,0.11,0.12,0.08,0.09,352.8,352.8,0.0,0.0
1630623503.39974689,81428249,0.11,0.12,0.07,0.08,352.8,352.81,0.0,0.0
1630623503.49970698,81528209,0.13,0.11,0.1,0.08,352.8,352.81,0.0,0.0
1630623503.59966707,81628169,0.14,0.12,0.11,0.09,352.8,352.81,0.0,0.0
1630623503.70045996,81728962,0.14,0.12,0.14,0.12,352.8,352.81,0.0,0.0
1630623503.80042005,81828922,0.15,0.13,0.18,0.16,352.8,352.81,0.0,0.0
1630623503.90037990,81928882,0.14,0.13,0.21,0.21,352.8,352.81,0.0,0.0
1630623504.00033998,82028842,0.15,0.13,0.21,0.23,352.8,352.8,0.0,0.0
1630623504.10030007,82128802,0.13,0.13,0.19,0.23,352.8,352.8,0.0,0.0
1630623504.20025992,82228762,0.08,0.09,0.13,0.18,352.8,352.8,0.0,0.0
1630623504.30022001,82328722,0.07,0.06,0.09,0.12,352.8,352.8,0.0,0.0
1630623504.40018010,82428682,0.07,0.04,0.1,0.08,352.8,352.8,0.0,0.0
1630623504.50013995,82528642,0.08,0.04,0.14,0.1,352.8,352.8,0.0,0.0
1630623504.60010004,82628602,0.11,0.06,0.16,0.12,352.8,352.8,0.0,0.0
1630623504.70006013,82728562,0.14,0.1,0.18,0.15,352.8,352.8,0.0,0.0
1630623504.80001998,82828522,0.15,0.14,0.17,0.17,352.8,352.8,0.0,0.0
1630623504.89998007,82928482,0.16,0.16,0.14,0.15,352.8,352.8,0.0,0.0
1630623504.99993992,83028442,0.15,0.17,0.13,0.14,352.8,352.8,0.0,0.0
1630623505.09990001,83128402,0.1,0.14,0.12,0.13,352.8,352.8,0.0,0.0
1630623505.19986010,83228362,0.06,0.09,0.12,0.12,352.8,352.8,0.0,0.0
1630623505.29981995,83328322,0.06,0.06,0.13,0.12,352.8,352.8,0.0,0.0
1630623505.39978004,83428282,0.06,0.05,0.14,0.12,352.8,352.8,0.0,0.0
1630623505.49974012,83528242,0.06,0.04,0.16,0.13,352.8,352.81,0.0,0.0
1630623505.59969997,83628202,0.07,0.05,0.18,0.15,352.8,352.81,0.0,0.0
1630623505.69966006,83728162,0.08,0.06,0.2,0.17,352.8,352.81,0.0,0.0
1630623505.80045295,83828955,0.11,0.08,0.2,0.19,352.8,352.8,0.0,0.0
1630623505.90041304,83928915,0.13,0.11,0.18,0.19,352.8,352.8,0.0,0.0
1630623506.00037313,84028875,0.15,0.13,0.16,0.18,352.8,352.8,0.0,0.0
1630623506.10033298,84128835,0.19,0.16,0.14,0.15,352.8,352.8,0.0,0.0
1630623506.20029306,84228795,0.19,0.2,0.1,0.11,352.8,352.8,0.0,0.0
1630623506.30025291,84328755,0.17,0.2,0.09,0.09,352.8,352.8,0.0,0.0
1630623506.40021300,84428715,0.16,0.18,0.11,0.08,352.8,352.8,0.0,0.0
1630623506.50017309,84528675,0.14,0.15,0.1,0.09,352.8,352.8,0.0,0.0
1630623506.60013294,84628635,0.14,0.14,0.07,0.07,352.8,352.8,0.0,0.0
1630623506.70009303,84728595,0.14,0.14,0.05,0.05,352.8,352.8,0.0,0.0
1630623506.80005312,84828555,0.16,0.14,0.05,0.03,352.8,352.8,0.0,0.0
1630623506.90001297,84928515,0.17,0.16,0.07,0.04,352.8,352.8,0.0,0.0
1630623506.99997306,85028475,0.15,0.15,0.09,0.06,352.8,352.8,0.0,0.0
1630623507.09993291,85128435,0.13,0.13,0.12,0.09,352.8,352.8,0.0,0.0
1630623507.19989300,85228395,0.12,0.11,0.16,0.14,352.8,352.8,0.0,0.0
1630623507.29985309,85328355,0.12,0.1,0.19,0.18,352.8,352.8,0.0,0.0
1630623507.39981294,85428315,0.15,0.11,0.2,0.21,352.8,352.8,0.0,0.0
1630623507.49977303,85528275,0.18,0.15,0.15,0.19,352.8,352.8,0.0,0.0
1630623507.59973311,85628235,0.17,0.16,0.09,0.13,352.8,352.8,0.0,0.0
1630623507.69969296,85728195,0.15,0.15,0.06,0.07,352.8,352.8,0.0,0.0
1630623507.79965305,85828155,0.15,0.14,0.05,0.04,352.8,352.8,0.0,0.0
1630623507.90044594,85928948,0.15,0.14,0.04,0.02,352.8,352.8,0.0,0.0
1630623508.00040603,86028908,0.16,0.15,0.02,0.0,352.8,352.8,0.0,0.0
1630623508.10036612,86128868,0.16,0.15,0.03,0.0,352.8,352.8,0.0,0.0
1630623508.20032597,86228828,0.17,0.16,0.05,0.02,352.8,352.8,0.0,0.0
1630623508.30028605,86328788,0.18,0.17,0.05,0.04,352.8,352.8,0.0,0.0
1630623508.40024590,86428748,0.18,0.17,0.07,0.05,352.8,352.8,0.0,0.0
1630623508.50020599,86528708,0.18,0.18,0.05,0.06,352.8,352.8,0.0,0.0
1630623508.60016608,86628668,0.16,0.16,0.05,0.05,352.8,352.8,0.0,0.0
1630623508.70012593,86728628,0.12,0.13,0.1,0.07,352.8,352.8,0.0,0.0
1630623508.80008602,86828588,0.09,0.1,0.13,0.11,352.8,352.8,0.0,0.0
1630623508.90004611,86928548,0.07,0.06,0.13,0.13,352.8,352.8,0.0,0.0
1630623509.00000596,87028508,0.09,0.05,0.13,0.13,352.8,352.8,0.0,0.0
1630623509.09996605,87128468,0.13,0.08,0.14,0.13,352.8,352.8,0.0,0.0
1630623509.19992590,87228428,0.16,0.13,0.16,0.14,352.8,352.8,0.0,0.0
1630623509.29988599,87328388,0.14,0.14,0.15,0.15,352.8,352.8,0.0,0.0
1630623509.39984608,87428348,0.14,0.14,0.12,0.13,352.8,352.8,0.0,0.0
1630623509.49980593,87528308,0.13,0.14,0.1,0.11,352.8,352.8,0.0,0.0
1630623509.59976602,87628268,0.13,0.13,0.09,0.09,352.8,352.8,0.0,0.0
1630623509.69972610,87728228,0.14,0.13,0.1,0.08,352.8,352.8,0.0,0.0
1630623509.79968596,87828188,0.14,0.14,0.12,0.1,352.8,352.8,0.0,0.0
1630623509.90047908,87928981,0.11,0.13,0.13,0.13,352.8,352.8,0.0,0.0
1630623510.00043893,88028941,0.07,0.08,0.13,0.14,352.8,352.81,0.0,0.0
1630623510.10039902,88128901,0.07,0.05,0.13,0.14,352.8,352.81,0.0,0.0
1630623510.20035911,88228861,0.09,0.06,0.14,0.14,352.8,352.81,0.0,0.0
1630623510.30031896,88328821,0.1,0.08,0.14,0.14,352.8,352.81,0.0,0.0
1630623510.40027905,88428781,0.1,0.09,0.12,0.13,352.8,352.81,0.0,0.0
1630623510.50023890,88528741,0.09,0.09,0.11,0.11,352.8,352.8,0.0,0.0
1630623510.60019898,88628701,0.07,0.07,0.11,0.1,352.8,352.8,0.0,0.0
1630623510.70015907,88728661,0.08,0.07,0.1,0.08,352.8,352.8,0.0,0.0
1630623510.80011892,88828621,0.09,0.06,0.1,0.07,352.8,352.8,0.0,0.0
1630623510.90007901,88928581,0.11,0.07,0.13,0.09,352.8,352.8,0.0,0.0
1630623511.00003910,89028541,0.15,0.11,0.17,0.13,352.8,352.8,0.0,0.0
1630623511.09999895,89128501,0.18,0.16,0.18,0.16,352.8,352.8,0.0,0.0
1630623511.19995904,89228461,0.2,0.19,0.18,0.17,352.8,352.8,0.0,0.0
1630623511.29991913,89328421,0.19,0.19,0.17,0.18,352.8,352.8,0.0,0.0
1630623511.39987898,89428381,0.18,0.19,0.16,0.17,352.8,352.8,0.0,0.0
1630623511.49983907,89528341,0.18,0.18,0.16,0.16,352.8,352.8,0.0,0.0
1630623511.59979892,89628301,0.19,0.19,0.14,0.14,352.8,352.8,0.0,0.0
1630623511.69975901,89728261,0.18,0.19,0.15,0.14,352.8,352.81,0.0,0.0
1630623511.79971910,89828221,0.16,0.17,0.16,0.14,352.8,352.81,0.0,0.0
1630623511.89967895,89928181,0.16,0.15,0.17,0.15,352.8,352.81,0.0,0.0
1630623512.00047207,90028974,0.18,0.15,0.18,0.16,352.8,352.81,0.0,0.0
1630623512.10043192,90128934,0.19,0.16,0.18,0.17,352.8,352.81,0.0,0.0
1630623512.20039201,90228894,0.21,0.17,0.19,0.18,352.8,352.81,0.0,0.0
1630623512.30035210,90328854,0.23,0.2,0.2,0.2,352.8,352.81,0.0,0.0
1630623512.40031195,90428814,0.21,0.21,0.21,0.2,352.8,352.81,0.0,0.0
1630623512.50027204,90528774,0.2,0.2,0.22,0.21,352.8,352.81,0.0,0.0
1630623512.60023212,90628734,0.2,0.19,0.2,0.21,352.8,352.8,0.0,0.0
1630623512.70019197,90728694,0.18,0.18,0.18,0.19,352.8,352.8,0.0,0.0
1630623512.80015206,90828654,0.2,0.19,0.16,0.16,352.8,352.8,0.0,0.0
1630623512.90011191,90928614,0.22,0.21,0.16,0.14,352.8,352.8,0.0,0.0
1630623513.00007200,91028574,0.2,0.21,0.18,0.15,352.8,352.79,0.0,0.0
1630623513.10003209,91128534,0.15,0.17,0.19,0.17,352.8,352.79,0.0,0.0
1630623513.19999194,91228494,0.11,0.13,0.21,0.18,352.8,352.79,0.0,0.0
1630623513.29995203,91328454,0.12,0.1,0.21,0.2,352.8,352.79,0.0,0.0
1630623513.39991212,91428414,0.11,0.09,0.18,0.19,352.8,352.8,0.0,0.0
1630623513.49987197,91528374,0.11,0.09,0.15,0.17,352.8,352.8,0.0,0.0
1630623513.59983206,91628334,0.12,0.1,0.13,0.13,352.8,352.8,0.0,0.0
1630623513.69979191,91728294,0.11,0.1,0.15,0.13,352.8,352.8,0.0,0.0
1630623513.79975200,91828254,0.12,0.1,0.15,0.13,352.8,352.81,0.0,0.0
1630623513.89971209,91928214,0.17,0.13,0.13,0.13,352.8,352.81,0.0,0.0
1630623513.99967194,92028174,0.19,0.18,0.12,0.11,352.8,352.81,0.0,0.0
1630623514.10046506,92128967,0.18,0.19,0.13,0.11,352.8,352.81,0.0,0.0
1630623514.20042491,92228927,0.17,0.18,0.14,0.13,352.8,352.81,0.0,0.0
1630623514.30038500,92328887,0.17,0.17,0.17,0.16,352.8,352.8,0.0,0.0
1630623514.40034509,92428847,0.21,0.18,0.17,0.18,352.8,352.8,0.0,0.0
1630623514.50030494,92528807,0.41,0.28,0.16,0.18,352.8,352.8,0.0,0.0
1630623514.60026503,92628767,0.87,0.62,0.18,0.17,352.8,352.8,0.0,0.0
1630623514.70022511,92728727,1.57,1.25,0.19,0.19,352.8,352.8,0.0,0.0
1630623514.80018497,92828687,2.42,2.1,0.15,0.17,352.8,352.8,0.0,0.0
1630623514.90014505,92928647,3.37,3.12,0.14,0.14,352.8,352.8,0.0,0.0
1630623515.00010490,93028607,4.28,4.17,0.15,0.12,352.8,352.8,0.0,0.01
1630623515.10006499,93128567,5.01,5.1,0.15,0.12,352.8,352.81,0.0,0.01
1630623515.20002508,93228527,5.56,5.79,0.19,0.14,352.8,352.81,0.0,0.01
1630623515.29998493,93328487,6.02,6.29,0.21,0.18,352.8,352.82,0.0,0.01
1630623515.39994502,93428447,6.47,6.69,0.21,0.2,352.8,352.82,0.0,0.01
1630623515.49990511,93528407,6.93,7.06,0.21,0.21,352.8,352.82,0.0,0.01
1630623515.59986496,93628367,7.36,7.44,0.2,0.21,352.8,352.82,0.0,0.01
1630623515.69982505,93728327,7.72,7.79,0.2,0.2,352.8,352.82,0.0,0.01
1630623515.79978490,93828287,8.01,8.08,0.2,0.2,352.8,352.81,0.0,0.01
1630623515.89974499,93928247,8.24,8.32,0.21,0.2,352.8,352.81,0.0,0.0
1630623515.99970508,94028207,8.42,8.5,0.21,0.2,352.8,352.81,0.0,0.0
1630623516.09966493,94128167,8.58,8.63,0.23,0.21,352.8,352.8,0.0,0.0
1630623516.20045805,94228960,8.78,8.77,0.24,0.24,353.12,352.81,0.0,0.0
1630623516.30041790,94328920,9.1,9.01,0.24,0.45,355.82,352.97,0.0,0.0
1630623516.40037799,94428880,9.49,9.36,0.17,0.95,1.14,353.84,0.0,0.0
1630623516.50033808,94528840,9.91,9.83,-0.12,1.41,7.14,356.12,0.0,0.0
1630623516.60029793,94628800,10.31,10.37,-0.84,1.34,13.14,0.06,0.0,0.01
1630623516.70025802,94728760,10.6,10.87,-2.06,0.52,19.14,5.51,0.0,0.02
1630623516.80021811,94828720,10.65,11.14,-3.68,-1.05,25.14,12.18,0.0,0.02
1630623516.90017796,94928680,10.36,11.05,-5.53,-3.17,31.14,19.78,0.0,0.03
1630623517.00013804,95028640,9.7,10.48,-7.41,-5.59,37.14,28.07,0.0,0.04
1630623517.10009789,95128600,8.71,9.4,-9.18,-8.01,43.14,36.79,0.0,0.04
1630623517.20005798,95228560,7.43,7.84,-10.75,-10.22,49.14,45.69,0.0,0.05
1630623517.30001807,95328520,5.98,5.94,-12.02,-12.0,55.14,54.47,0.0,0.05
1630623517.39997792,95428480,4.42,3.9,-13.01,-13.29,61.14,62.86,0.0,0.05
1630623517.49993801,95528440,2.83,1.87,-13.7,-14.07,67.14,70.61,0.0,0.05
1630623517.59989810,95628400,1.28,0.03,-14.18,-14.45,73.13,77.61,0.0,0.05
1630623517.69985795,95728360,-0.14,-1.66,-14.49,-14.59,77.58,83.82,0.0,0.05
1630623517.79981804,95828320,-1.44,-3.45,-14.65,-14.56,79.91,88.99,0.0,0.04
1630623517.89977813,95928280,-2.44,-5.1,-14.74,-14.41,81.12,92.72,0.0,0.04
1630623517.99973798,96028240,-3.0,-6.23,-14.83,-14.25,81.78,94.83,0.0,0.03
1630623518.09969807,96128200,-3.06,-6.6,-14.97,-14.17,82.18,95.42,0.0,0.02
1630623518.19965792,96228160,-2.69,-6.18,-15.16,-14.24,82.47,94.73,0.0,0.02
1630623518.30045104,96328953,-1.97,-5.07,-15.41,-14.47,82.71,93.07,0.0,0.02
1630623518.40041113,96428913,-1.08,-3.48,-15.68,-14.84,82.95,90.74,0.0,0.02
1630623518.50037098,96528873,-0.19,-1.67,-15.91,-15.26,83.17,88.07,0.0,0.01
1630623518.60033107,96628833,0.59,0.09,-16.09,-15.64,83.4,85.38,0.0,0.01
1630623518.70029092,96728793,1.16,1.58,-16.2,-15.93,83.6,82.98,0.0,0.01
1630623518.80025101,96828753,1.51,2.64,-16.24,-16.09,83.78,81.12,0.0,0.01
1630623518.90021110,96928713,1.63,3.2,-16.23,-16.13,83.93,79.94,0.0,0.01
1630623519.00017095,97028673,1.53,3.28,-16.23,-16.11,84.05,79.46,0.0,0.01
1630623519.10013103,97128633,1.3,2.96,-16.25,-16.1,84.14,79.62,0.0,0.01
1630623519.20009112,97228593,1.0,2.37,-16.31,-16.13,84.2,80.3,0.0,0.01
1630623519.30005097,97328553,0.66,1.63,-16.37,-16.21,84.23,81.33,0.0,0.01
1630623519.40001106,97428513,0.31,0.84,-16.44,-16.31,84.25,82.53,0.0,0.01
1630623519.49997091,97528473,0.0,0.09,-16.53,-16.43,84.25,83.73,0.0,0.01
1630623519.59993100,97628433,-0.22,-0.51,-16.6,-16.53,84.25,84.8,0.0,0.0
1630623519.69989109,97728393,-0.36,-0.95,-16.64,-16.61,84.25,85.64,0.0,0.0
1630623519.79985094,97828353,-0.44,-1.19,-16.68,-16.66,84.25,86.18,0.0,0.0
1630623519.89981103,97928313,-0.42,-1.24,-16.72,-16.69,84.25,86.43,0.0,0.0
1630623519.99977112,98028273,-0.33,-1.12,-16.78,-16.74,84.26,86.4,0.0,0.0
1630623520.09973097,98128233,-0.2,-0.88,-16.81,-16.79,84.27,86.14,0.0,0.0
1630623520.19969106,98228193,-0.07,-0.57,-16.82,-16.82,84.29,85.73,0.0,0.0
1630623520.30048394,98328986,0.06,-0.25,-16.85,-16.84,84.3,85.25,0.0,0.0
1630623520.40044403,98428946,0.18,0.05,-16.86,-16.86,84.32,84.76,0.0,0.0
1630623520.50040412,98528906,0.27,0.31,-16.87,-16.86,84.33,84.32,0.0,0.01
1630623520.60036397,98628866,0.34,0.49,-16.92,-16.89,84.35,83.97,0.0,0.01
1630623520.70032406,98728826,0.37,0.61,-16.96,-16.94,84.35,83.74,0.0,0.01
1630623520.80028391,98828786,0.35,0.63,-17.01,-16.99,84.35,83.64,0.0,0.01
1630623520.90024400,98928746,0.32,0.58,-17.04,-17.04,84.35,83.65,0.0,0.01
1630623521.00020409,99028706,0.28,0.49,-17.08,-17.08,84.35,83.75,0.0,0.01
1630623521.10016394,99128666,0.2,0.36,-17.11,-17.12,84.34,83.91,0.0,0.01
1630623521.20012403,99228626,0.15,0.22,-17.14,-17.16,84.32,84.1,0.0,0.01
1630623521.30008411,99328586,0.1,0.09,-17.15,-17.17,84.31,84.29,0.0,0.0
1630623521.40004396,99428546,0.06,-0.01,-17.17,-17.18,84.3,84.46,0.0,0.0
1630623521.50000405,99528506,0.05,-0.08,-17.22,-17.2,84.28,84.59,0.0,0.0
1630623521.59996390,99628466,0.05,-0.1,-17.26,-17.25,84.27,84.67,0.0,0.0
1630623521.69992399,99728426,0.06,-0.11,-17.28,-17.28,84.26,84.7,0.0,0.0
1630623521.79988408,99828386,0.09,-0.07,-17.29,-17.31,84.25,84.68,0.0,0.0
1630623521.89984393,99928346,0.1,-0.02,-17.31,-17.32,84.24,84.63,0.0,0.0
1630623521.99980402,100028306,0.09,0.0,-17.35,-17.35,84.23,84.55,0.0,0.0
1630623522.09976411,100128266,0.1,0.03,-17.37,-17.37,84.21,84.45,0.0,0.0
1630623522.19972396,100228226,0.11,0.05,-17.4,-17.4,84.2,84.36,0.0,0.0
1630623522.29968405,100328186,0.14,0.09,-17.42,-17.42,84.19,84.27,0.0,0.01
1630623522.40047693,100428979,0.16,0.14,-17.43,-17.44,84.18,84.21,0.0,0.01
1630623522.50043702,100528939,0.17,0.17,-17.42,-17.43,84.17,84.15,0.0,0.01
1630623522.60039711,100628899,0.15,0.18,-17.41,-17.42,84.16,84.12,0.0,0.01
1630623522.70035696,100728859,0.14,0.16,-17.45,-17.44,84.15,84.1,0.0,0.01
1630623522.80031705,100828819,0.14,0.14,-17.5,-17.49,84.14,84.1,0.0,0.01
1630623522.90027690,100928779,0.16,0.14,-17.53,-17.54,84.12,84.11,0.0,0.0
1630623523.00023699,101028739,0.15,0.13,-17.54,-17.56,84.11,84.12,0.0,0.0
1630623523.10019708,101128699,0.12,0.11,-17.55,-17.57,84.1,84.14,0.0,0.0
1630623523.20015693,101228659,0.13,0.09,-17.55,-17.57,84.09,84.16,0.0,0.0
1630623523.30011702,101328619,0.14,0.1,-17.59,-17.58,84.08,84.18,0.0,0.0
1630623523.40007710,101428579,0.14,0.1,-17.62,-17.61,84.07,84.19,0.0,0.0
1630623523.50003695,101528539,0.12,0.09,-17.64,-17.63,84.06,84.19,0.0,0.0
1630623523.59999704,101628499,0.08,0.06,-17.68,-17.67,84.05,84.19,0.0,0.0
1630623523.69995689,101728459,0.09,0.03,-17.69,-17.7,84.04,84.18,0.0,0.0
1630623523.79991698,101828419,0.1,0.04,-17.67,-17.7,84.03,84.16,0.0,0.0
1630623523.89987707,101928379,0.14,0.07,-17.64,-17.68,84.02,84.14,0.0,0.0
1630623523.99983692,102028339,0.17,0.11,-17.64,-17.65,84.01,84.12,0.0,0.0
1630623524.09979701,102128299,0.19,0.15,-17.68,-17.67,84.0,84.09,0.0,0.0
1630623524.19975710,102228259,0.19,0.16,-17.73,-17.71,84.0,84.07,0.0,0.0
1630623524.29971695,102328219,0.19,0.17,-17.77,-17.76,83.99,84.05,0.0,0.0
1630623524.39967704,102428179,0.16,0.16,-17.81,-17.8,83.98,84.03,0.0,0.0
1630623524.50046992,102528972,0.14,0.14,-17.81,-17.83,83.98,84.02,0.0,0.0
1630623524.60043001,102628932,0.13,0.11,-17.79,-17.82,83.97,84.02,0.0,0.0
1630623524.70039010,102728892,0.13,0.09,-17.79,-17.8,83.96,84.01,0.0,0.0
1630623524.80034995,102828852,0.14,0.1,-17.8,-17.79,83.96,84.01,0.0,0.0
1630623524.90031004,102928812,0.18,0.12,-17.81,-17.8,83.95,84.01,0.0,0.0
1630623525.00027013,103028772,0.2,0.15,-17.85,-17.83,83.95,84.01,0.0,0.0
1630623525.10022998,103128732,0.22,0.18,-17.88,-17.87,83.94,84.01,0.0,0.0
1630623525.20019007,103228692,0.23,0.2,-17.9,-17.9,83.94,84.01,0.0,0.0
1630623525.30014992,103328652,0.22,0.22,-17.89,-17.92,83.94,84.01,0.0,0.0
1630623525.40011001,103428612,0.23,0.22,-17.88,-17.91,83.93,84.0,0.0,0.0
1630623525.50007010,103528572,0.24,0.22,-17.87,-17.89,83.93,84.0,0.0,0.0
1630623525.60002995,103628532,0.24,0.23,-17.88,-17.89,83.93,84.0,0.0,0.0
1630623525.69999003,103728492,0.21,0.21,-17.88,-17.89,83.93,83.99,0.0,0.0
1630623525.79995012,103828452,0.21,0.19,-17.88,-17.89,83.92,83.99,0.0,0.0
1630623525.89990997,103928412,0.22,0.19,-17.88,-17.89,83.92,83.98,0.0,0.0
1630623525.99987006,104028372,0.23,0.19,-17.89,-17.9,83.92,83.98,0.0,0.0
1630623526.09982991,104128332,0.24,0.2,-17.91,-17.92,83.92,83.98,0.0,0.0
1630623526.19979000,104228292,0.25,0.22,-17.92,-17.93,83.91,83.98,0.0,0.0
1630623526.29975009,104328252,0.25,0.24,-17.94,-17.94,83.91,83.97,0.0,0.0
1630623526.39970994,104428212,0.26,0.25,-17.95,-17.95,83.91,83.97,0.0,0.0
1630623526.49967003,104528172,0.26,0.25,-17.95,-17.96,83.91,83.97,0.0,0.0
1630623526.60046291,104628965,0.24,0.24,-17.93,-17.95,83.91,83.97,0.0,0.0
1630623526.70042300,104728925,0.23,0.22,-17.92,-17.93,83.91,83.97,0.0,0.0
1630623526.80038309,104828885,0.21,0.2,-17.94,-17.93,83.91,83.96,0.0,0.0
1630623526.90034294,104928845,0.22,0.19,-17.96,-17.95,83.9,83.96,0.0,0.0
1630623527.00030303,105028805,0.26,0.21,-17.98,-17.98,83.9,83.96,0.0,0.0
1630623527.10026312,105128765,0.31,0.26,-17.99,-18.01,83.9,83.96,0.0,0.0
1630623527.20022297,105228725,0.34,0.3,-18.0,-18.03,83.9,83.96,0.0,0.0
1630623527.30018306,105328685,0.34,0.33,-18.01,-18.03,83.91,83.95,0.0,0.0
1630623527.40014291,105428645,0.31,0.32,-18.02,-18.04,83.91,83.95,0.0,0.0
1630623527.50010300,105528605,0.29,0.3,-18.04,-18.03,83.91,83.95,0.0,0.0
1630623527.60006309,105628565,0.29,0.28,-18.06,-18.05,83.91,83.95,0.0,0.0
1630623527.70002294,105728525,0.32,0.29,-18.04,-18.07,83.91,83.95,0.0,0.0
1630623527.79998302,105828485,0.34,0.31,-18.02,-18.05,83.91,83.96,0.0,0.0
1630623527.89994311,105928445,0.34,0.32,-18.01,-18.04,83.91,83.96,0.0,0.0
1630623527.99990296,106028405,0.32,0.31,-18.02,-18.03,83.91,83.96,0.0,0.0
1630623528.09986305,106128365,0.32,0.3,-18.05,-18.04,83.91,83.96,0.0,0.0
1630623528.19982290,106228325,0.32,0.3,-18.1,-18.08,83.91,83.96,0.0,0.0
1630623528.29978299,106328285,0.31,0.29,-18.11,-18.11,83.9,83.96,0.0,0.0
1630623528.39974308,106428245,0.32,0.3,-18.11,-18.13,83.9,83.96,0.0,0.0
1630623528.49970293,106528205,0.32,0.31,-18.1,-18.13,83.9,83.96,0.0,0.0
1630623528.59966302,106628165,0.32,0.31,-18.07,-18.11,83.9,83.96,0.0,0.0
1630623528.70045590,106728958,0.33,0.3,-18.03,-18.06,83.9,83.96,0.0,0.0
1630623528.80041599,106828918,0.34,0.31,-18.0,-18.02,83.9,83.95,0.0,0.0
1630623528.90037608,106928878,0.33,0.31,-18.02,-18.02,83.9,83.95,0.0,0.0
1630623529.00033593,107028838,0.32,0.31,-18.06,-18.05,83.9,83.95,0.0,0.0
1630623529.10029602,107128798,0.31,0.29,-18.09,-18.08,83.9,83.94,0.0,0.0
1630623529.20025611,107228758,0.3,0.29,-18.12,-18.11,83.9,83.94,0.0,0.0
1630623529.30021596,107328718,0.29,0.28,-18.12,-18.13,83.89,83.94,0.0,0.0
1630623529.40017605,107428678,0.27,0.26,-18.13,-18.15,83.89,83.94,0.0,0.0
1630623529.50013590,107528638,0.28,0.25,-18.12,-18.14,83.89,83.93,0.0,0.0
1630623529.60009599,107628598,0.29,0.26,-18.11,-18.13,83.89,83.93,0.0,0.0
1630623529.70005608,107728558,0.29,0.26,-18.1,-18.11,83.89,83.93,0.0,0.0
1630623529.80001593,107828518,0.28,0.26,-18.1,-18.11,83.88,83.93,0.0,0.0
1630623529.89997602,107928478,0.26,0.24,-18.09,-18.1,83.88,83.92,0.0,0.0
1630623529.99993610,108028438,0.25,0.22,-18.11,-18.1,83.88,83.92,0.0,0.0
1630623530.09989595,108128398,0.27,0.22,-18.13,-18.12,83.87,83.91,0.0,0.0
1630623530.19985604,108228358,0.27,0.24,-18.15,-18.15,83.87,83.91,0.0,0.0
1630623530.29981613,108328318,0.26,0.24,-18.15,-18.17,83.87,83.91,0.0,0.0
1630623530.39977598,108428278,0.3,0.26,-18.16,-18.18,83.87,83.91,0.0,0.0
1630623530.49973607,108528238,0.34,0.3,-18.16,-18.18,83.87,83.9,0.0,0.0
1630623530.59969592,108628198,0.34,0.33,-18.14,-18.17,83.87,83.9,0.0,0.0
1630623530.69965601,108728158,0.33,0.33,-18.13,-18.15,83.87,83.9,0.0,0.0
1630623530.80044889,108828951,0.32,0.31,-18.1,-18.12,83.87,83.9,0.0,0.0
1630623530.90040898,108928911,0.3,0.29,-18.08,-18.09,83.87,83.91,0.0,0.0
1630623531.00036907,109028871,0.29,0.27,-18.06,-18.06,83.87,83.91,0.0,0.0
1630623531.10032892,109128831,0.3,0.26,-18.07,-18.06,83.87,83.91,0.0,0.0
1630623531.20028901,109228791,0.33,0.29,-18.09,-18.08,83.87,83.91,0.0,0.0
1630623531.30024910,109328751,0.36,0.32,-18.12,-18.11,83.87,83.91,0.0,0.0
1630623531.40020895,109428711,0.39,0.36,-18.16,-18.16,83.88,83.91,0.0,0.0
1630623531.50016904,109528671,0.41,0.4,-18.17,-18.19,83.88,83.91,0.0,0.0
1630623531.60012913,109628631,0.42,0.42,-18.13,-18.18,83.89,83.91,0.0,0.0
1630623531.70008898,109728591,0.4,0.41,-18.1,-18.14,83.89,83.92,0.0,0.0
1630623531.80004907,109828551,0.39,0.39,-18.1,-18.11,83.9,83.93,0.0,0.0
1630623531.90000892,109928511,0.38,0.38,-18.13,-18.11,83.9,83.93,0.0,0.0
1630623531.99996901,110028471,0.38,0.36,-18.16,-18.15,83.9,83.94,0.0,0.0
1630623532.09992909,110128431,0.39,0.37,-18.2,-18.18,83.9,83.94,0.0,0.0
1630623532.19988894,110228391,0.4,0.39,-18.24,-18.23,83.91,83.94,0.0,0.0
1630623532.29984903,110328351,0.39,0.39,-18.26,-18.27,83.91,83.95,0.0,0.0
1630623532.39980912,110428311,0.38,0.38,-18.25,-18.28,83.91,83.95,0.0,0.0
1630623532.49976897,110528271,0.37,0.36,-18.22,-18.26,83.91,83.95,0.0,0.0
1630623532.59972906,110628231,0.36,0.35,-18.22,-18.23,83.91,83.95,0.0,0.0
1630623532.69968891,110728191,0.35,0.33,-18.22,-18.23,83.92,83.96,0.0,0.0
1630623532.80048203,110828984,0.34,0.31,-18.22,-18.23,83.92,83.96,0.0,0.0
1630623532.90044212,110928944,0.33,0.3,-18.21,-18.23,83.92,83.95,0.0,0.0
1630623533.00040197,111028904,0.33,0.29,-18.18,-18.22,83.92,83.95,0.0,0.0
1630623533.10036206,111128864,0.34,0.3,-18.19,-18.21,83.92,83.95,0.0,0.0
1630623533.20032191,111228824,0.36,0.32,-18.19,-18.21,83.92,83.95,0.0,0.0
1630623533.30028200,111328784,0.37,0.34,-18.2,-18.21,83.92,83.94,0.0,0.0
1630623533.40024209,111428744,0.38,0.35,-18.2,-18.21,83.92,83.94,0.0,0.0
1630623533.50020194,111528704,0.35,0.35,-18.2,-18.2,83.92,83.94,0.0,0.0
1630623533.60016203,111628664,0.33,0.32,-18.2,-18.2,83.92,83.94,0.0,0.0
1630623533.70012212,111728624,0.34,0.31,-18.2,-18.19,83.91,83.94,0.0,0.0
1630623533.80008197,111828584,0.36,0.32,-18.19,-18.19,83.91,83.94,0.0,0.0
1630623533.90004206,111928544,0.37,0.34,-18.2,-18.19,83.91,83.94,0.0,0.0
1630623534.00000191,112028504,0.36,0.35,-18.23,-18.21,83.91,83.94,0.0,0.0
1630623534.09996200,112128464,0.36,0.36,-18.25,-18.24,83.91,83.94,0.0,0.0
1630623534.19992208,112228424,0.38,0.37,-18.25,-18.26,83.91,83.94,0.0,0.0
1630623534.29988194,112328384,0.39,0.38,-18.21,-18.24,83.91,83.94,0.0,0.0
1630623534.39984202,112428344,0.4,0.39,-18.2,-18.22,83.91,83.94,0.0,0.0
1630623534.49980211,112528304,0.4,0.39,-18.22,-18.22,83.91,83.94,0.0,0.0
1630623534.59976196,112628264,0.39,0.38,-18.23,-18.24,83.91,83.95,0.0,0.0
1630623534.69972205,112728224,0.36,0.36,-18.22,-18.25,83.91,83.94,0.0,0.0
1630623534.79968190,112828184,0.35,0.33,-18.21,-18.24,83.91,83.94,0.0,0.0
1630623534.90047503,112928977,0.36,0.32,-18.2,-18.24,83.91,83.94,0.0,0.0
1630623535.00043511,113028937,0.37,0.33,-18.18,-18.22,83.91,83.94,0.0,0.0
1630623535.10039496,113128897,0.4,0.35,-18.19,-18.2,83.91,83.94,0.0,0.0
1630623535.20035505,113228857,0.42,0.39,-18.19,-18.19,83.92,83.93,0.0,0.0
1630623535.30031490,113328817,0.42,0.42,-18.18,-18.18,83.92,83.93,0.0,0.0
1630623535.40027499,113428777,0.4,0.41,-18.18,-18.18,83.92,83.93,0.0,0.0
1630623535.50023508,113528737,0.37,0.39,-18.18,-18.18,83.92,83.93,0.0,0.0
1630623535.60019493,113628697,0.34,0.35,-18.18,-18.19,83.92,83.93,0.0,0.0
1630623535.70015502,113728657,0.34,0.33,-18.17,-18.18,83.92,83.93,0.0,0.0
1630623535.80011511,113828617,0.36,0.34,-18.17,-18.18,83.92,83.94,0.0,0.0
1630623535.90007496,113928577,0.41,0.38,-18.16,-18.16,83.92,83.94,0.0,0.0
1630623536.00003505,114028537,0.43,0.42,-18.15,-18.15,83.92,83.94,0.0,0.0
1630623536.09999490,114128497,0.42,0.43,-18.16,-18.14,83.93,83.95,0.0,0.0
1630623536.19995499,114228457,0.44,0.43,-18.2,-18.18,83.93,83.95,0.0,0.0
1630623536.29991508,114328417,0.45,0.44,-18.23,-18.22,83.93,83.96,0.0,0.0
1630623536.39987493,114428377,0.46,0.45,-18.25,-18.25,83.94,83.96,0.0,0.0
1630623536.49983501,114528337,0.61,0.51,-18.22,-18.27,84.14,83.96,0.0,0.0
1630623536.59979510,114628297,1.52,1.15,-17.86,-18.07,84.82,84.02,0.0,0.0
1630623536.69975495,114728257,2.81,2.5,-17.37,-17.61,85.79,84.26,0.0,0.0
1630623536.79971504,114828217,3.92,4.07,-16.97,-17.08,86.95,84.78,0.0,0.0
1630623536.89967513,114928177,4.64,5.38,-16.73,-16.65,88.23,85.64,0.0,0.0
1630623537.00046802,115028970,4.97,6.15,-16.67,-16.43,89.6,86.82,0.0,0.0
1630623537.10042810,115128930,5.0,6.37,-16.77,-16.45,91.02,88.31,0.0,0.01
1630623537.20038795,115228890,4.85,6.13,-16.94,-16.65,92.46,90.05,0.0,0.01
1630623537.30034804,115328850,4.65,5.65,-17.1,-16.9,93.89,91.98,0.0,0.01
1630623537.40030789,115428810,4.43,5.06,-17.22,-17.14,95.29,94.01,0.0,0.01
1630623537.50026798,115528770,4.24,4.51,-17.31,-17.33,96.67,96.07,0.0,0.01
1630623537.60022807,115628730,4.06,4.04,-17.37,-17.45,98.01,98.06,0.0,0.02
1630623537.70018792,115728690,3.94,3.68,-17.4,-17.52,99.32,99.91,0.0,0.02
1630623537.80014801,115828650,3.88,3.46,-17.44,-17.55,100.59,101.58,0.0,0.02
1630623537.90010810,115928610,3.86,3.36,-17.49,-17.58,101.82,103.05,0.0,0.02
1630623538.00006795,116028570,3.82,3.35,-17.55,-17.61,103.02,104.32,0.0,0.02
1630623538.10002804,116128530,3.77,3.36,-17.62,-17.65,104.17,105.41,0.0,0.01
1630623538.19998813,116228490,3.74,3.39,-17.69,-17.71,105.28,106.36,0.0,0.01
1630623538.29994798,116328450,3.7,3.44,-17.72,-17.75,106.35,107.2,0.0,0.01
1630623538.39990807,116428410,3.65,3.48,-17.72,-17.76,107.38,107.97,0.0,0.01
1630623538.49986792,116528370,3.59,3.49,-17.74,-17.75,108.36,108.71,0.0,0.01
1630623538.59982800,116628330,3.55,3.5,-17.76,-17.76,109.3,109.43,0.0,0.01
1630623538.69978809,116728290,3.49,3.49,-17.76,-17.77,110.19,110.17,0.0,0.01
1630623538.79974794,116828250,3.38,3.43,-17.77,-17.78,111.04,110.92,0.0,0.01
1630623538.89970803,116928210,3.27,3.34,-17.79,-17.79,111.85,111.7,0.0,0.01
1630623538.99966812,117028170,3.14,3.2,-17.83,-17.82,112.62,112.48,0.0,0.01
1630623539.10046101,117128963,3.01,3.05,-17.84,-17.85,113.34,113.28,0.0,0.01
1630623539.20042109,117228923,2.86,2.86,-17.86,-17.87,114.03,114.06,0.0,0.01
1630623539.30038095,117328883,2.72,2.68,-17.9,-17.9,114.68,114.81,0.0,0.01
1630623539.40034103,117428843,2.59,2.5,-17.94,-17.95,115.3,115.52,0.0,0.01
1630623539.50030112,117528803,2.44,2.33,-17.93,-17.96,115.88,116.19,0.0,0.01
1630623539.60026097,117628763,2.32,2.16,-17.92,-17.96,116.42,116.8,0.0,0.01
1630623539.70022106,117728723,2.22,2.05,-17.93,-17.96,116.94,117.35,0.0,0.01
1630623539.80018091,117828683,2.11,1.95,-17.95,-17.97,117.43,117.84,0.0,0.01
1630623539.90014100,117928643,2.02,1.86,-17.96,-17.97,117.89,118.28,0.0,0.01
1630623540.00010109,118028603,1.94,1.8,-17.98,-17.99,118.32,118.68,0.0,0.01
1630623540.10006094,118128563,1.87,1.75,-17.97,-18.0,118.73,119.03,0.0,0.01
1630623540.20002103,118228523,1.82,1.7,-17.96,-17.98,119.11,119.36,0.0,0.01
1630623540.29998112,118328483,1.76,1.67,-17.94,-17.96,119.47,119.67,0.0,0.01
1630623540.39994097,118428443,1.72,1.64,-17.94,-17.95,119.81,119.97,0.0,0.0
1630623540.49990106,118528403,1.65,1.61,-17.96,-17.95,120.13,120.25,0.0,0.0
1630623540.59986091,118628363,1.56,1.54,-17.99,-17.98,120.43,120.52,0.0,0.0
1630623540.69982100,118728323,1.48,1.46,-18.0,-18.01,120.71,120.79,0.0,0.0
1630623540.79978108,118828283,1.38,1.35,-18.0,-18.02,120.97,121.05,0.0,0.0
1630623540.89974093,118928243,1.31,1.26,-18.01,-18.03,121.21,121.3,0.0,0.0
1630623540.99970102,119028203,1.23,1.18,-18.03,-18.05,121.43,121.54,0.0,0.0
1630623541.09966111,119128163,1.13,1.09,-18.04,-18.06,121.64,121.77,0.0,0.0
1630623541.20045400,119228956,1.05,0.99,-18.05,-18.08,121.83,121.98,0.0,0.0
1630623541.30041409,119328916,1.0,0.92,-18.0,-18.05,122.01,122.17,0.0,0.0
1630623541.40037394,119428876,1.0,0.89,-17.96,-18.0,122.18,122.35,0.0,0.0
1630623541.50033402,119528836,1.01,0.9,-17.97,-17.98,122.34,122.5,0.0,0.0
1630623541.60029411,119628796,0.97,0.9,-18.0,-17.98,122.48,122.65,0.0,0.0
1630623541.70025396,119728756,0.92,0.88,-18.01,-17.99,122.62,122.77,0.0,0.0
1630623541.80021405,119828716,0.88,0.84,-17.98,-17.99,122.74,122.88,0.0,0.0
1630623541.90017390,119928676,0.85,0.81,-17.97,-17.97,122.86,122.99,0.0,0.0
1630623542.00013399,120028636,0.83,0.78,-17.98,-17.98,122.97,123.08,0.0,0.0
1630623542.10009408,120128596,0.79,0.75,-18.01,-17.99,123.07,123.17,0.0,0.0
1630623542.20005393,120228556,0.75,0.72,-18.05,-18.03,123.17,123.26,0.0,0.0
1630623542.30001402,120328516,0.71,0.68,-18.07,-18.07,123.25,123.34,0.0,0.0
1630623542.39997411,120428476,0.71,0.65,-18.07,-18.09,123.33,123.42,0.0,0.0
1630623542.49993396,120528436,0.71,0.65,-18.04,-18.07,123.41,123.49,0.0,0.0
1630623542.59989405,120628396,0.72,0.66,-18.03,-18.05,123.48,123.55,0.0,0.0
1630623542.69985390,120728356,0.68,0.65,-18.06,-18.05,123.54,123.62,0.0,0.0
1630623542.79981399,120828316,0.64,0.61,-18.08,-18.08,123.6,123.68,0.0,0.0
1630623542.89977407,120928276,0.61,0.57,-18.08,-18.08,123.66,123.73,0.0,0.0
1630623542.99973392,121028236,0.61,0.55,-18.08,-18.09,123.71,123.78,0.0,0.0
1630623543.09969401,121128196,0.58,0.55,-18.08,-18.1,123.76,123.83,0.0,0.0
1630623543.19965410,121228156,0.53,0.52,-18.07,-18.1,123.8,123.87,0.0,0.0
1630623543.30044699,121328949,0.5,0.48,-18.06,-18.08,123.84,123.91,0.0,0.0
1630623543.40040708,121428909,0.47,0.44,-18.05,-18.08,123.87,123.95,0.0,0.0
1630623543.50036693,121528869,0.47,0.43,-18.06,-18.07,123.9,123.98,0.0,0.0
1630623543.60032701,121628829,0.48,0.42,-18.07,-18.08,123.93,124.01,0.0,0.0
1630623543.70028710,121728789,0.51,0.45,-18.09,-18.08,123.96,124.03,0.0,0.0
1630623543.80024695,121828749,0.52,0.47,-18.1,-18.1,123.99,124.06,0.0,0.0
1630623543.90020704,121928709,0.49,0.48,-18.13,-18.12,124.01,124.08,0.0,0.0
1630623544.00016713,122028669,0.48,0.47,-18.16,-18.15,124.03,124.1,0.0,0.0
1630623544.10012698,122128629,0.45,0.45,-18.18,-18.19,124.05,124.12,0.0,0.0
1630623544.20008707,122228589,0.41,0.41,-18.19,-18.21,124.07,124.13,0.0,0.0
1630623544.30004692,122328549,0.4,0.38,-18.18,-18.21,124.08,124.14,0.0,0.0
1630623544.40000701,122428509,0.41,0.37,-18.15,-18.18,124.1,124.15,0.0,0.0
1630623544.49996710,122528469,0.43,0.38,-18.12,-18.13,124.11,124.17,0.0,0.0
1630623544.59992695,122628429,0.44,0.4,-18.12,-18.11,124.12,124.17,0.0,0.0
1630623544.69988704,122728389,0.43,0.41,-18.16,-18.12,124.13,124.18,0.0,0.0
1630623544.79984713,122828349,0.42,0.4,-18.18,-18.16,124.14,124.19,0.0,0.0
1630623544.89980698,122928309,0.38,0.38,-18.2,-18.19,124.14,124.19,0.0,0.0
1630623544.99976707,123028269,0.33,0.33,-18.2,-18.21,124.15,124.19,0.0,0.0
1630623545.09972692,123128229,0.34,0.3,-18.2,-18.22,124.15,124.2,0.0,0.0
1630623545.19968700,123228189,0.36,0.31,-18.19,-18.22,124.15,124.2,0.0,0.0
1630623545.30048013,123328982,0.38,0.33,-18.21,-18.21,124.15,124.2,0.0,0.0
1630623545.40043998,123428942,0.39,0.35,-18.21,-18.22,124.16,124.19,0.0,0.0
1630623545.50040007,123528902,0.42,0.38,-18.2,-18.22,124.16,124.19,0.0,0.0
1630623545.60035992,123628862,0.46,0.42,-18.21,-18.22,124.16,124.19,0.0,0.0
1630623545.70032001,123728822,0.46,0.45,-18.21,-18.22,124.16,124.2,0.0,0.0
1630623545.80028009,123828782,0.43,0.43,-18.2,-18.22,124.16,124.2,0.0,0.0
1630623545.90023994,123928742,0.39,0.4,-18.19,-18.21,124.17,124.2,0.0,0.0
1630623546.00020003,124028702,0.36,0.36,-18.19,-18.2,124.17,124.21,0.0,0.0
1630623546.10016012,124128662,0.35,0.32,-18.18,-18.19,124.17,124.21,0.0,0.0
1630623546.20011997,124228622,0.36,0.32,-18.19,-18.19,124.17,124.21,0.0,0.0
1630623546.30008006,124328582,0.37,0.34,-18.22,-18.21,124.17,124.21,0.0,0.0
1630623546.40003991,124428542,0.37,0.34,-18.22,-18.23,124.17,124.21,0.0,0.0
1630623546.50000000,124528502,0.39,0.35,-18.2,-18.23,124.17,124.21,0.0,0.0
1630623546.59996009,124628462,0.4,0.37,-18.18,-18.21,124.17,124.21,0.0,0.0
1630623546.69991994,124728422,0.43,0.39,-18.17,-18.18,124.17,124.2,0.0,0.0
1630623546.79988003,124828382,0.47,0.42,-18.16,-18.17,124.17,124.2,0.0,0.0
1630623546.89984012,124928342,0.48,0.46,-18.17,-18.15,124.17,124.2,0.0,0.0
1630623546.99979997,125028302,0.46,0.47,-18.18,-18.16,124.17,124.2,0.0,0.0
1630623547.09976006,125128262,0.44,0.46,-18.19,-18.17,124.17,124.2,0.0,0.0
1630623547.19971991,125228222,0.42,0.43,-18.21,-18.19,124.17,124.2,0.0,0.0
1630623547.29967999,125328182,0.4,0.4,-18.21,-18.21,124.17,124.2,0.0,0.0
1630623547.40047312,125428975,0.38,0.37,-18.21,-18.21,124.17,124.2,0.0,0.0
