timestamp,TimeUS,DesRoll,Roll,DesPitch,Pitch,DesYaw,Yaw,ErrRP,ErrYaw
1630881716.59999990,99628466,0.0,0.18,0.0,0.16,353.14,353.15,0.0,0.0
1630881716.69995999,99728426,0.0,0.18,0.0,0.16,353.14,353.15,0.0,0.0
1630881716.79992008,99828386,0.0,0.18,0.0,0.16,353.14,353.15,0.0,0.0
1630881716.89987993,99928346,0.0,0.18,0.0,0.16,353.14,353.15,0.0,0.0
1630881716.99984002,100028306,0.0,0.18,0.0,0.16,353.14,353.15,0.0,0.0
1630881717.09980011,100128266,0.0,0.18,0.0,0.16,353.14,353.15,0.0,0.0
1630881717.19975996,100228226,0.0,0.18,0.0,0.16,353.14,353.15,0.0,0.0
1630881717.29972005,100328186,0.0,0.18,0.0,0.16,353.14,353.15,0.0,0.0
1630881717.40051293,100428979,0.0,0.18,0.0,0.16,353.15,353.16,0.0,0.0
1630881717.50047302,100528939,0.0,0.18,0.0,0.16,353.15,353.16,0.0,0.0
1630881717.60043311,100628899,0.0,0.18,0.0,0.16,353.15,353.16,0.0,0.0
1630881717.70039296,100728859,0.0,0.18,0.0,0.16,353.15,353.16,0.0,0.0
1630881717.80035305,100828819,0.0,0.18,0.0,0.16,353.15,353.16,0.0,0.0
1630881717.90031290,100928779,0.0,0.18,0.0,0.16,353.15,353.16,0.0,0.0
1630881718.00027299,101028739,0.0,0.18,0.0,0.16,353.15,353.16,0.0,0.0
1630881718.10023308,101128699,0.0,0.18,0.0,0.16,353.15,353.16,0.0,0.0
1630881718.20019293,101228659,0.0,0.18,0.0,0.16,353.15,353.16,0.0,0.0
1630881718.30015302,101328619,0.0,0.18,0.0,0.16,353.15,353.16,0.0,0.0
1630881718.40011311,101428579,0.0,0.18,0.0,0.16,353.15,353.16,0.0,0.0
1630881718.50007296,101528539,0.0,0.18,0.0,0.16,353.15,353.16,0.0,0.0
1630881718.60003304,101628499,0.0,0.18,0.0,0.17,353.15,353.16,0.0,0.0
1630881718.69999290,101728459,0.0,0.18,0.0,0.17,353.16,353.17,0.0,0.0
1630881718.79995298,101828419,0.0,0.18,0.0,0.17,353.16,353.17,0.0,0.0
1630881718.89991307,101928379,0.0,0.18,0.0,0.17,353.16,353.17,0.0,0.0
1630881718.99987292,102028339,0.0,0.18,0.0,0.17,353.16,353.17,0.0,0.0
1630881719.09983301,102128299,0.0,0.18,0.0,0.17,353.16,353.17,0.0,0.0
1630881719.19979310,102228259,0.0,0.18,0.0,0.17,353.16,353.17,0.0,0.0
1630881719.29975295,102328219,0.0,0.18,0.0,0.17,353.16,353.17,0.0,0.0
1630881719.39971304,102428179,0.0,0.18,0.0,0.17,353.16,353.17,0.0,0.0
1630881719.50050592,102528972,0.0,0.18,0.0,0.17,353.16,353.17,0.0,0.0
1630881719.60046601,102628932,-0.15,0.18,-0.16,0.17,353.16,353.17,0.0,0.0
1630881719.70042610,102728892,-0.3,0.18,-0.31,0.17,353.16,353.17,0.0,0.0
1630881719.80038595,102828852,-0.39,0.18,-0.4,0.17,353.16,353.17,0.0,0.0
1630881719.90034604,102928812,-0.45,0.18,-0.46,0.17,353.16,353.17,0.0,0.0
1630881720.00030613,103028772,-0.5,0.18,-0.51,0.17,353.16,353.18,0.0,0.0
1630881720.10026598,103128732,-0.54,0.18,-0.55,0.17,353.16,353.18,0.0,0.0
1630881720.20022607,103228692,-0.57,0.18,-0.59,0.17,353.16,353.18,0.0,0.0
1630881720.30018592,103328652,-0.6,0.18,-0.62,0.17,353.16,353.18,0.0,0.0
1630881720.40014601,103428612,-0.63,0.18,-0.65,0.17,353.16,353.18,0.0,0.0
1630881720.50010610,103528572,-0.65,0.18,-0.68,0.17,353.16,353.18,0.0,0.0
1630881720.60006595,103628532,-0.7,0.18,-0.73,0.17,353.16,353.18,0.0,0.0
1630881720.70002604,103728492,-0.75,0.18,-0.76,0.17,353.16,353.18,0.0,0.0
1630881720.79998612,103828452,-0.77,0.18,-0.78,0.17,353.16,353.18,0.0,0.0
1630881720.89994597,103928412,-0.79,0.18,-0.81,0.17,353.16,353.18,0.0,0.0
1630881720.99990606,104028372,-0.83,0.18,-0.88,0.17,353.16,353.18,0.0,0.0
1630881721.09986591,104128332,-0.89,0.18,-0.93,0.17,353.16,353.18,0.0,0.0
1630881721.19982600,104228292,-0.94,-0.2,-0.95,-0.21,353.16,353.18,0.0,0.0
1630881721.29978609,104328252,-0.92,-0.85,-0.94,-0.85,353.16,353.18,0.0,0.0
1630881721.39974594,104428212,-0.77,-1.32,-0.8,-1.33,353.16,353.19,0.0,0.0
1630881721.49970603,104528172,-0.47,-1.43,-0.51,-1.47,353.16,353.19,0.0,0.0
1630881721.60049891,104628965,-0.1,-1.23,-0.1,-1.26,353.16,353.17,0.0,0.0
1630881721.70045900,104728925,0.3,-0.81,0.33,-0.81,353.16,353.16,0.0,0.0
1630881721.80041909,104828885,0.64,-0.31,0.67,-0.29,353.16,353.15,0.0,0.0
1630881721.90037894,104928845,0.86,0.11,0.88,0.15,353.16,353.15,0.0,0.0
1630881722.00033903,105028805,0.99,0.41,0.95,0.42,353.16,353.15,0.0,0.01
1630881722.10029912,105128765,1.03,0.58,0.93,0.52,353.16,353.15,0.0,0.01
1630881722.20025897,105228725,0.99,0.61,0.87,0.49,353.16,353.15,0.0,0.0
1630881722.30021906,105328685,0.93,0.57,0.8,0.42,353.16,353.15,0.0,0.0
1630881722.40017891,105428645,0.86,0.49,0.76,0.35,353.16,353.15,0.0,0.0
1630881722.50013900,105528605,0.84,0.44,0.74,0.33,353.16,353.16,0.0,0.0
1630881722.60009909,105628565,0.87,0.45,0.75,0.33,353.16,353.16,0.0,0.0
1630881722.70005894,105728525,0.91,0.52,0.79,0.39,353.16,353.17,0.0,0.0
1630881722.80001903,105828485,0.95,0.6,0.83,0.47,353.16,353.17,0.0,0.0
1630881722.89997911,105928445,0.94,0.66,0.85,0.54,352.51,352.52,0.0,0.0
1630881722.99993896,106028405,0.87,0.66,0.83,0.58,352.51,352.52,0.0,0.0
1630881723.09989905,106128365,0.82,0.63,0.76,0.58,352.51,352.52,0.0,0.0
1630881723.19985890,106228325,0.76,0.58,0.65,0.51,352.51,352.52,0.0,0.0
1630881723.29981899,106328285,0.71,0.53,0.58,0.42,352.51,352.52,0.0,0.0
1630881723.39977908,106428245,0.67,0.5,0.52,0.36,352.51,352.52,0.0,0.0
1630881723.49973893,106528205,0.62,0.47,0.5,0.32,352.51,352.52,0.0,0.0
1630881723.59969902,106628165,0.58,0.44,0.49,0.31,352.51,352.52,0.0,0.0
1630881723.70049191,106728958,0.54,0.41,0.51,0.34,352.51,352.52,0.0,0.0
1630881723.80045199,106828918,0.5,0.38,0.51,0.38,352.51,352.53,0.0,0.0
1630881723.90041208,106928878,0.46,0.35,0.46,0.38,352.51,352.53,0.0,0.0
1630881724.00037193,107028838,0.4,0.31,0.37,0.33,352.51,352.53,0.0,0.0
1630881724.10033202,107128798,0.34,0.25,0.29,0.25,352.51,352.53,0.0,0.0
1630881724.20029211,107228758,0.3,0.2,0.23,0.15,352.51,352.53,0.0,0.0
1630881724.30025196,107328718,0.26,0.17,0.2,0.1,352.51,352.53,0.0,0.0
1630881724.40021205,107428678,0.21,0.13,0.19,0.07,352.51,352.53,0.0,0.0
1630881724.50017190,107528638,0.19,0.1,0.2,0.07,352.51,352.53,0.0,0.0
1630881724.60013199,107628598,0.2,0.11,0.21,0.1,352.51,352.53,0.0,0.0
1630881724.70009208,107728558,0.17,0.12,0.22,0.14,352.51,352.53,0.0,0.0
1630881724.80005193,107828518,0.14,0.1,0.21,0.15,352.51,352.52,0.0,0.0
1630881724.90001202,107928478,0.09,0.06,0.2,0.16,352.51,352.52,0.0,0.0
1630881724.99997211,108028438,0.07,0.02,0.18,0.15,352.51,352.52,0.0,0.0
1630881725.09993196,108128398,0.08,0.01,0.14,0.12,352.51,352.52,0.0,0.0
1630881725.19989204,108228358,0.08,0.02,0.12,0.08,352.51,352.51,0.0,0.0
1630881725.29985213,108328318,0.07,0.02,0.12,0.07,352.51,352.51,0.0,0.0
1630881725.39981198,108428278,0.13,0.05,0.12,0.08,352.51,352.51,0.0,0.0
1630881725.49977207,108528238,0.18,0.12,0.13,0.08,352.51,352.51,0.0,0.0
1630881725.59973192,108628198,0.19,0.17,0.15,0.1,352.51,352.51,0.0,0.0
1630881725.69969201,108728158,0.19,0.19,0.18,0.13,352.51,352.51,0.0,0.0
1630881725.80048490,108828951,0.18,0.18,0.21,0.17,352.51,352.52,0.0,0.0
1630881725.90044498,108928911,0.15,0.16,0.25,0.21,352.51,352.52,0.0,0.0
1630881726.00040507,109028871,0.13,0.13,0.27,0.24,352.51,352.52,0.0,0.0
1630881726.10036492,109128831,0.15,0.12,0.27,0.26,352.51,352.52,0.0,0.0
1630881726.20032501,109228791,0.19,0.14,0.26,0.26,352.51,352.52,0.0,0.0
1630881726.30028510,109328751,0.24,0.19,0.23,0.24,352.51,352.52,0.0,0.0
1630881726.40024495,109428711,0.28,0.24,0.2,0.2,352.51,352.52,0.0,0.0
1630881726.50020504,109528671,0.31,0.29,0.21,0.18,352.51,352.52,0.0,0.0
1630881726.60016513,109628631,0.32,0.33,0.27,0.2,352.51,352.52,0.0,0.0
1630881726.70012498,109728591,0.3,0.33,0.33,0.27,352.51,352.52,0.0,0.0
1630881726.80008507,109828551,0.29,0.3,0.34,0.33,352.51,352.53,0.0,0.0
1630881726.90004492,109928511,0.28,0.29,0.31,0.33,352.51,352.53,0.0,0.0
1630881727.00000501,110028471,0.29,0.28,0.26,0.28,352.51,352.52,0.0,0.0
1630881727.09996510,110128431,0.31,0.28,0.21,0.23,352.51,352.52,0.0,0.0
1630881727.19992495,110228391,0.33,0.3,0.17,0.16,352.51,352.52,0.0,0.0
1630881727.29988503,110328351,0.32,0.32,0.14,0.11,352.51,352.52,0.0,0.0
1630881727.39984512,110428311,0.31,0.31,0.17,0.1,352.51,352.52,0.0,0.0
1630881727.49980497,110528271,0.3,0.3,0.21,0.15,352.51,352.52,0.0,0.0
1630881727.59976506,110628231,0.28,0.28,0.22,0.19,352.51,352.52,0.0,0.0
1630881727.69972491,110728191,0.25,0.25,0.24,0.23,352.51,352.52,0.0,0.0
1630881727.80051804,110828984,0.23,0.22,0.24,0.26,352.51,352.52,0.0,0.0
1630881727.90047812,110928944,0.21,0.2,0.25,0.27,352.51,352.52,0.0,0.0
1630881728.00043797,111028904,0.21,0.17,0.26,0.28,352.51,352.52,0.0,0.0
1630881728.10039806,111128864,0.22,0.17,0.23,0.27,352.51,352.52,0.0,0.0
1630881728.20035791,111228824,0.24,0.18,0.2,0.23,352.51,352.53,0.0,0.0
1630881728.30031800,111328784,0.26,0.22,0.19,0.19,352.51,352.53,0.0,0.0
1630881728.40027809,111428744,0.27,0.25,0.19,0.17,352.51,352.53,0.0,0.0
1630881728.50023794,111528704,0.23,0.25,0.2,0.17,352.51,352.53,0.0,0.0
1630881728.60019803,111628664,0.19,0.21,0.23,0.18,352.51,352.53,0.0,0.0
1630881728.70015812,111728624,0.19,0.19,0.25,0.21,352.51,352.52,0.0,0.0
1630881728.80011797,111828584,0.21,0.18,0.26,0.23,352.51,352.52,0.0,0.0
1630881728.90007806,111928544,0.21,0.18,0.25,0.25,352.51,352.52,0.0,0.0
1630881729.00003791,112028504,0.2,0.18,0.2,0.22,352.51,352.52,0.0,0.0
1630881729.09999800,112128464,0.21,0.18,0.18,0.19,352.51,352.52,0.0,0.0
1630881729.19995809,112228424,0.23,0.2,0.18,0.16,352.51,352.52,0.0,0.0
1630881729.29991794,112328384,0.25,0.22,0.22,0.18,352.51,352.52,0.0,0.0
1630881729.39987803,112428344,0.26,0.24,0.22,0.2,352.51,352.52,0.0,0.0
1630881729.49983811,112528304,0.26,0.26,0.2,0.21,352.51,352.52,0.0,0.0
1630881729.59979796,112628264,0.24,0.26,0.18,0.19,352.51,352.52,0.0,0.0
1630881729.69975805,112728224,0.19,0.22,0.17,0.17,352.51,352.52,0.0,0.0
1630881729.79971790,112828184,0.16,0.17,0.17,0.16,352.51,352.52,0.0,0.0
1630881729.90051103,112928977,0.15,0.15,0.17,0.16,352.51,352.52,0.0,0.0
1630881730.00047112,113028937,0.16,0.13,0.17,0.16,352.51,352.52,0.0,0.0
1630881730.10043097,113128897,0.18,0.16,0.16,0.15,352.51,352.52,0.0,0.0
1630881730.20039105,113228857,0.2,0.18,0.17,0.15,352.51,352.52,0.0,0.0
1630881730.30035090,113328817,0.21,0.2,0.19,0.16,352.51,352.52,0.0,0.0
1630881730.40031099,113428777,0.18,0.2,0.2,0.18,352.51,352.52,0.0,0.0
1630881730.50027108,113528737,0.15,0.18,0.2,0.19,352.51,352.52,0.0,0.0
1630881730.60023093,113628697,0.12,0.14,0.21,0.2,352.51,352.53,0.0,0.0
1630881730.70019102,113728657,0.1,0.1,0.23,0.22,352.51,352.53,0.0,0.0
1630881730.80015111,113828617,0.13,0.09,0.23,0.23,352.51,352.52,0.0,0.0
1630881730.90011096,113928577,0.19,0.12,0.24,0.24,352.51,352.52,0.0,0.0
1630881731.00007105,114028537,0.23,0.19,0.24,0.24,352.51,352.52,0.0,0.0
1630881731.10003090,114128497,0.23,0.22,0.22,0.23,352.51,352.52,0.0,0.0
1630881731.19999099,114228457,0.26,0.25,0.17,0.18,352.51,352.51,0.0,0.0
1630881731.29995108,114328417,0.27,0.27,0.15,0.14,352.51,352.51,0.0,0.0
1630881731.39991093,114428377,0.27,0.28,0.13,0.11,352.51,352.51,0.0,0.0
1630881731.49987102,114528337,0.28,0.28,0.1,0.08,352.51,352.51,0.0,0.0
1630881731.59983110,114628297,0.27,0.27,0.1,0.07,352.51,352.51,0.0,0.0
1630881731.69979095,114728257,0.25,0.25,0.1,0.07,352.51,352.51,0.0,0.0
1630881731.79975104,114828217,0.21,0.22,0.12,0.08,352.51,352.52,0.0,0.0
1630881731.89971113,114928177,0.17,0.18,0.16,0.11,352.51,352.52,0.0,0.0
1630881732.00050402,115028970,0.15,0.14,0.19,0.14,352.51,352.52,0.0,0.0
1630881732.10046411,115128930,0.16,0.12,0.19,0.18,352.51,352.53,0.0,0.0
1630881732.20042396,115228890,0.18,0.13,0.18,0.19,352.51,352.53,0.0,0.0
1630881732.30038404,115328850,0.22,0.18,0.18,0.19,352.51,352.53,0.0,0.0
1630881732.40034389,115428810,0.25,0.23,0.17,0.18,352.51,352.53,0.0,0.0
1630881732.50030398,115528770,0.26,0.27,0.15,0.16,352.51,352.53,0.0,0.0
1630881732.60026407,115628730,0.22,0.26,0.13,0.14,352.51,352.53,0.0,0.0
1630881732.70022392,115728690,0.18,0.21,0.15,0.13,352.51,352.53,0.0,0.0
1630881732.80018401,115828650,0.18,0.17,0.17,0.15,352.51,352.53,0.0,0.0
1630881732.90014410,115928610,0.21,0.18,0.17,0.16,352.51,352.52,0.0,0.0
1630881733.00010395,116028570,0.22,0.2,0.16,0.16,352.51,352.52,0.0,0.0
1630881733.10006404,116128530,0.2,0.2,0.14,0.16,352.51,352.52,0.0,0.0
1630881733.20002413,116228490,0.21,0.19,0.11,0.13,352.51,352.52,0.0,0.0
1630881733.29998398,116328450,0.21,0.19,0.13,0.12,352.51,352.52,0.0,0.0
1630881733.39994407,116428410,0.19,0.17,0.15,0.12,352.51,352.52,0.0,0.0
1630881733.49990392,116528370,0.17,0.15,0.15,0.13,352.51,352.52,0.0,0.0
1630881733.59986401,116628330,0.19,0.15,0.14,0.13,352.51,352.52,0.0,0.0
1630881733.69982409,116728290,0.22,0.18,0.17,0.15,352.51,352.52,0.0,0.0
1630881733.79978395,116828250,0.21,0.19,0.19,0.17,352.51,352.52,0.0,0.0
1630881733.89974403,116928210,0.22,0.21,0.2,0.19,352.51,352.52,0.0,0.0
1630881733.99970412,117028170,0.22,0.21,0.17,0.18,352.51,352.52,0.0,0.0
1630881734.10049701,117128963,0.23,0.22,0.18,0.18,352.51,352.52,0.0,0.0
1630881734.20045710,117228923,0.23,0.23,0.17,0.17,352.51,352.52,0.0,0.0
1630881734.30041695,117328883,0.24,0.23,0.14,0.16,352.51,352.52,0.0,0.0
1630881734.40037704,117428843,0.24,0.23,0.11,0.13,352.51,352.52,0.0,0.0
1630881734.50033712,117528803,0.22,0.22,0.15,0.13,352.51,352.52,0.0,0.0
1630881734.60029697,117628763,0.2,0.2,0.17,0.15,352.51,352.52,0.0,0.0
1630881734.70025706,117728723,0.2,0.18,0.18,0.17,352.51,352.52,0.0,0.0
1630881734.80021691,117828683,0.18,0.16,0.18,0.18,352.51,352.52,0.0,0.0
1630881734.90017700,117928643,0.16,0.15,0.17,0.17,352.51,352.52,0.0,0.0
1630881735.00013709,118028603,0.17,0.14,0.17,0.15,352.51,352.52,0.0,0.0
1630881735.10009694,118128563,0.17,0.14,0.19,0.15,352.51,352.52,0.0,0.0
1630881735.20005703,118228523,0.18,0.15,0.22,0.17,352.51,352.52,0.0,0.0
1630881735.30001712,118328483,0.2,0.17,0.26,0.21,352.51,352.52,0.0,0.0
1630881735.39997697,118428443,0.22,0.2,0.27,0.24,352.51,352.52,0.0,0.0
1630881735.49993706,118528403,0.21,0.22,0.24,0.26,352.51,352.52,0.0,0.0
1630881735.59989691,118628363,0.19,0.2,0.19,0.22,352.51,352.52,0.0,0.0
1630881735.69985700,118728323,0.16,0.18,0.18,0.19,352.51,352.52,0.0,0.0
1630881735.79981709,118828283,0.12,0.13,0.19,0.17,352.51,352.52,0.0,0.0
1630881735.89977694,118928243,0.12,0.1,0.18,0.17,352.51,352.52,0.0,0.0
1630881735.99973702,119028203,0.11,0.09,0.15,0.15,352.51,352.52,0.0,0.0
1630881736.09969711,119128163,0.07,0.07,0.13,0.13,352.51,352.52,0.0,0.0
1630881736.20049000,119228956,0.05,0.05,0.11,0.11,352.51,352.52,0.0,0.0
1630881736.30045009,119328916,0.06,0.04,0.16,0.12,352.51,352.53,0.0,0.0
1630881736.40040994,119428876,0.12,0.06,0.22,0.17,352.51,352.53,0.0,0.0
1630881736.50037003,119528836,0.18,0.12,0.22,0.21,352.51,352.53,0.0,0.0
1630881736.60033011,119628796,0.19,0.18,0.21,0.21,352.51,352.53,0.0,0.0
1630881736.70028996,119728756,0.19,0.21,0.21,0.2,352.51,352.53,0.0,0.0
1630881736.80025005,119828716,0.18,0.2,0.27,0.23,352.51,352.53,0.0,0.0
1630881736.90020990,119928676,0.19,0.19,0.29,0.27,352.51,352.52,0.0,0.0
1630881737.00016999,120028636,0.2,0.19,0.27,0.27,352.51,352.52,0.0,0.0
1630881737.10013008,120128596,0.2,0.2,0.24,0.25,352.51,352.52,0.0,0.0
1630881737.20008993,120228556,0.18,0.2,0.2,0.22,352.51,352.52,0.0,0.0
1630881737.30005002,120328516,0.17,0.18,0.17,0.18,352.51,352.52,0.0,0.0
1630881737.40001011,120428476,0.2,0.18,0.19,0.17,352.51,352.52,0.0,0.0
1630881737.49996996,120528436,0.23,0.2,0.23,0.19,352.51,352.52,0.0,0.0
1630881737.59993005,120628396,0.27,0.24,0.24,0.22,352.51,352.52,0.0,0.0
1630881737.69988990,120728356,0.26,0.26,0.22,0.22,352.51,352.52,0.0,0.0
1630881737.79984999,120828316,0.24,0.25,0.2,0.2,352.51,352.52,0.0,0.0
1630881737.89981008,120928276,0.23,0.23,0.19,0.18,352.51,352.52,0.0,0.0
1630881737.99976993,121028236,0.25,0.23,0.19,0.17,352.51,352.52,0.0,0.0
1630881738.09973001,121128196,0.24,0.22,0.19,0.17,352.51,352.52,0.0,0.0
1630881738.19969010,121228156,0.21,0.2,0.22,0.18,352.51,352.52,0.0,0.0
1630881738.30048299,121328949,0.19,0.18,0.24,0.21,352.51,352.52,0.0,0.0
1630881738.40044308,121428909,0.17,0.16,0.24,0.22,352.51,352.52,0.0,0.0
1630881738.50040293,121528869,0.19,0.16,0.24,0.23,352.51,352.52,0.0,0.0
1630881738.60036302,121628829,0.22,0.18,0.22,0.22,352.51,352.52,0.0,0.0
1630881738.70032310,121728789,0.26,0.22,0.21,0.2,352.51,352.52,0.0,0.0
1630881738.80028296,121828749,0.28,0.26,0.21,0.2,352.51,352.52,0.0,0.0
1630881738.90024304,121928709,0.25,0.26,0.2,0.19,352.51,352.52,0.0,0.0
1630881739.00020313,122028669,0.24,0.24,0.17,0.17,352.51,352.52,0.0,0.0
1630881739.10016298,122128629,0.21,0.21,0.14,0.15,352.51,352.52,0.0,0.0
1630881739.20012307,122228589,0.17,0.18,0.12,0.12,352.51,352.52,0.0,0.0
1630881739.30008292,122328549,0.16,0.15,0.11,0.1,352.51,352.52,0.0,0.0
1630881739.40004301,122428509,0.19,0.14,0.16,0.11,352.51,352.52,0.0,0.0
1630881739.50000310,122528469,0.22,0.17,0.22,0.17,352.51,352.52,0.0,0.0
1630881739.59996295,122628429,0.25,0.22,0.24,0.22,352.51,352.52,0.0,0.0
1630881739.69992304,122728389,0.25,0.25,0.22,0.24,352.51,352.52,0.0,0.0
1630881739.79988313,122828349,0.22,0.25,0.19,0.22,352.51,352.52,0.0,0.0
1630881739.89984298,122928309,0.17,0.2,0.15,0.17,352.51,352.52,0.0,0.0
1630881739.99980307,123028269,0.1,0.13,0.13,0.13,352.51,352.52,0.0,0.0
1630881740.09976292,123128229,0.1,0.08,0.13,0.11,352.51,352.52,0.0,0.0
1630881740.19972301,123228189,0.14,0.08,0.17,0.13,352.51,352.52,0.0,0.0
1630881740.30051613,123328982,0.18,0.13,0.16,0.15,352.51,352.53,0.0,0.0
1630881740.40047598,123428942,0.21,0.17,0.16,0.16,352.51,352.53,0.0,0.0
1630881740.50043607,123528902,0.25,0.21,0.17,0.16,352.51,352.53,0.0,0.0
1630881740.60039592,123628862,0.3,0.27,0.15,0.15,352.51,352.53,0.0,0.0
1630881740.70035601,123728822,0.3,0.31,0.14,0.14,352.51,352.52,0.0,0.0
1630881740.80031610,123828782,0.25,0.3,0.16,0.13,352.51,352.52,0.0,0.0
1630881740.90027595,123928742,0.2,0.25,0.18,0.15,352.51,352.52,0.0,0.0
1630881741.00023603,124028702,0.16,0.18,0.2,0.16,352.51,352.52,0.0,0.0
1630881741.10019612,124128662,0.15,0.14,0.23,0.2,352.51,352.52,0.0,0.0
1630881741.20015597,124228622,0.16,0.13,0.21,0.22,352.51,352.52,0.0,0.0
1630881741.30011606,124328582,0.18,0.13,0.18,0.21,352.51,352.52,0.0,0.0
1630881741.40007591,124428542,0.18,0.14,0.17,0.19,352.51,352.52,0.0,0.0
1630881741.50003600,124528502,0.2,0.16,0.19,0.19,352.51,352.52,0.0,0.0
1630881741.59999609,124628462,0.22,0.2,0.21,0.2,352.51,352.52,0.0,0.0
1630881741.69995594,124728422,0.25,0.23,0.22,0.21,352.51,352.52,0.0,0.0
1630881741.79991603,124828382,0.31,0.28,0.23,0.22,352.51,352.52,0.0,0.0
1630881741.89987612,124928342,0.32,0.32,0.24,0.23,352.51,352.52,0.0,0.0
1630881741.99983597,125028302,0.31,0.34,0.25,0.23,352.51,352.52,0.0,0.0
1630881742.09979606,125128262,0.29,0.33,0.25,0.24,352.51,352.52,0.0,0.0
1630881742.19975591,125228222,0.27,0.3,0.25,0.24,352.51,352.52,0.0,0.0
1630881742.29971600,125328182,0.25,0.26,0.25,0.24,352.51,352.52,0.0,0.0
1630881742.40050912,125428975,0.22,0.21,0.26,0.25,352.51,352.52,0.0,0.0
1630881742.50046897,125528935,0.2,0.19,0.28,0.26,352.51,352.52,0.0,0.0
1630881742.60042906,125628895,0.23,0.18,0.29,0.28,352.51,352.52,0.0,0.0
1630881742.70038891,125728855,0.27,0.23,0.29,0.29,352.51,352.52,0.0,0.0
1630881742.80034900,125828815,0.29,0.26,0.31,0.3,352.51,352.52,0.0,0.0
1630881742.90030909,125928775,0.29,0.29,0.28,0.29,352.51,352.52,0.0,0.0
1630881743.00026894,126028735,0.28,0.28,0.25,0.27,352.51,352.52,0.0,0.0
1630881743.10022902,126128695,0.27,0.27,0.24,0.24,352.51,352.52,0.0,0.0
1630881743.20018911,126228655,0.26,0.25,0.23,0.22,352.51,352.52,0.0,0.0
1630881743.30014896,126328615,0.25,0.24,0.22,0.21,352.51,352.52,0.0,0.0
1630881743.40010905,126428575,0.23,0.22,0.21,0.19,352.51,352.52,0.0,0.0
1630881743.50006890,126528535,0.19,0.19,0.18,0.17,352.51,352.52,0.0,0.0
1630881743.60002899,126628495,0.13,0.14,0.14,0.14,352.51,352.52,0.0,0.0
1630881743.69998908,126728455,0.12,0.11,0.11,0.11,352.51,352.52,0.0,0.0
1630881743.79994893,126828415,0.15,0.11,0.12,0.09,352.51,352.52,0.0,0.0
1630881743.89990902,126928375,0.17,0.14,0.14,0.11,352.51,352.52,0.0,0.0
1630881743.99986911,127028335,0.19,0.16,0.14,0.12,352.51,352.52,0.0,0.0
1630881744.09982896,127128295,0.18,0.17,0.12,0.13,352.51,352.52,0.0,0.0
1630881744.19978905,127228255,0.14,0.15,0.1,0.1,352.51,352.52,0.0,0.0
1630881744.29974890,127328215,0.12,0.11,0.1,0.08,352.51,352.52,0.0,0.0
1630881744.39970899,127428175,0.12,0.1,0.14,0.1,352.51,352.52,0.0,0.0
1630881744.50050211,127528968,0.14,0.11,0.19,0.15,352.51,352.52,0.0,0.0
1630881744.60046196,127628928,0.13,0.12,0.22,0.2,352.51,352.52,0.0,0.0
1630881744.70042205,127728888,0.12,0.12,0.21,0.23,352.51,352.52,0.0,0.0
1630881744.80038190,127828848,0.12,0.12,0.16,0.2,352.51,352.53,0.0,0.0
1630881744.90034199,127928808,0.12,0.12,0.13,0.16,352.51,352.53,0.0,0.0
1630881745.00030208,128028768,0.13,0.12,0.14,0.12,352.51,352.53,0.0,0.0
1630881745.10026193,128128728,0.14,0.12,0.15,0.12,352.51,352.53,0.0,0.0
1630881745.20022202,128228688,0.14,0.13,0.15,0.12,352.51,352.52,0.0,0.0
1630881745.30018210,128328648,0.13,0.13,0.17,0.14,352.51,352.52,0.0,0.0
1630881745.40014195,128428608,0.14,0.11,0.18,0.15,352.51,352.52,0.0,0.0
1630881745.50010204,128528568,0.17,0.13,0.2,0.18,352.51,352.52,0.0,0.0
1630881745.60006213,128628528,0.19,0.16,0.24,0.21,352.51,352.52,0.0,0.0
1630881745.70002198,128728488,0.22,0.2,0.27,0.25,352.51,352.52,0.0,0.0
1630881745.79998207,128828448,0.27,0.24,0.31,0.29,352.51,352.52,0.0,0.0
1630881745.89994192,128928408,0.29,0.28,0.3,0.3,352.51,352.52,0.0,0.0
1630881745.99990201,129028368,0.26,0.29,0.31,0.3,352.51,352.52,0.0,0.0
1630881746.09986210,129128328,0.22,0.25,0.29,0.3,352.51,352.52,0.0,0.0
1630881746.19982195,129228288,0.21,0.22,0.28,0.28,352.51,352.52,0.0,0.0
1630881746.29978204,129328248,0.2,0.2,0.31,0.28,352.51,352.52,0.0,0.0
1630881746.39974213,129428208,0.2,0.18,0.31,0.29,352.51,352.52,0.0,0.0
1630881746.49970198,129528168,0.19,0.17,0.28,0.27,352.51,352.52,0.0,0.0
1630881746.60049510,129628961,0.21,0.17,0.26,0.24,352.51,352.52,0.0,0.0
1630881746.70045495,129728921,0.24,0.21,0.24,0.22,352.51,352.52,0.0,0.0
1630881746.80041504,129828881,0.24,0.24,0.23,0.21,352.51,352.53,0.0,0.0
1630881746.90037513,129928841,0.2,0.23,0.23,0.21,352.51,352.53,0.0,0.0
1630881747.00033498,130028801,0.16,0.18,0.24,0.21,352.51,352.53,0.0,0.0
1630881747.10029507,130128761,0.18,0.15,0.25,0.22,352.51,352.52,0.0,0.0
1630881747.20025492,130228721,0.21,0.16,0.27,0.24,352.51,352.52,0.0,0.0
1630881747.30021501,130328681,0.21,0.18,0.26,0.25,352.51,352.52,0.0,0.0
1630881747.40017509,130428641,0.23,0.19,0.26,0.26,352.51,352.52,0.0,0.0
1630881747.50013494,130528601,0.23,0.21,0.25,0.26,352.51,352.52,0.0,0.0
1630881747.60009503,130628561,0.21,0.21,0.22,0.23,352.51,352.52,0.0,0.0
1630881747.70005512,130728521,0.18,0.19,0.2,0.2,352.51,352.52,0.0,0.0
1630881747.80001497,130828481,0.16,0.15,0.2,0.19,352.51,352.51,0.0,0.0
1630881747.89997506,130928441,0.17,0.13,0.22,0.18,352.51,352.51,0.0,0.0
1630881747.99993491,131028401,0.18,0.13,0.24,0.2,352.51,352.51,0.0,0.0
1630881748.09989500,131128361,0.2,0.15,0.26,0.23,352.51,352.51,0.0,0.0
1630881748.19985509,131228321,0.2,0.18,0.27,0.25,352.51,352.51,0.0,0.0
1630881748.29981494,131328281,0.18,0.19,0.26,0.27,352.51,352.51,0.0,0.0
1630881748.39977503,131428241,0.13,0.15,0.23,0.25,352.51,352.51,0.0,0.0
1630881748.49973512,131528201,0.12,0.12,0.23,0.23,352.51,352.51,0.0,0.0
1630881748.59969497,131628161,0.15,0.12,0.25,0.23,352.51,352.52,0.0,0.0
1630881748.70048809,131728954,0.17,0.14,0.25,0.24,352.51,352.52,0.0,0.0
1630881748.80044794,131828914,0.2,0.16,0.25,0.26,352.51,352.52,0.0,0.0
1630881748.90040803,131928874,0.21,0.18,0.26,0.27,352.51,352.52,0.0,0.0
1630881749.00036812,132028834,0.22,0.21,0.25,0.26,352.51,352.52,0.0,0.0
1630881749.10032797,132128794,0.22,0.22,0.26,0.26,352.51,352.52,0.0,0.0
1630881749.20028806,132228754,0.21,0.22,0.29,0.26,352.51,352.52,0.0,0.0
1630881749.30024791,132328714,0.22,0.22,0.31,0.29,352.51,352.52,0.0,0.0
1630881749.40020800,132428674,0.22,0.21,0.34,0.32,352.51,352.52,0.0,0.0
1630881749.50016809,132528634,0.25,0.23,0.33,0.34,352.51,352.51,0.0,0.0
1630881749.60012794,132628594,0.27,0.26,0.3,0.31,352.51,352.51,0.0,0.0
1630881749.70008802,132728554,0.25,0.26,0.25,0.27,352.51,352.51,0.0,0.0
1630881749.80004811,132828514,0.23,0.24,0.21,0.2,352.51,352.51,0.0,0.0
1630881749.90000796,132928474,0.25,0.24,0.19,0.17,352.51,352.51,0.0,0.0
1630881749.99996805,133028434,0.23,0.24,0.19,0.15,352.51,352.51,0.0,0.0
1630881750.09992790,133128394,0.24,0.23,0.2,0.16,352.51,352.51,0.0,0.0
1630881750.19988799,133228354,0.26,0.24,0.23,0.19,352.51,352.51,0.0,0.0
1630881750.29984808,133328314,0.24,0.24,0.23,0.21,352.51,352.51,0.0,0.0
1630881750.39980793,133428274,0.22,0.21,0.22,0.22,352.51,352.51,0.0,0.0
1630881750.49976802,133528234,0.19,0.19,0.23,0.22,352.51,352.51,0.0,0.0
1630881750.59972811,133628194,0.2,0.16,0.23,0.23,352.51,352.52,0.0,0.0
1630881750.69968796,133728154,0.24,0.19,0.22,0.22,352.51,352.52,0.0,0.0
1630881750.80048108,133828947,0.28,0.24,0.22,0.2,352.51,352.52,0.0,0.0
1630881750.90044093,133928907,0.28,0.27,0.24,0.2,352.51,352.52,0.0,0.0
1630881751.00040102,134028867,0.26,0.26,0.22,0.2,352.51,352.52,0.0,0.0
1630881751.10036111,134128827,0.27,0.26,0.2,0.19,352.51,352.52,0.0,0.0
1630881751.20032096,134228787,0.27,0.26,0.19,0.17,352.51,352.52,0.0,0.0
1630881751.30028105,134328747,0.26,0.26,0.21,0.17,352.51,352.52,0.0,0.0
1630881751.40024090,134428707,0.26,0.26,0.22,0.18,352.51,352.52,0.0,0.0
1630881751.50020099,134528667,0.27,0.26,0.2,0.19,352.51,352.51,0.0,0.0
1630881751.60016108,134628627,0.28,0.26,0.16,0.17,352.51,352.51,0.0,0.0
1630881751.70012093,134728587,0.29,0.27,0.14,0.14,352.51,352.51,0.0,0.0
1630881751.80008101,134828547,0.29,0.28,0.16,0.13,352.51,352.51,0.0,0.0
1630881751.90004110,134928507,0.26,0.27,0.19,0.14,352.51,352.51,0.0,0.0
1630881752.00000095,135028467,0.22,0.23,0.21,0.16,352.51,352.51,0.0,0.0
1630881752.09996104,135128427,0.2,0.19,0.21,0.19,352.51,352.51,0.0,0.0
1630881752.19992113,135228387,0.2,0.17,0.22,0.21,352.51,352.51,0.0,0.0
1630881752.29988098,135328347,0.2,0.17,0.23,0.24,352.51,352.52,0.0,0.0
1630881752.39984107,135428307,0.18,0.17,0.21,0.23,352.51,352.52,0.0,0.0
1630881752.49980092,135528267,0.16,0.15,0.17,0.19,352.51,352.52,0.0,0.0
1630881752.59976101,135628227,0.15,0.13,0.14,0.15,352.51,352.52,0.0,0.0
1630881752.69972110,135728187,0.16,0.12,0.11,0.11,352.51,352.52,0.0,0.0
1630881752.80051398,135828980,0.17,0.12,0.1,0.08,352.51,352.53,0.0,0.0
1630881752.90047407,135928940,0.2,0.15,0.11,0.08,352.51,352.53,0.0,0.0
1630881753.00043392,136028900,0.23,0.19,0.13,0.1,352.51,352.53,0.0,0.0
1630881753.10039401,136128860,0.22,0.22,0.16,0.13,352.51,352.52,0.0,0.0
1630881753.20035410,136228820,0.19,0.21,0.18,0.16,352.51,352.52,0.0,0.0
1630881753.30031395,136328780,0.14,0.17,0.19,0.18,352.51,352.52,0.0,0.0
1630881753.40027404,136428740,0.09,0.11,0.2,0.19,352.51,352.52,0.0,0.0
1630881753.50023413,136528700,0.08,0.06,0.21,0.21,352.51,352.51,0.0,0.0
1630881753.60019398,136628660,0.11,0.06,0.19,0.2,352.51,352.51,0.0,0.0
1630881753.70015407,136728620,0.14,0.1,0.16,0.17,352.51,352.51,0.0,0.0
1630881753.80011392,136828580,0.16,0.13,0.14,0.13,352.51,352.51,0.0,0.0
1630881753.90007401,136928540,0.17,0.16,0.16,0.13,352.51,352.51,0.0,0.0
1630881754.00003409,137028500,0.17,0.16,0.16,0.13,352.51,352.51,0.0,0.0
1630881754.09999394,137128460,0.14,0.15,0.18,0.15,352.51,352.51,0.0,0.0
1630881754.19995403,137228420,0.15,0.14,0.18,0.17,352.51,352.51,0.0,0.0
1630881754.29991412,137328380,0.19,0.16,0.2,0.19,352.51,352.51,0.0,0.0
1630881754.39987397,137428340,0.2,0.18,0.27,0.23,352.51,352.52,0.0,0.0
1630881754.49983406,137528300,0.21,0.2,0.29,0.29,352.51,352.52,0.0,0.0
1630881754.59979391,137628260,0.23,0.22,0.28,0.29,352.51,352.52,0.0,0.0
1630881754.69975400,137728220,0.23,0.23,0.25,0.27,352.51,352.52,0.0,0.0
1630881754.79971409,137828180,0.22,0.23,0.23,0.24,352.51,352.51,0.0,0.0
1630881754.90050697,137928973,0.22,0.22,0.21,0.21,352.51,352.51,0.0,0.0
1630881755.00046706,138028933,0.2,0.2,0.23,0.2,352.51,352.51,0.0,0.0
1630881755.10042691,138128893,0.18,0.18,0.27,0.23,352.51,352.51,0.0,0.0
1630881755.20038700,138228853,0.17,0.16,0.27,0.25,352.51,352.51,0.0,0.0
1630881755.30034709,138328813,0.18,0.16,0.24,0.25,352.51,352.51,0.0,0.0
1630881755.40030694,138428773,0.2,0.17,0.23,0.23,352.51,352.51,0.0,0.0
1630881755.50026703,138528733,0.24,0.21,0.24,0.23,352.51,352.51,0.0,0.0
1630881755.60022712,138628693,0.26,0.24,0.25,0.23,352.51,352.51,0.0,0.0
1630881755.70018697,138728653,0.28,0.27,0.26,0.24,352.51,352.51,0.0,0.0
1630881755.80014706,138828613,0.27,0.28,0.3,0.27,352.51,352.51,0.0,0.0
1630881755.90010691,138928573,0.25,0.27,0.31,0.29,352.51,352.51,0.0,0.0
1630881756.00006700,139028533,0.24,0.25,0.29,0.29,352.51,352.51,0.0,0.0
1630881756.10002708,139128493,0.25,0.24,0.26,0.27,352.51,352.51,0.0,0.0
1630881756.19998693,139228453,0.27,0.25,0.25,0.23,352.51,352.51,0.0,0.0
1630881756.29994702,139328413,0.26,0.25,0.22,0.21,352.51,352.51,0.0,0.0
1630881756.39990711,139428373,0.22,0.23,0.21,0.19,352.51,352.51,0.0,0.0
1630881756.49986696,139528333,0.19,0.19,0.21,0.19,352.51,352.51,0.0,0.0
1630881756.59982705,139628293,0.18,0.16,0.25,0.2,352.51,352.51,0.0,0.0
1630881756.69978690,139728253,0.21,0.17,0.28,0.25,352.51,352.51,0.0,0.0
1630881756.79974699,139828213,0.26,0.21,0.3,0.28,352.51,352.51,0.0,0.0
1630881756.89970708,139928173,0.28,0.25,0.3,0.3,352.51,352.51,0.0,0.0
1630881757.00049996,140028966,0.26,0.27,0.29,0.29,352.51,352.51,0.0,0.0
1630881757.10046005,140128926,0.21,0.24,0.3,0.29,352.51,352.51,0.0,0.0
1630881757.20041990,140228886,0.15,0.18,0.29,0.29,352.51,352.51,0.0,0.0
1630881757.30037999,140328846,0.14,0.14,0.27,0.27,352.51,352.51,0.0,0.0
1630881757.40034008,140428806,0.15,0.12,0.24,0.24,352.51,352.51,0.0,0.0
1630881757.50029993,140528766,0.16,0.12,0.23,0.22,352.51,352.52,0.0,0.0
1630881757.60026002,140628726,0.19,0.14,0.24,0.21,352.51,352.52,0.0,0.0
1630881757.70022011,140728686,0.22,0.17,0.24,0.22,352.51,352.52,0.0,0.0
1630881757.80017996,140828646,0.22,0.2,0.24,0.22,352.51,352.52,0.0,0.0
1630881757.90014005,140928606,0.23,0.22,0.24,0.23,352.51,352.52,0.0,0.0
1630881758.00009990,141028566,0.23,0.22,0.24,0.23,352.51,352.52,0.0,0.0
1630881758.10005999,141128526,0.22,0.22,0.25,0.24,352.51,352.52,0.0,0.0
1630881758.20002007,141228486,0.19,0.2,0.27,0.25,352.51,352.51,0.0,0.0
1630881758.29997993,141328446,0.2,0.19,0.29,0.28,352.51,352.51,0.0,0.0
1630881758.39994001,141428406,0.2,0.19,0.3,0.3,352.51,352.51,0.0,0.0
1630881758.49990010,141528366,0.19,0.18,0.27,0.3,352.51,352.51,0.0,0.0
1630881758.59985995,141628326,0.17,0.17,0.23,0.26,352.51,352.51,0.0,0.0
1630881758.69982004,141728286,0.15,0.15,0.2,0.22,352.51,352.51,0.0,0.0
1630881758.79978013,141828246,0.14,0.13,0.19,0.19,352.51,352.51,0.0,0.0
1630881758.89973998,141928206,0.17,0.14,0.19,0.18,352.51,352.51,0.0,0.0
1630881758.99970007,142028166,0.2,0.16,0.18,0.17,352.51,352.51,0.0,0.0
1630881759.10049295,142128959,0.22,0.19,0.17,0.16,352.51,352.51,0.0,0.0
1630881759.20045304,142228919,0.24,0.21,0.15,0.14,352.51,352.51,0.0,0.0
1630881759.30041313,142328879,0.27,0.24,0.17,0.14,352.51,352.51,0.0,0.0
1630881759.40037298,142428839,0.27,0.25,0.17,0.15,352.51,352.51,0.0,0.0
1630881759.50033307,142528799,0.28,0.26,0.19,0.16,352.51,352.51,0.0,0.0
1630881759.60029292,142628759,0.27,0.27,0.23,0.19,352.51,352.51,0.0,0.0
1630881759.70025301,142728719,0.25,0.26,0.26,0.23,352.51,352.51,0.0,0.0
1630881759.80021310,142828679,0.23,0.22,0.28,0.26,352.51,352.51,0.0,0.0
1630881759.90017295,142928639,0.27,0.23,0.28,0.27,352.51,352.51,0.0,0.0
1630881760.00013304,143028599,0.29,0.25,0.28,0.28,352.51,352.51,0.0,0.0
1630881760.10009313,143128559,0.27,0.26,0.27,0.28,352.51,352.51,0.0,0.0
1630881760.20005298,143228519,0.24,0.24,0.28,0.27,352.51,352.51,0.0,0.0
1630881760.30001307,143328479,0.21,0.21,0.29,0.28,352.51,352.51,0.0,0.0
1630881760.39997292,143428439,0.21,0.19,0.28,0.28,352.51,352.51,0.0,0.0
1630881760.49993300,143528399,0.21,0.19,0.28,0.27,352.51,352.51,0.0,0.0
1630881760.59989309,143628359,0.23,0.2,0.29,0.28,352.51,352.51,0.0,0.0
1630881760.69985294,143728319,0.26,0.23,0.31,0.29,352.51,352.51,0.0,0.0
1630881760.79981303,143828279,0.23,0.23,0.31,0.3,352.51,352.51,0.0,0.0
1630881760.89977312,143928239,0.2,0.21,0.31,0.3,352.51,352.51,0.0,0.0
1630881760.99973297,144028199,0.17,0.17,0.3,0.29,352.51,352.51,0.0,0.0
1630881761.09969306,144128159,0.14,0.14,0.31,0.29,352.51,352.51,0.0,0.0
1630881761.20048594,144228952,0.14,0.11,0.31,0.29,352.51,352.51,0.0,0.0
1630881761.30044603,144328912,0.15,0.11,0.3,0.29,352.51,352.52,0.0,0.0
1630881761.40040612,144428872,0.16,0.13,0.31,0.28,352.51,352.52,0.0,0.0
1630881761.50036597,144528832,0.16,0.14,0.33,0.3,352.51,352.52,0.0,0.0
1630881761.60032606,144628792,0.16,0.14,0.38,0.34,352.51,352.52,0.0,0.0
1630881761.70028591,144728752,0.19,0.17,0.39,0.38,352.51,352.52,0.0,0.0
1630881761.80024600,144828712,0.23,0.2,0.37,0.38,352.51,352.51,0.0,0.0
1630881761.90020609,144928672,0.27,0.25,0.33,0.35,352.51,352.51,0.0,0.0
1630881762.00016594,145028632,0.29,0.28,0.34,0.32,352.51,352.51,0.0,0.0
1630881762.10012603,145128592,0.28,0.29,0.33,0.32,352.51,352.51,0.0,0.0
1630881762.20008612,145228552,0.28,0.28,0.31,0.29,352.51,352.51,0.0,0.0
1630881762.30004597,145328512,0.27,0.27,0.28,0.27,352.51,352.51,0.0,0.0
1630881762.40000606,145428472,0.26,0.26,0.24,0.23,352.51,352.51,0.0,0.0
1630881762.49996591,145528432,0.24,0.24,0.23,0.21,352.51,352.51,0.0,0.0
1630881762.59992599,145628392,0.23,0.22,0.25,0.21,352.51,352.51,0.0,0.0
1630881762.69988608,145728352,0.23,0.22,0.28,0.24,352.51,352.51,0.0,0.0
1630881762.79984593,145828312,0.24,0.22,0.29,0.28,352.51,352.51,0.0,0.0
1630881762.89980602,145928272,0.32,0.26,0.27,0.28,352.51,352.51,0.0,0.0
1630881762.99976611,146028232,0.63,0.45,0.27,0.27,352.51,352.51,0.0,0.0
1630881763.09972596,146128192,1.2,0.91,0.3,0.28,352.51,352.51,0.0,0.0
1630881763.20051908,146228985,1.97,1.64,0.38,0.33,352.51,352.51,0.0,0.0
1630881763.30047894,146328945,2.85,2.56,0.49,0.43,352.51,352.52,0.0,0.0
1630881763.40043902,146428905,3.8,3.59,0.62,0.56,352.51,352.52,0.0,0.0
1630881763.50039911,146528865,4.68,4.63,0.77,0.72,352.51,352.53,0.0,0.01
1630881763.60035896,146628825,5.38,5.5,0.92,0.89,352.51,352.54,0.0,0.01
1630881763.70031905,146728785,5.93,6.16,1.0,1.03,352.51,352.55,0.0,0.01
1630881763.80027890,146828745,6.4,6.65,1.04,1.09,352.51,352.54,0.0,0.01
1630881763.90023899,146928705,6.86,7.05,1.05,1.11,352.51,352.53,0.0,0.01
1630881764.00019908,147028665,7.31,7.44,1.07,1.11,352.51,352.52,0.0,0.01
1630881764.10015893,147128625,7.69,7.79,1.11,1.12,352.51,352.51,0.0,0.01
1630881764.20011902,147228585,7.96,8.05,1.17,1.14,352.51,352.5,0.0,0.01
1630881764.30007911,147328545,8.16,8.26,1.22,1.19,352.51,352.5,0.0,0.0
1630881764.40003896,147428505,8.34,8.4,1.23,1.22,352.51,352.5,0.0,0.0
1630881764.49999905,147528465,8.51,8.53,1.27,1.25,352.51,352.5,0.0,0.0
1630881764.59995890,147628425,8.72,8.68,1.32,1.31,352.81,352.51,0.0,0.0
1630881764.69991899,147728385,9.04,8.9,1.36,1.55,355.44,352.67,0.0,0.0
1630881764.79987907,147828345,9.45,9.2,1.32,2.07,0.7,353.52,0.0,0.0
1630881764.89983892,147928305,9.92,9.64,1.04,2.57,6.7,355.77,0.0,0.0
1630881764.99979901,148028265,10.41,10.2,0.39,2.56,12.7,359.69,0.0,0.01
1630881765.09975910,148128225,10.81,10.79,-0.71,1.84,18.7,5.12,0.0,0.02
1630881765.19971895,148228185,11.03,11.23,-2.24,0.39,24.7,11.78,0.0,0.02
1630881765.30051208,148328978,10.96,11.38,-4.07,-1.65,30.7,19.37,0.0,0.03
1630881765.40047193,148428938,10.56,11.1,-5.99,-4.07,36.7,27.62,0.0,0.04
1630881765.50043201,148528898,9.82,10.35,-7.87,-6.59,42.7,36.28,0.0,0.04
1630881765.60039210,148628858,8.78,9.12,-9.61,-8.98,48.7,45.12,0.0,0.05
1630881765.70035195,148728818,7.5,7.5,-11.09,-11.02,54.7,53.85,0.0,0.05
1630881765.80031204,148828778,6.07,5.63,-12.28,-12.59,60.7,62.22,0.0,0.06
1630881765.90027213,148928738,4.6,3.73,-13.21,-13.67,66.7,69.99,0.0,0.06
1630881766.00023198,149028698,3.17,1.97,-13.92,-14.32,72.7,77.03,0.0,0.05
1630881766.10019207,149128658,1.82,0.47,-14.45,-14.69,78.71,83.34,0.0,0.05
1630881766.20015192,149228618,0.53,-0.83,-14.79,-14.87,83.73,88.97,0.0,0.05
1630881766.30011201,149328578,-0.67,-2.3,-14.99,-14.94,86.45,93.83,0.0,0.04
1630881766.40007210,149428538,-1.72,-3.85,-15.09,-14.9,87.88,97.55,0.0,0.04
1630881766.50003195,149528498,-2.44,-5.13,-15.17,-14.81,88.64,99.86,0.0,0.03
1630881766.59999204,149628458,-2.71,-5.8,-15.27,-14.74,89.09,100.75,0.0,0.02
1630881766.69995213,149728418,-2.49,-5.69,-15.43,-14.77,89.38,100.41,0.0,0.02
1630881766.79991198,149828378,-1.9,-4.85,-15.63,-14.93,89.62,99.11,0.0,0.02
1630881766.89987206,149928338,-1.12,-3.47,-15.83,-15.19,89.84,97.13,0.0,0.02
1630881766.99983191,150028298,-0.29,-1.83,-16.02,-15.49,90.04,94.77,0.0,0.02
1630881767.09979200,150128258,0.44,-0.17,-16.17,-15.79,90.24,92.35,0.0,0.02
1630881767.19975209,150228218,1.03,1.25,-16.3,-16.04,90.43,90.16,0.0,0.02
1630881767.29971194,150328178,1.41,2.32,-16.37,-16.21,90.6,88.43,0.0,0.02
1630881767.40050507,150428971,1.55,2.92,-16.4,-16.29,90.75,87.3,0.0,0.01
1630881767.50046492,150528931,1.51,3.08,-16.41,-16.31,90.86,86.79,0.0,0.01
1630881767.60042500,150628891,1.35,2.86,-16.41,-16.3,90.96,86.88,0.0,0.01
1630881767.70038509,150728851,1.1,2.38,-16.43,-16.32,91.02,87.45,0.0,0.01
1630881767.80034494,150828811,0.78,1.72,-16.48,-16.36,91.07,88.35,0.0,0.01
1630881767.90030503,150928771,0.44,1.0,-16.52,-16.41,91.09,89.42,0.0,0.01
1630881768.00026512,151028731,0.14,0.28,-16.57,-16.48,91.11,90.52,0.0,0.01
1630881768.10022497,151128691,-0.07,-0.3,-16.65,-16.57,91.12,91.52,0.0,0.01
1630881768.20018506,151228651,-0.18,-0.71,-16.71,-16.66,91.12,92.31,0.0,0.01
1630881768.30014491,151328611,-0.23,-0.93,-16.78,-16.74,91.13,92.84,0.0,0.01
1630881768.40010500,151428571,-0.21,-0.96,-16.83,-16.81,91.14,93.11,0.0,0.0
1630881768.50006509,151528531,-0.12,-0.85,-16.86,-16.86,91.16,93.12,0.0,0.0
1630881768.60002494,151628491,0.01,-0.63,-16.88,-16.88,91.17,92.93,0.0,0.01
1630881768.69998503,151728451,0.18,-0.32,-16.89,-16.89,91.19,92.59,0.0,0.01
1630881768.79994512,151828411,0.31,0.0,-16.9,-16.89,91.22,92.16,0.0,0.01
1630881768.89990497,151928371,0.42,0.27,-16.95,-16.92,91.24,91.73,0.0,0.01
1630881768.99986506,152028331,0.5,0.51,-16.99,-16.96,91.26,91.33,0.0,0.01
1630881769.09982491,152128291,0.55,0.68,-17.03,-17.0,91.27,91.01,0.0,0.01
1630881769.19978499,152228251,0.56,0.76,-17.06,-17.04,91.28,90.79,0.0,0.01
1630881769.29974508,152328211,0.55,0.78,-17.1,-17.08,91.29,90.68,0.0,0.01
1630881769.39970493,152428171,0.53,0.73,-17.14,-17.12,91.29,90.67,0.0,0.01
1630881769.50049806,152528964,0.49,0.67,-17.15,-17.15,91.29,90.75,0.0,0.01
1630881769.60045791,152628924,0.44,0.57,-17.16,-17.16,91.28,90.89,0.0,0.01
1630881769.70041800,152728884,0.4,0.46,-17.19,-17.18,91.27,91.06,0.0,0.01
1630881769.80037808,152828844,0.35,0.35,-17.24,-17.23,91.27,91.23,0.0,0.01
1630881769.90033793,152928804,0.32,0.26,-17.28,-17.27,91.25,91.39,0.0,0.01
1630881770.00029802,153028764,0.3,0.19,-17.3,-17.3,91.24,91.52,0.0,0.01
1630881770.10025811,153128724,0.27,0.14,-17.31,-17.32,91.23,91.6,0.0,0.01
1630881770.20021796,153228684,0.26,0.11,-17.31,-17.32,91.21,91.64,0.0,0.01
1630881770.30017805,153328644,0.26,0.11,-17.3,-17.31,91.2,91.64,0.0,0.01
1630881770.40013790,153428604,0.29,0.13,-17.33,-17.33,91.18,91.59,0.0,0.01
1630881770.50009799,153528564,0.32,0.19,-17.37,-17.36,91.17,91.52,0.0,0.01
1630881770.60005808,153628524,0.36,0.25,-17.41,-17.41,91.15,91.43,0.0,0.01
1630881770.70001793,153728484,0.38,0.31,-17.45,-17.45,91.14,91.33,0.0,0.01
1630881770.79997802,153828444,0.38,0.35,-17.49,-17.49,91.12,91.24,0.0,0.01
1630881770.89993811,153928404,0.39,0.37,-17.55,-17.54,91.11,91.16,0.0,0.01
1630881770.99989796,154028364,0.42,0.41,-17.58,-17.59,91.09,91.1,0.0,0.01
1630881771.09985805,154128324,0.45,0.45,-17.59,-17.61,91.07,91.05,0.0,0.01
1630881771.19981790,154228284,0.44,0.45,-17.57,-17.61,91.06,91.03,0.0,0.01
1630881771.29977798,154328244,0.43,0.44,-17.56,-17.59,91.04,91.02,0.0,0.01
1630881771.39973807,154428204,0.41,0.41,-17.59,-17.59,91.02,91.02,0.0,0.01
1630881771.49969792,154528164,0.38,0.37,-17.61,-17.6,91.0,91.03,0.0,0.01
1630881771.60049105,154628957,0.38,0.33,-17.62,-17.62,90.98,91.04,0.0,0.01
1630881771.70045090,154728917,0.38,0.32,-17.63,-17.64,90.96,91.05,0.0,0.01
1630881771.80041099,154828877,0.38,0.32,-17.65,-17.66,90.94,91.05,0.0,0.01
1630881771.90037107,154928837,0.38,0.32,-17.69,-17.69,90.92,91.05,0.0,0.01
1630881772.00033092,155028797,0.4,0.34,-17.71,-17.72,90.9,91.04,0.0,0.01
1630881772.10029101,155128757,0.43,0.38,-17.74,-17.75,90.89,91.03,0.0,0.01
1630881772.20025110,155228717,0.43,0.39,-17.74,-17.76,90.87,91.01,0.0,0.01
1630881772.30021095,155328677,0.42,0.4,-17.73,-17.75,90.85,90.98,0.0,0.01
1630881772.40017104,155428637,0.41,0.39,-17.72,-17.74,90.84,90.96,0.0,0.01
1630881772.50013113,155528597,0.4,0.38,-17.72,-17.72,90.82,90.92,0.0,0.01
1630881772.60009098,155628557,0.41,0.37,-17.74,-17.73,90.8,90.89,0.0,0.01
1630881772.70005107,155728517,0.4,0.36,-17.77,-17.75,90.78,90.86,0.0,0.01
1630881772.80001092,155828477,0.4,0.35,-17.8,-17.79,90.77,90.84,0.0,0.01
1630881772.89997101,155928437,0.42,0.37,-17.83,-17.83,90.75,90.81,0.0,0.01
1630881772.99993110,156028397,0.43,0.39,-17.83,-17.86,90.73,90.79,0.0,0.01
1630881773.09989095,156128357,0.44,0.41,-17.8,-17.84,90.72,90.77,0.0,0.01
1630881773.19985104,156228317,0.43,0.42,-17.78,-17.82,90.7,90.75,0.0,0.01
1630881773.29981112,156328277,0.43,0.41,-17.79,-17.81,90.69,90.74,0.0,0.01
1630881773.39977098,156428237,0.43,0.4,-17.8,-17.8,90.67,90.73,0.0,0.01
1630881773.49973106,156528197,0.46,0.41,-17.81,-17.81,90.66,90.72,0.0,0.01
1630881773.59969091,156628157,0.47,0.44,-17.83,-17.82,90.65,90.72,0.0,0.0
1630881773.70048404,156728950,0.49,0.46,-17.86,-17.85,90.64,90.71,0.0,0.0
1630881773.80044413,156828910,0.48,0.46,-17.88,-17.88,90.63,90.7,0.0,0.0
1630881773.90040398,156928870,0.46,0.45,-17.89,-17.9,90.62,90.69,0.0,0.0
1630881774.00036407,157028830,0.46,0.43,-17.89,-17.91,90.61,90.69,0.0,0.0
1630881774.10032392,157128790,0.48,0.44,-17.89,-17.91,90.61,90.68,0.0,0.0
1630881774.20028400,157228750,0.48,0.45,-17.88,-17.91,90.6,90.67,0.0,0.0
1630881774.30024409,157328710,0.47,0.45,-17.89,-17.91,90.59,90.66,0.0,0.0
1630881774.40020394,157428670,0.48,0.45,-17.88,-17.91,90.58,90.65,0.0,0.0
1630881774.50016403,157528630,0.5,0.46,-17.88,-17.9,90.57,90.65,0.0,0.0
1630881774.60012412,157628590,0.52,0.47,-17.89,-17.9,90.57,90.64,0.0,0.0
1630881774.70008397,157728550,0.54,0.49,-17.9,-17.91,90.56,90.63,0.0,0.0
1630881774.80004406,157828510,0.56,0.52,-17.91,-17.92,90.55,90.62,0.0,0.0
1630881774.90000391,157928470,0.55,0.54,-17.97,-17.96,90.54,90.61,0.0,0.0
1630881774.99996400,158028430,0.54,0.53,-17.99,-17.99,90.54,90.6,0.0,0.0
1630881775.09992409,158128390,0.55,0.53,-17.97,-17.99,90.53,90.59,0.0,0.0
1630881775.19988394,158228350,0.57,0.54,-17.92,-17.97,90.53,90.58,0.0,0.0
1630881775.29984403,158328310,0.56,0.55,-17.91,-17.94,90.52,90.58,0.0,0.0
1630881775.39980412,158428270,0.55,0.55,-17.91,-17.92,90.52,90.57,0.0,0.0
1630881775.49976397,158528230,0.54,0.55,-17.93,-17.91,90.51,90.56,0.0,0.0
1630881775.59972405,158628190,0.53,0.54,-17.95,-17.92,90.5,90.55,0.0,0.0
1630881775.70051694,158728983,0.54,0.52,-17.96,-17.95,90.5,90.55,0.0,0.0
1630881775.80047703,158828943,0.56,0.53,-17.96,-17.96,90.49,90.55,0.0,0.0
1630881775.90043712,158928903,0.54,0.53,-17.97,-17.98,90.49,90.54,0.0,0.0
1630881776.00039697,159028863,0.54,0.51,-18.0,-18.0,90.48,90.54,0.0,0.0
1630881776.10035706,159128823,0.54,0.51,-18.02,-18.04,90.48,90.53,0.0,0.0
1630881776.20031691,159228783,0.54,0.51,-18.01,-18.05,90.47,90.53,0.0,0.0
1630881776.30027699,159328743,0.57,0.51,-18.01,-18.05,90.47,90.53,0.0,0.0
1630881776.40023708,159428703,0.63,0.55,-18.0,-18.04,90.47,90.53,0.0,0.0
1630881776.50019693,159528663,0.68,0.61,-17.96,-18.02,90.47,90.52,0.0,0.0
1630881776.60015702,159628623,0.66,0.65,-17.91,-17.96,90.47,90.52,0.0,0.0
1630881776.70011711,159728583,0.65,0.65,-17.91,-17.92,90.47,90.52,0.0,0.0
1630881776.80007696,159828543,0.63,0.63,-17.94,-17.93,90.47,90.52,0.0,0.0
1630881776.90003705,159928503,0.61,0.61,-17.97,-17.96,90.47,90.52,0.0,0.0
1630881776.99999690,160028463,0.6,0.59,-17.98,-17.99,90.47,90.52,0.0,0.0
1630881777.09995699,160128423,0.56,0.56,-18.0,-18.01,90.46,90.52,0.0,0.0
1630881777.19991708,160228383,0.53,0.51,-18.01,-18.03,90.46,90.52,0.0,0.0
1630881777.29987693,160328343,0.55,0.51,-18.02,-18.04,90.46,90.52,0.0,0.0
1630881777.39983702,160428303,0.59,0.54,-18.03,-18.05,90.45,90.51,0.0,0.0
1630881777.49979711,160528263,0.61,0.58,-18.01,-18.04,90.45,90.51,0.0,0.0
1630881777.59975696,160628223,0.61,0.61,-17.99,-18.01,90.45,90.5,0.0,0.0
1630881777.69971704,160728183,0.59,0.61,-17.99,-17.99,90.45,90.5,0.0,0.0
1630881777.80050993,160828976,0.56,0.57,-18.02,-18.01,90.45,90.5,0.0,0.0
1630881777.90047002,160928936,0.57,0.55,-18.04,-18.03,90.45,90.5,0.0,0.0
1630881778.00043011,161028896,0.61,0.56,-18.03,-18.04,90.45,90.5,0.0,0.0
1630881778.10038996,161128856,0.66,0.6,-18.02,-18.04,90.45,90.49,0.0,0.0
1630881778.20035005,161228816,0.69,0.65,-18.01,-18.03,90.45,90.49,0.0,0.0
1630881778.30030990,161328776,0.69,0.67,-18.02,-18.02,90.46,90.49,0.0,0.0
1630881778.40026999,161428736,0.68,0.68,-18.02,-18.03,90.46,90.49,0.0,0.0
1630881778.50023007,161528696,0.63,0.65,-18.01,-18.03,90.46,90.5,0.0,0.0
1630881778.60018992,161628656,0.59,0.6,-18.01,-18.03,90.46,90.51,0.0,0.0
1630881778.70015001,161728616,0.6,0.57,-18.02,-18.03,90.47,90.51,0.0,0.0
1630881778.80011010,161828576,0.66,0.59,-18.03,-18.04,90.47,90.52,0.0,0.0
1630881778.90006995,161928536,0.69,0.64,-18.04,-18.04,90.47,90.52,0.0,0.0
1630881779.00003004,162028496,0.67,0.66,-18.06,-18.06,90.47,90.52,0.0,0.0
1630881779.09999013,162128456,0.67,0.65,-18.08,-18.09,90.47,90.52,0.0,0.0
1630881779.19994998,162228416,0.69,0.65,-18.07,-18.1,90.48,90.52,0.0,0.0
1630881779.29991007,162328376,0.69,0.65,-18.04,-18.09,90.48,90.52,0.0,0.0
1630881779.39986992,162428336,0.67,0.65,-18.02,-18.07,90.48,90.52,0.0,0.0
1630881779.49983001,162528296,0.65,0.64,-18.03,-18.05,90.48,90.53,0.0,0.0
1630881779.59979010,162628256,0.65,0.62,-18.06,-18.06,90.49,90.53,0.0,0.0
1630881779.69974995,162728216,0.65,0.63,-18.08,-18.08,90.49,90.53,0.0,0.0
1630881779.79971004,162828176,0.65,0.62,-18.08,-18.1,90.49,90.53,0.0,0.0
1630881779.90050292,162928969,0.65,0.63,-18.06,-18.09,90.49,90.53,0.0,0.0
1630881780.00046301,163028929,0.66,0.64,-18.08,-18.09,90.5,90.53,0.0,0.0
1630881780.10042310,163128889,0.68,0.66,-18.1,-18.11,90.5,90.53,0.0,0.0
1630881780.20038295,163228849,0.7,0.68,-18.11,-18.13,90.5,90.53,0.0,0.0
1630881780.30034304,163328809,0.72,0.7,-18.08,-18.12,90.5,90.54,0.0,0.0
1630881780.40030313,163428769,0.71,0.7,-18.05,-18.09,90.51,90.54,0.0,0.0
1630881780.50026298,163528729,0.7,0.69,-18.02,-18.05,90.51,90.54,0.0,0.0
1630881780.60022306,163628689,0.7,0.68,-17.99,-18.01,90.51,90.55,0.0,0.0
1630881780.70018291,163728649,0.7,0.68,-18.0,-17.99,90.51,90.55,0.0,0.0
1630881780.80014300,163828609,0.71,0.68,-18.03,-18.01,90.51,90.55,0.0,0.0
1630881780.90010309,163928569,0.71,0.69,-18.06,-18.05,90.51,90.55,0.0,0.0
1630881781.00006294,164028529,0.72,0.7,-18.06,-18.08,90.51,90.55,0.0,0.0
1630881781.10002303,164128489,0.72,0.71,-18.06,-18.09,90.52,90.55,0.0,0.0
1630881781.19998312,164228449,0.71,0.7,-18.05,-18.09,90.52,90.55,0.0,0.0
1630881781.29994297,164328409,0.72,0.69,-18.04,-18.08,90.52,90.54,0.0,0.0
1630881781.39990306,164428369,0.73,0.7,-18.06,-18.08,90.52,90.54,0.0,0.0
1630881781.49986291,164528329,0.75,0.71,-18.05,-18.07,90.53,90.55,0.0,0.0
1630881781.59982300,164628289,0.77,0.74,-18.06,-18.07,90.53,90.55,0.0,0.0
1630881781.69978309,164728249,0.78,0.76,-18.08,-18.07,90.54,90.55,0.0,0.0
1630881781.79974294,164828209,0.78,0.77,-18.11,-18.1,90.54,90.56,0.0,0.0
1630881781.89970303,164928169,0.75,0.75,-18.13,-18.13,90.55,90.57,0.0,0.0
1630881782.00049591,165028962,0.75,0.73,-18.14,-18.15,90.55,90.57,0.0,0.0
1630881782.10045600,165128922,0.76,0.73,-18.14,-18.16,90.55,90.58,0.0,0.0
1630881782.20041609,165228882,0.77,0.74,-18.13,-18.16,90.56,90.58,0.0,0.0
1630881782.30037594,165328842,0.77,0.75,-18.14,-18.16,90.56,90.59,0.0,0.0
1630881782.40033603,165428802,0.74,0.72,-18.15,-18.17,90.57,90.59,0.0,0.0
1630881782.50029612,165528762,0.73,0.71,-18.15,-18.16,90.57,90.6,0.0,0.0
1630881782.60025597,165628722,0.75,0.71,-18.15,-18.17,90.57,90.6,0.0,0.0
1630881782.70021605,165728682,0.76,0.73,-18.17,-18.18,90.57,90.6,0.0,0.0
1630881782.80017591,165828642,0.77,0.75,-18.17,-18.19,90.58,90.6,0.0,0.0
1630881782.90013599,165928602,0.77,0.75,-18.14,-18.17,90.58,90.61,0.0,0.0
1630881783.00009608,166028562,0.77,0.75,-18.1,-18.13,90.58,90.61,0.0,0.0
1630881783.10005593,166128522,0.78,0.76,-18.08,-18.09,90.58,90.62,0.0,0.0
1630881783.20001602,166228482,0.78,0.76,-18.08,-18.08,90.59,90.62,0.0,0.0
1630881783.29997611,166328442,0.78,0.76,-18.11,-18.1,90.59,90.62,0.0,0.0
1630881783.39993596,166428402,0.81,0.77,-18.12,-18.13,90.59,90.62,0.0,0.0
1630881783.49989605,166528362,0.81,0.8,-18.1,-18.13,90.6,90.62,0.0,0.0
1630881783.59985590,166628322,0.82,0.82,-18.07,-18.12,90.6,90.63,0.0,0.0
1630881783.69981599,166728282,0.83,0.84,-18.02,-18.07,90.6,90.63,0.0,0.0
1630881783.79977608,166828242,0.82,0.83,-18.01,-18.03,90.61,90.63,0.0,0.0
1630881783.89973593,166928202,0.81,0.81,-18.0,-18.01,90.61,90.63,0.0,0.0
1630881783.99969602,167028162,0.78,0.77,-18.01,-18.01,90.61,90.64,0.0,0.0
1630881784.10048890,167128955,0.78,0.75,-18.04,-18.03,90.61,90.64,0.0,0.0
1630881784.20044899,167228915,0.79,0.75,-18.05,-18.06,90.61,90.63,0.0,0.0
1630881784.30040908,167328875,0.78,0.75,-18.05,-18.07,90.61,90.63,0.0,0.0
1630881784.40036893,167428835,0.79,0.75,-18.06,-18.07,90.61,90.63,0.0,0.0
1630881784.50032902,167528795,0.81,0.77,-18.05,-18.07,90.61,90.63,0.0,0.0
1630881784.60028911,167628755,0.81,0.8,-18.01,-18.05,90.61,90.63,0.0,0.0
1630881784.70024896,167728715,0.84,0.83,-18.0,-18.02,90.61,90.62,0.0,0.0
1630881784.80020905,167828675,0.87,0.86,-18.02,-18.01,90.61,90.62,0.0,0.0
1630881784.90016890,167928635,0.86,0.86,-18.05,-18.03,90.61,90.62,0.0,0.0
1630881785.00012898,168028595,0.86,0.86,-18.09,-18.07,90.61,90.61,0.0,0.0
1630881785.10008907,168128555,0.83,0.85,-18.12,-18.12,90.6,90.61,0.0,0.0
1630881785.20004892,168228515,0.81,0.81,-18.11,-18.14,90.6,90.61,0.0,0.0
1630881785.30000901,168328475,0.79,0.79,-18.1,-18.14,90.6,90.61,0.0,0.0
1630881785.39996910,168428435,0.8,0.77,-18.1,-18.13,90.59,90.61,0.0,0.0
1630881785.49992895,168528395,0.82,0.77,-18.09,-18.12,90.59,90.61,0.0,0.0
1630881785.59988904,168628355,0.86,0.81,-18.08,-18.1,90.59,90.61,0.0,0.0
1630881785.69984913,168728315,0.86,0.84,-18.09,-18.1,90.58,90.61,0.0,0.0
1630881785.79980898,168828275,0.85,0.85,-18.09,-18.1,90.58,90.6,0.0,0.0
1630881785.89976907,168928235,0.85,0.84,-18.08,-18.09,90.58,90.6,0.0,0.0
1630881785.99972892,169028195,0.85,0.84,-18.06,-18.08,90.58,90.6,0.0,0.0
1630881786.09968901,169128155,0.85,0.84,-18.05,-18.05,90.58,90.59,0.0,0.0
1630881786.20048213,169228948,0.84,0.83,-18.06,-18.07,90.58,90.59,0.0,0.0
1630881786.30044198,169328908,0.85,0.82,-18.06,-18.08,90.58,90.59,0.0,0.0
1630881786.40040207,169428868,0.83,0.81,-18.06,-18.09,90.58,90.59,0.0,0.0
1630881786.50036192,169528828,0.83,0.8,-18.05,-18.09,90.58,90.59,0.0,0.0
1630881786.60032201,169628788,0.84,0.81,-18.03,-18.07,90.58,90.59,0.0,0.0
1630881786.70028210,169728748,0.86,0.83,-18.03,-18.05,90.58,90.59,0.0,0.0
1630881786.80024195,169828708,0.89,0.86,-18.04,-18.05,90.58,90.59,0.0,0.0
1630881786.90020204,169928668,0.92,0.9,-18.06,-18.06,90.58,90.59,0.0,0.0
1630881787.00016212,170028628,0.92,0.92,-18.07,-18.08,90.58,90.59,0.0,0.0
1630881787.10012197,170128588,0.91,0.92,-18.07,-18.09,90.58,90.59,0.0,0.0
1630881787.20008206,170228548,0.9,0.9,-18.08,-18.1,90.58,90.59,0.0,0.0
1630881787.30004191,170328508,0.9,0.89,-18.09,-18.1,90.58,90.59,0.0,0.0
1630881787.40000200,170428468,0.9,0.89,-18.11,-18.12,90.58,90.59,0.0,0.0
1630881787.49996209,170528428,0.87,0.87,-18.13,-18.13,90.58,90.6,0.0,0.0
1630881787.59992194,170628388,0.84,0.83,-18.14,-18.16,90.58,90.6,0.0,0.0
1630881787.69988203,170728348,0.83,0.8,-18.13,-18.16,90.58,90.6,0.0,0.0
1630881787.79984212,170828308,0.84,0.79,-18.13,-18.15,90.58,90.61,0.0,0.0
1630881787.89980197,170928268,0.85,0.81,-18.15,-18.16,90.58,90.6,0.0,0.0
1630881787.99976206,171028228,0.89,0.84,-18.16,-18.17,90.58,90.6,0.0,0.0
1630881788.09972191,171128188,0.9,0.87,-18.13,-18.16,90.58,90.6,0.0,0.0
1630881788.20051503,171228981,0.9,0.89,-18.1,-18.13,90.58,90.59,0.0,0.0
1630881788.30047512,171328941,0.91,0.9,-18.1,-18.11,90.58,90.59,0.0,0.0
1630881788.40043497,171428901,0.9,0.89,-18.1,-18.11,90.58,90.59,0.0,0.0
1630881788.50039506,171528861,0.88,0.88,-18.08,-18.1,90.58,90.58,0.0,0.0
1630881788.60035491,171628821,0.87,0.86,-18.07,-18.09,90.58,90.58,0.0,0.0
1630881788.70031500,171728781,0.89,0.86,-18.07,-18.09,90.57,90.58,0.0,0.0
1630881788.80027509,171828741,0.9,0.88,-18.05,-18.07,90.57,90.58,0.0,0.0
1630881788.90023494,171928701,0.87,0.88,-18.03,-18.05,90.57,90.59,0.0,0.0
1630881789.00019503,172028661,0.82,0.84,-18.03,-18.04,90.57,90.59,0.0,0.0
1630881789.10015512,172128621,0.8,0.79,-18.05,-18.04,90.57,90.59,0.0,0.0
1630881789.20011497,172228581,0.8,0.76,-18.09,-18.06,90.57,90.59,0.0,0.0
1630881789.30007505,172328541,0.82,0.77,-18.11,-18.1,90.57,90.59,0.0,0.0
1630881789.40003490,172428501,0.83,0.8,-18.12,-18.12,90.56,90.58,0.0,0.0
1630881789.49999499,172528461,0.87,0.83,-18.13,-18.14,90.56,90.58,0.0,0.0
1630881789.59995508,172628421,0.9,0.88,-18.13,-18.16,90.56,90.57,0.0,0.0
1630881789.69991493,172728381,0.89,0.9,-18.11,-18.16,90.56,90.57,0.0,0.0
1630881789.79987502,172828341,0.9,0.91,-18.1,-18.15,90.56,90.57,0.0,0.0
1630881789.89983511,172928301,0.92,0.91,-18.09,-18.13,90.56,90.57,0.0,0.0
1630881789.99979496,173028261,0.92,0.91,-18.11,-18.14,90.57,90.57,0.0,0.0
1630881790.09975505,173128221,0.91,0.91,-18.1,-18.13,90.57,90.57,0.0,0.0
1630881790.19971490,173228181,0.9,0.89,-18.07,-18.11,90.57,90.57,0.0,0.0
1630881790.30050802,173328974,0.91,0.89,-18.06,-18.08,90.57,90.57,0.0,0.0
1630881790.40046811,173428934,0.9,0.88,-18.07,-18.08,90.57,90.57,0.0,0.0
1630881790.50042796,173528894,0.87,0.87,-18.09,-18.09,90.57,90.58,0.0,0.0
1630881790.60038805,173628854,0.87,0.85,-18.08,-18.09,90.57,90.58,0.0,0.0
1630881790.70034790,173728814,0.9,0.86,-18.06,-18.08,90.57,90.58,0.0,0.0
1630881790.80030799,173828774,0.91,0.88,-18.06,-18.07,90.57,90.58,0.0,0.0
1630881790.90026808,173928734,0.92,0.9,-18.08,-18.07,90.57,90.58,0.0,0.0
1630881791.00022793,174028694,0.94,0.92,-18.1,-18.09,90.57,90.58,0.0,0.0
1630881791.10018802,174128654,0.94,0.93,-18.1,-18.11,90.57,90.58,0.0,0.0
1630881791.20014811,174228614,0.94,0.93,-18.11,-18.12,90.58,90.57,0.0,0.0
1630881791.30010796,174328574,0.95,0.94,-18.12,-18.13,90.58,90.57,0.0,0.0
1630881791.40006804,174428534,0.95,0.94,-18.12,-18.14,90.58,90.58,0.0,0.0
1630881791.50002789,174528494,0.96,0.94,-18.1,-18.14,90.58,90.58,0.0,0.0
1630881791.59998798,174628454,0.97,0.95,-18.09,-18.12,90.58,90.58,0.0,0.0
1630881791.69994807,174728414,0.96,0.96,-18.08,-18.1,90.59,90.59,0.0,0.0
1630881791.79990792,174828374,0.97,0.96,-18.09,-18.1,90.59,90.59,0.0,0.0
1630881791.89986801,174928334,0.98,0.96,-18.11,-18.1,90.59,90.6,0.0,0.0
1630881791.99982810,175028294,0.98,0.97,-18.13,-18.12,90.59,90.6,0.0,0.0
1630881792.09978795,175128254,0.97,0.96,-18.15,-18.14,90.59,90.6,0.0,0.0
1630881792.19974804,175228214,0.95,0.94,-18.15,-18.16,90.6,90.61,0.0,0.0
1630881792.29970813,175328174,0.96,0.93,-18.13,-18.17,90.6,90.61,0.0,0.0
1630881792.40050101,175428967,0.94,0.91,-18.1,-18.15,90.6,90.61,0.0,0.0
1630881792.50046110,175528927,0.95,0.92,-18.09,-18.12,90.6,90.61,0.0,0.0
1630881792.60042095,175628887,0.97,0.93,-18.1,-18.11,90.6,90.61,0.0,0.0
1630881792.70038104,175728847,0.97,0.96,-18.11,-18.12,90.6,90.61,0.0,0.0
1630881792.80034113,175828807,0.94,0.94,-18.11,-18.13,90.6,90.6,0.0,0.0
1630881792.90030098,175928767,0.94,0.93,-18.09,-18.11,90.6,90.6,0.0,0.0
1630881793.00026107,176028727,0.94,0.92,-18.09,-18.1,90.6,90.6,0.0,0.0
1630881793.10022092,176128687,0.96,0.93,-18.1,-18.09,90.6,90.6,0.0,0.0
1630881793.20018101,176228647,1.01,0.96,-18.11,-18.11,90.6,90.6,0.0,0.0
1630881793.30014110,176328607,1.03,1.0,-18.09,-18.1,90.6,90.6,0.0,0.01
1630881793.40010095,176428567,1.04,1.03,-18.08,-18.1,90.61,90.6,0.0,0.01
1630881793.50006104,176528527,1.05,1.04,-18.08,-18.09,90.61,90.6,0.0,0.01
1630881793.60002112,176628487,1.03,1.04,-18.08,-18.1,90.61,90.61,0.0,0.01
1630881793.69998097,176728447,1.01,1.02,-18.1,-18.12,90.61,90.61,0.0,0.01
1630881793.79994106,176828407,1.03,1.01,-18.1,-18.12,90.61,90.61,0.0,0.01
1630881793.89990091,176928367,1.05,1.03,-18.13,-18.13,90.61,90.62,0.0,0.01
1630881793.99986100,177028327,1.02,1.02,-18.13,-18.15,90.61,90.62,0.0,0.01
1630881794.09982109,177128287,1.0,0.99,-18.11,-18.14,90.61,90.62,0.0,0.01
1630881794.19978094,177228247,1.03,0.99,-18.11,-18.13,90.61,90.62,0.0,0.01
1630881794.29974103,177328207,1.05,1.01,-18.12,-18.13,90.61,90.63,0.0,0.01
1630881794.39970112,177428167,1.08,1.04,-18.13,-18.14,90.62,90.63,0.0,0.01
1630881794.50049400,177528960,1.1,1.07,-18.13,-18.15,90.62,90.63,0.0,0.01
1630881794.60045409,177628920,1.1,1.09,-18.12,-18.15,90.62,90.62,0.0,0.01
1630881794.70041394,177728880,1.07,1.08,-18.13,-18.15,90.61,90.62,0.0,0.01
1630881794.80037403,177828840,1.03,1.03,-18.12,-18.15,90.61,90.62,0.0,0.01
1630881794.90033412,177928800,1.0,1.0,-18.12,-18.14,90.61,90.61,0.0,0.01
1630881795.00029397,178028760,0.99,0.97,-18.12,-18.14,90.61,90.61,0.0,0.01
1630881795.10025406,178128720,1.0,0.97,-18.14,-18.14,90.6,90.6,0.0,0.01
1630881795.20021391,178228680,1.02,0.99,-18.18,-18.18,90.6,90.6,0.0,0.01
1630881795.30017400,178328640,1.02,1.02,-18.19,-18.21,90.59,90.59,0.0,0.01
1630881795.40013409,178428600,1.01,1.01,-18.17,-18.21,90.59,90.59,0.0,0.01
1630881795.50009394,178528560,1.02,1.01,-18.14,-18.19,90.59,90.58,0.0,0.01
1630881795.60005403,178628520,1.02,1.02,-18.14,-18.16,90.58,90.58,0.0,0.01
1630881795.70001411,178728480,1.02,1.02,-18.15,-18.14,90.58,90.57,0.0,0.01
1630881795.79997396,178828440,1.02,1.01,-18.18,-18.16,90.58,90.57,0.0,0.01
1630881795.89993405,178928400,1.02,1.01,-18.18,-18.18,90.58,90.57,0.0,0.01
1630881795.99989390,179028360,1.0,1.0,-18.17,-18.2,90.57,90.56,0.0,0.01
1630881796.09985399,179128320,0.99,0.99,-18.15,-18.19,90.57,90.57,0.0,0.01
1630881796.19981408,179228280,0.98,0.97,-18.12,-18.16,90.57,90.57,0.0,0.01
1630881796.29977393,179328240,0.99,0.97,-18.08,-18.11,90.56,90.57,0.0,0.01
1630881796.39973402,179428200,1.02,0.99,-18.06,-18.07,90.56,90.56,0.0,0.01
1630881796.49969411,179528160,1.07,1.04,-18.06,-18.05,90.56,90.56,0.0,0.01
1630881796.60048699,179628953,1.08,1.07,-18.07,-18.06,90.56,90.56,0.0,0.01
1630881796.70044708,179728913,1.05,1.07,-18.07,-18.08,90.55,90.55,0.0,0.01
1630881796.80040693,179828873,1.03,1.05,-18.06,-18.09,90.55,90.55,0.0,0.01
1630881796.90036702,179928833,1.0,1.02,-18.06,-18.09,90.54,90.54,0.0,0.01
1630881797.00032711,180028793,0.99,0.99,-18.07,-18.1,90.54,90.54,0.0,0.01
1630881797.10028696,180128753,0.99,0.97,-18.04,-18.07,90.53,90.53,0.0,0.01
1630881797.20024705,180228713,1.02,0.98,-18.01,-18.04,90.53,90.53,0.0,0.01
1630881797.30020690,180328673,1.05,1.01,-18.03,-18.02,90.53,90.53,0.0,0.01
1630881797.40016699,180428633,1.07,1.04,-18.08,-18.06,90.53,90.52,0.0,0.01
1630881797.50012708,180528593,1.1,1.07,-18.11,-18.11,90.52,90.52,0.0,0.01
1630881797.60008693,180628553,1.08,1.09,-18.07,-18.11,90.52,90.52,0.0,0.01
1630881797.70004702,180728513,1.04,1.07,-18.0,-18.06,90.52,90.51,0.0,0.01
1630881797.80000710,180828473,1.0,1.02,-17.96,-18.0,90.52,90.51,0.0,0.01
1630881797.89996696,180928433,1.03,1.01,-17.97,-17.97,90.52,90.51,0.0,0.01
1630881797.99992704,181028393,1.05,1.02,-18.04,-18.0,90.52,90.5,0.0,0.01
1630881798.09988713,181128353,1.05,1.04,-18.13,-18.09,90.52,90.5,0.0,0.01
1630881798.19984698,181228313,1.05,1.04,-18.17,-18.18,90.52,90.5,0.0,0.01
1630881798.29980707,181328273,1.03,1.03,-18.16,-18.21,90.51,90.5,0.0,0.01
1630881798.39976692,181428233,1.02,1.02,-18.12,-18.2,90.51,90.51,0.0,0.01
1630881798.49972701,181528193,1.03,1.01,-18.01,-18.11,90.51,90.51,0.0,0.01
1630881798.60051990,181628986,1.03,1.01,-17.89,-17.97,90.51,90.51,0.0,0.01
1630881798.70047998,181728946,1.04,1.02,-17.84,-17.86,90.51,90.52,0.0,0.01
1630881798.80044007,181828906,1.04,1.02,-17.86,-17.82,90.51,90.52,0.0,0.0
1630881798.90039992,181928866,1.07,1.03,-17.97,-17.88,90.52,90.52,0.0,0.01
1630881799.00036001,182028826,1.1,1.06,-18.1,-18.01,90.52,90.52,0.0,0.01
1630881799.10032010,182128786,1.13,1.1,-18.17,-18.15,90.53,90.51,0.0,0.01
