timestamp,TimeUS,DesRoll,Roll,DesPitch,Pitch,DesYaw,Yaw,ErrRP,ErrYaw
1630607855.00000000,82028842,0.0,0.15,0.0,0.13,353.03,353.04,0.0,0.0
1630607855.09996009,82128802,0.0,0.15,0.0,0.13,353.03,353.04,0.0,0.0
1630607855.19991994,82228762,0.0,0.15,0.0,0.13,353.03,353.04,0.0,0.0
1630607855.29988003,82328722,0.0,0.15,0.0,0.13,353.03,353.04,0.0,0.0
1630607855.39984012,82428682,0.0,0.15,0.0,0.13,353.03,353.04,0.0,0.0
1630607855.49979997,82528642,0.0,0.15,0.0,0.13,353.03,353.04,0.0,0.0
1630607855.59976006,82628602,0.0,0.15,0.0,0.13,353.03,353.04,0.0,0.0
1630607855.69972014,82728562,0.0,0.15,0.0,0.13,353.03,353.04,0.0,0.0
1630607855.79967999,82828522,0.0,0.15,0.0,0.13,353.03,353.04,0.0,0.0
1630607855.89964008,82928482,0.0,0.15,0.0,0.13,353.03,353.04,0.0,0.0
1630607855.99959993,83028442,0.0,0.15,0.0,0.13,353.03,353.04,0.0,0.0
1630607856.09956002,83128402,0.0,0.15,0.0,0.13,353.03,353.04,0.0,0.0
1630607856.19952011,83228362,0.0,0.15,0.0,0.13,353.03,353.04,0.0,0.0
1630607856.29947996,83328322,0.0,0.15,0.0,0.13,353.03,353.04,0.0,0.0
1630607856.39944005,83428282,0.0,0.15,0.0,0.13,353.03,353.04,0.0,0.0
1630607856.49940014,83528242,0.0,0.15,0.0,0.13,353.03,353.04,0.0,0.0
1630607856.59935999,83628202,0.0,0.15,0.0,0.13,353.03,353.04,0.0,0.0
1630607856.69932008,83728162,0.0,0.15,0.0,0.13,353.03,353.04,0.0,0.0
1630607856.80011296,83828955,0.0,0.15,0.0,0.13,353.04,353.05,0.0,0.0
1630607856.90007305,83928915,0.0,0.15,0.0,0.13,353.04,353.05,0.0,0.0
1630607857.00003314,84028875,0.0,0.15,0.0,0.13,353.04,353.05,0.0,0.0
1630607857.09999299,84128835,0.0,0.15,0.0,0.13,353.04,353.05,0.0,0.0
1630607857.19995308,84228795,0.0,0.15,0.0,0.13,353.04,353.05,0.0,0.0
1630607857.29991293,84328755,0.0,0.15,0.0,0.13,353.04,353.05,0.0,0.0
1630607857.39987302,84428715,0.0,0.15,0.0,0.13,353.04,353.05,0.0,0.0
1630607857.49983311,84528675,0.0,0.15,0.0,0.13,353.04,353.05,0.0,0.0
1630607857.59979296,84628635,0.0,0.15,0.0,0.13,353.04,353.05,0.0,0.0
1630607857.69975305,84728595,0.0,0.15,0.0,0.13,353.04,353.05,0.0,0.0
1630607857.79971313,84828555,0.0,0.15,0.0,0.13,353.04,353.05,0.0,0.0
1630607857.89967299,84928515,0.0,0.15,0.0,0.13,353.04,353.05,0.0,0.0
1630607857.99963307,85028475,0.0,0.15,0.0,0.14,353.04,353.05,0.0,0.0
1630607858.09959292,85128435,0.0,0.15,0.0,0.14,353.04,353.05,0.0,0.0
1630607858.19955301,85228395,0.0,0.15,0.0,0.13,353.04,353.05,0.0,0.0
1630607858.29951310,85328355,0.0,0.15,0.0,0.14,353.04,353.05,0.0,0.0
1630607858.39947295,85428315,0.0,0.15,0.0,0.14,353.04,353.05,0.0,0.0
1630607858.49943304,85528275,0.0,0.15,0.0,0.14,353.04,353.05,0.0,0.0
1630607858.59939313,85628235,0.0,0.15,0.0,0.14,353.04,353.05,0.0,0.0
1630607858.69935298,85728195,0.0,0.15,0.0,0.14,353.04,353.05,0.0,0.0
1630607858.79931307,85828155,0.0,0.15,0.0,0.14,353.05,353.06,0.0,0.0
1630607858.90010595,85928948,0.0,0.15,0.0,0.14,353.05,353.06,0.0,0.0
1630607859.00006604,86028908,0.0,0.15,0.0,0.14,353.05,353.06,0.0,0.0
1630607859.10002613,86128868,0.0,0.15,0.0,0.14,353.05,353.06,0.0,0.0
1630607859.19998598,86228828,0.0,0.15,0.0,0.14,353.05,353.06,0.0,0.0
1630607859.29994607,86328788,-0.12,0.15,-0.12,0.14,353.05,353.06,0.0,0.0
1630607859.39990592,86428748,-0.25,0.15,-0.26,0.14,353.05,353.06,0.0,0.0
1630607859.49986601,86528708,-0.33,0.15,-0.34,0.14,353.05,353.06,0.0,0.0
1630607859.59982610,86628668,-0.38,0.15,-0.39,0.14,353.05,353.06,0.0,0.0
1630607859.69978595,86728628,-0.42,0.15,-0.42,0.14,353.05,353.06,0.0,0.0
1630607859.79974604,86828588,-0.46,0.15,-0.46,0.14,353.05,353.06,0.0,0.0
1630607859.89970613,86928548,-0.49,0.15,-0.5,0.14,353.05,353.06,0.0,0.0
1630607859.99966598,87028508,-0.52,0.15,-0.53,0.14,353.05,353.06,0.0,0.0
1630607860.09962606,87128468,-0.55,0.15,-0.54,0.14,353.05,353.06,0.0,0.0
1630607860.19958591,87228428,-0.6,0.15,-0.57,0.14,353.05,353.06,0.0,0.0
1630607860.29954600,87328388,-0.65,0.15,-0.62,0.14,353.05,353.06,0.0,0.0
1630607860.39950609,87428348,-0.67,0.15,-0.66,0.14,353.05,353.07,0.0,0.0
1630607860.49946594,87528308,-0.7,0.15,-0.68,0.14,353.05,353.07,0.0,0.0
1630607860.59942603,87628268,-0.74,0.15,-0.69,0.14,353.05,353.07,0.0,0.0
1630607860.69938612,87728228,-0.77,0.15,-0.71,0.14,353.05,353.07,0.0,0.0
1630607860.79934597,87828188,-0.81,0.15,-0.74,0.14,353.05,353.07,0.0,0.0
1630607860.90013909,87928981,-0.9,-0.17,-0.79,-0.14,353.05,353.07,0.0,0.0
1630607861.00009894,88028941,-0.91,-0.77,-0.8,-0.69,353.05,353.07,0.0,0.0
1630607861.10005903,88128901,-0.76,-1.22,-0.68,-1.11,353.05,353.07,0.0,0.0
1630607861.20001912,88228861,-0.49,-1.35,-0.44,-1.24,353.05,353.07,0.0,0.0
1630607861.29997897,88328821,-0.15,-1.17,-0.11,-1.07,353.05,353.06,0.0,0.0
1630607861.39993906,88428781,0.2,-0.8,0.22,-0.72,353.05,353.05,0.0,0.0
1630607861.49989891,88528741,0.5,-0.35,0.51,-0.3,353.05,353.05,0.0,0.0
1630607861.59985900,88628701,0.69,0.01,0.71,0.07,353.05,353.04,0.0,0.0
1630607861.69981909,88728661,0.78,0.27,0.76,0.31,353.05,353.04,0.0,0.0
1630607861.79977894,88828621,0.8,0.4,0.75,0.4,353.05,353.04,0.0,0.0
1630607861.89973903,88928581,0.77,0.43,0.72,0.41,353.05,353.04,0.0,0.0
1630607861.99969912,89028541,0.76,0.4,0.71,0.38,353.05,353.04,0.0,0.0
1630607862.09965897,89128501,0.76,0.39,0.69,0.35,353.05,353.04,0.0,0.0
1630607862.19961905,89228461,0.76,0.39,0.7,0.34,353.05,353.04,0.0,0.0
1630607862.29957914,89328421,0.77,0.41,0.72,0.36,353.05,353.05,0.0,0.0
1630607862.39953899,89428381,0.77,0.44,0.73,0.4,353.05,353.05,0.0,0.0
1630607862.49949908,89528341,0.79,0.48,0.74,0.44,353.05,353.05,0.0,0.0
1630607862.59945893,89628301,0.8,0.54,0.71,0.45,352.59,352.59,0.0,0.0
1630607862.69941902,89728261,0.76,0.55,0.7,0.47,352.59,352.59,0.0,0.0
1630607862.79937911,89828221,0.69,0.52,0.67,0.47,352.59,352.59,0.0,0.0
1630607862.89933896,89928181,0.65,0.48,0.64,0.46,352.59,352.59,0.0,0.0
1630607863.00013208,90028974,0.63,0.45,0.59,0.44,352.59,352.59,0.0,0.0
1630607863.10009193,90128934,0.6,0.44,0.54,0.41,352.59,352.59,0.0,0.0
1630607863.20005202,90228894,0.58,0.43,0.5,0.37,352.59,352.59,0.0,0.0
1630607863.30001211,90328854,0.56,0.43,0.47,0.34,352.59,352.59,0.0,0.0
1630607863.39997196,90428814,0.5,0.39,0.44,0.32,352.59,352.59,0.0,0.0
1630607863.49993205,90528774,0.44,0.35,0.41,0.3,352.59,352.59,0.0,0.0
1630607863.59989214,90628734,0.4,0.31,0.36,0.27,352.59,352.59,0.0,0.0
1630607863.69985199,90728694,0.35,0.28,0.31,0.23,352.59,352.59,0.0,0.0
1630607863.79981208,90828654,0.34,0.25,0.25,0.18,352.59,352.59,0.0,0.0
1630607863.89977193,90928614,0.34,0.25,0.23,0.15,352.59,352.59,0.0,0.0
1630607863.99973202,91028574,0.29,0.23,0.22,0.14,352.59,352.59,0.0,0.0
1630607864.09969211,91128534,0.21,0.16,0.21,0.14,352.59,352.6,0.0,0.0
1630607864.19965196,91228494,0.15,0.09,0.21,0.15,352.59,352.6,0.0,0.0
1630607864.29961205,91328454,0.13,0.05,0.2,0.15,352.59,352.6,0.0,0.0
1630607864.39957213,91428414,0.12,0.05,0.16,0.13,352.59,352.6,0.0,0.0
1630607864.49953198,91528374,0.11,0.04,0.12,0.1,352.59,352.6,0.0,0.0
1630607864.59949207,91628334,0.1,0.04,0.1,0.07,352.59,352.6,0.0,0.0
1630607864.69945192,91728294,0.08,0.04,0.12,0.07,352.59,352.59,0.0,0.0
1630607864.79941201,91828254,0.09,0.04,0.12,0.08,352.59,352.59,0.0,0.0
1630607864.89937210,91928214,0.15,0.08,0.1,0.08,352.59,352.59,0.0,0.0
1630607864.99933195,92028174,0.17,0.12,0.09,0.08,352.59,352.59,0.0,0.0
1630607865.10012507,92128967,0.17,0.15,0.1,0.07,352.59,352.59,0.0,0.0
1630607865.20008492,92228927,0.17,0.16,0.13,0.08,352.59,352.6,0.0,0.0
1630607865.30004501,92328887,0.18,0.16,0.18,0.12,352.59,352.6,0.0,0.0
1630607865.40000510,92428847,0.2,0.18,0.18,0.16,352.59,352.6,0.0,0.0
1630607865.49996495,92528807,0.2,0.19,0.17,0.16,352.59,352.6,0.0,0.0
1630607865.59992504,92628767,0.2,0.19,0.19,0.17,352.59,352.6,0.0,0.0
1630607865.69988513,92728727,0.21,0.2,0.21,0.19,352.59,352.6,0.0,0.0
1630607865.79984498,92828687,0.19,0.19,0.16,0.17,352.59,352.6,0.0,0.0
1630607865.89980507,92928647,0.19,0.18,0.13,0.13,352.59,352.6,0.0,0.0
1630607865.99976492,93028607,0.21,0.18,0.13,0.11,352.59,352.6,0.0,0.0
1630607866.09972501,93128567,0.2,0.18,0.13,0.09,352.59,352.6,0.0,0.0
1630607866.19968510,93228527,0.2,0.18,0.16,0.1,352.59,352.6,0.0,0.0
1630607866.29964495,93328487,0.21,0.19,0.18,0.15,352.59,352.6,0.0,0.0
1630607866.39960504,93428447,0.24,0.21,0.18,0.17,352.59,352.6,0.0,0.0
1630607866.49956512,93528407,0.28,0.25,0.18,0.18,352.59,352.6,0.0,0.0
1630607866.59952497,93628367,0.26,0.26,0.17,0.17,352.59,352.6,0.0,0.0
1630607866.69948506,93728327,0.23,0.25,0.16,0.17,352.59,352.6,0.0,0.0
1630607866.79944491,93828287,0.22,0.22,0.18,0.17,352.59,352.59,0.0,0.0
1630607866.89940500,93928247,0.22,0.21,0.19,0.18,352.59,352.59,0.0,0.0
1630607866.99936509,94028207,0.23,0.2,0.19,0.18,352.59,352.59,0.0,0.0
1630607867.09932494,94128167,0.24,0.2,0.2,0.19,352.59,352.59,0.0,0.0
1630607867.20011806,94228960,0.26,0.22,0.21,0.2,352.59,352.59,0.0,0.0
1630607867.30007792,94328920,0.31,0.26,0.21,0.21,352.59,352.59,0.0,0.0
1630607867.40003800,94428880,0.32,0.29,0.22,0.21,352.59,352.6,0.0,0.0
1630607867.49999809,94528840,0.3,0.31,0.22,0.22,352.59,352.6,0.0,0.0
1630607867.59995794,94628800,0.28,0.3,0.22,0.22,352.59,352.6,0.0,0.0
1630607867.69991803,94728760,0.27,0.28,0.19,0.2,352.59,352.6,0.0,0.0
1630607867.79987812,94828720,0.28,0.27,0.16,0.17,352.59,352.6,0.0,0.0
1630607867.89983797,94928680,0.28,0.27,0.13,0.13,352.59,352.6,0.0,0.0
1630607867.99979806,95028640,0.26,0.26,0.12,0.11,352.59,352.6,0.0,0.0
1630607868.09975791,95128600,0.23,0.24,0.13,0.1,352.59,352.6,0.0,0.0
1630607868.19971800,95228560,0.21,0.21,0.12,0.09,352.59,352.6,0.0,0.0
1630607868.29967809,95328520,0.22,0.19,0.13,0.09,352.59,352.6,0.0,0.0
1630607868.39963794,95428480,0.25,0.21,0.15,0.11,352.59,352.6,0.0,0.0
1630607868.49959803,95528440,0.24,0.23,0.2,0.13,352.59,352.6,0.0,0.0
1630607868.59955812,95628400,0.21,0.22,0.24,0.19,352.59,352.6,0.0,0.0
1630607868.69951797,95728360,0.19,0.2,0.27,0.25,352.59,352.6,0.0,0.0
1630607868.79947805,95828320,0.16,0.17,0.28,0.29,352.59,352.6,0.0,0.0
1630607868.89943814,95928280,0.15,0.14,0.25,0.28,352.59,352.6,0.0,0.0
1630607868.99939799,96028240,0.16,0.12,0.19,0.24,352.59,352.59,0.0,0.0
1630607869.09935808,96128200,0.18,0.14,0.16,0.19,352.59,352.59,0.0,0.0
1630607869.19931793,96228160,0.17,0.16,0.17,0.16,352.59,352.59,0.0,0.0
1630607869.30011106,96328953,0.19,0.18,0.19,0.16,352.59,352.59,0.0,0.0
1630607869.40007114,96428913,0.2,0.2,0.2,0.17,352.59,352.59,0.0,0.0
1630607869.50003099,96528873,0.22,0.21,0.24,0.21,352.59,352.6,0.0,0.0
1630607869.59999108,96628833,0.23,0.22,0.23,0.22,352.59,352.6,0.0,0.0
1630607869.69995093,96728793,0.22,0.22,0.21,0.21,352.59,352.6,0.0,0.0
1630607869.79991102,96828753,0.2,0.2,0.18,0.18,352.59,352.6,0.0,0.0
1630607869.89987111,96928713,0.17,0.17,0.19,0.18,352.59,352.6,0.0,0.0
1630607869.99983096,97028673,0.13,0.13,0.18,0.18,352.59,352.6,0.0,0.0
1630607870.09979105,97128633,0.1,0.09,0.17,0.17,352.59,352.6,0.0,0.0
1630607870.19975114,97228593,0.11,0.08,0.16,0.16,352.59,352.59,0.0,0.0
1630607870.29971099,97328553,0.13,0.1,0.18,0.17,352.59,352.59,0.0,0.0
1630607870.39967108,97428513,0.12,0.11,0.2,0.18,352.59,352.59,0.0,0.0
1630607870.49963093,97528473,0.1,0.1,0.19,0.18,352.59,352.59,0.0,0.0
1630607870.59959102,97628433,0.1,0.09,0.2,0.19,352.59,352.59,0.0,0.0
1630607870.69955111,97728393,0.1,0.09,0.2,0.19,352.59,352.59,0.0,0.0
1630607870.79951096,97828353,0.09,0.09,0.19,0.19,352.59,352.59,0.0,0.0
1630607870.89947104,97928313,0.09,0.08,0.15,0.16,352.59,352.59,0.0,0.0
1630607870.99943113,98028273,0.11,0.09,0.11,0.12,352.59,352.59,0.0,0.0
1630607871.09939098,98128233,0.13,0.1,0.11,0.09,352.59,352.59,0.0,0.0
1630607871.19935107,98228193,0.11,0.11,0.14,0.08,352.59,352.59,0.0,0.0
1630607871.30014396,98328986,0.11,0.11,0.15,0.1,352.59,352.59,0.0,0.0
1630607871.40010405,98428946,0.11,0.11,0.19,0.13,352.59,352.59,0.0,0.0
1630607871.50006413,98528906,0.1,0.11,0.22,0.18,352.59,352.59,0.0,0.0
1630607871.60002398,98628866,0.11,0.11,0.21,0.2,352.59,352.59,0.0,0.0
1630607871.69998407,98728826,0.11,0.11,0.2,0.21,352.59,352.59,0.0,0.0
1630607871.79994392,98828786,0.09,0.1,0.18,0.2,352.59,352.59,0.0,0.0
1630607871.89990401,98928746,0.1,0.09,0.16,0.18,352.59,352.59,0.0,0.0
1630607871.99986410,99028706,0.12,0.11,0.13,0.15,352.59,352.59,0.0,0.0
1630607872.09982395,99128666,0.11,0.1,0.12,0.12,352.59,352.59,0.0,0.0
1630607872.19978404,99228626,0.13,0.11,0.12,0.1,352.59,352.59,0.0,0.0
1630607872.29974413,99328586,0.14,0.12,0.14,0.11,352.59,352.59,0.0,0.0
1630607872.39970398,99428546,0.14,0.12,0.16,0.14,352.59,352.59,0.0,0.0
1630607872.49966407,99528506,0.17,0.14,0.13,0.15,352.59,352.6,0.0,0.0
1630607872.59962392,99628466,0.19,0.17,0.13,0.14,352.59,352.6,0.0,0.0
1630607872.69958401,99728426,0.21,0.2,0.13,0.14,352.59,352.59,0.0,0.0
1630607872.79954410,99828386,0.23,0.22,0.16,0.15,352.59,352.59,0.0,0.0
1630607872.89950395,99928346,0.23,0.23,0.17,0.17,352.59,352.59,0.0,0.0
1630607872.99946404,100028306,0.19,0.21,0.14,0.15,352.59,352.59,0.0,0.0
1630607873.09942412,100128266,0.17,0.17,0.14,0.14,352.59,352.59,0.0,0.0
1630607873.19938397,100228226,0.15,0.14,0.12,0.13,352.59,352.59,0.0,0.0
1630607873.29934406,100328186,0.17,0.14,0.12,0.12,352.59,352.59,0.0,0.0
1630607873.40013695,100428979,0.18,0.15,0.14,0.12,352.59,352.6,0.0,0.0
1630607873.50009704,100528939,0.18,0.17,0.18,0.15,352.59,352.6,0.0,0.0
1630607873.60005713,100628899,0.16,0.16,0.22,0.19,352.59,352.6,0.0,0.0
1630607873.70001698,100728859,0.14,0.15,0.21,0.21,352.59,352.6,0.0,0.0
1630607873.79997706,100828819,0.16,0.14,0.17,0.2,352.59,352.6,0.0,0.0
1630607873.89993691,100928779,0.19,0.15,0.15,0.17,352.59,352.6,0.0,0.0
1630607873.99989700,101028739,0.18,0.16,0.14,0.15,352.59,352.6,0.0,0.0
1630607874.09985709,101128699,0.15,0.15,0.15,0.14,352.59,352.59,0.0,0.0
1630607874.19981694,101228659,0.17,0.15,0.17,0.15,352.59,352.59,0.0,0.0
1630607874.29977703,101328619,0.2,0.18,0.16,0.16,352.59,352.59,0.0,0.0
1630607874.39973712,101428579,0.21,0.2,0.15,0.15,352.59,352.59,0.0,0.0
1630607874.49969697,101528539,0.18,0.2,0.14,0.15,352.59,352.58,0.0,0.0
1630607874.59965706,101628499,0.13,0.15,0.12,0.12,352.59,352.58,0.0,0.0
1630607874.69961691,101728459,0.13,0.11,0.13,0.11,352.59,352.58,0.0,0.0
1630607874.79957700,101828419,0.14,0.11,0.18,0.14,352.59,352.58,0.0,0.0
1630607874.89953709,101928379,0.18,0.14,0.24,0.2,352.59,352.59,0.0,0.0
1630607874.99949694,102028339,0.22,0.18,0.25,0.25,352.59,352.59,0.0,0.0
1630607875.09945703,102128299,0.23,0.21,0.22,0.26,352.59,352.59,0.0,0.0
1630607875.19941711,102228259,0.22,0.22,0.17,0.21,352.59,352.59,0.0,0.0
1630607875.29937696,102328219,0.2,0.22,0.12,0.15,352.59,352.59,0.0,0.0
1630607875.39933705,102428179,0.16,0.18,0.08,0.08,352.59,352.59,0.0,0.0
1630607875.50012994,102528972,0.11,0.13,0.09,0.05,352.59,352.6,0.0,0.0
1630607875.60009003,102628932,0.09,0.09,0.13,0.07,352.59,352.6,0.0,0.0
1630607875.70005012,102728892,0.09,0.08,0.15,0.11,352.59,352.6,0.0,0.0
1630607875.80000997,102828852,0.11,0.07,0.17,0.14,352.59,352.6,0.0,0.0
1630607875.89997005,102928812,0.15,0.1,0.17,0.17,352.59,352.6,0.0,0.0
1630607875.99993014,103028772,0.19,0.14,0.14,0.16,352.59,352.59,0.0,0.0
1630607876.09988999,103128732,0.2,0.18,0.12,0.13,352.59,352.59,0.0,0.0
1630607876.19985008,103228692,0.22,0.2,0.11,0.1,352.59,352.59,0.0,0.0
1630607876.29980993,103328652,0.21,0.22,0.12,0.1,352.59,352.59,0.0,0.0
1630607876.39977002,103428612,0.22,0.22,0.14,0.11,352.59,352.59,0.0,0.0
1630607876.49973011,103528572,0.24,0.24,0.17,0.14,352.59,352.59,0.0,0.0
1630607876.59968996,103628532,0.23,0.24,0.17,0.16,352.59,352.59,0.0,0.0
1630607876.69965005,103728492,0.19,0.23,0.18,0.17,352.59,352.59,0.0,0.0
1630607876.79961014,103828452,0.17,0.18,0.21,0.19,352.59,352.59,0.0,0.0
1630607876.89956999,103928412,0.17,0.16,0.24,0.22,352.59,352.59,0.0,0.0
1630607876.99953008,104028372,0.18,0.15,0.23,0.23,352.59,352.59,0.0,0.0
1630607877.09948993,104128332,0.19,0.16,0.22,0.22,352.59,352.59,0.0,0.0
1630607877.19945002,104228292,0.2,0.17,0.21,0.21,352.59,352.59,0.0,0.0
1630607877.29941010,104328252,0.21,0.19,0.19,0.19,352.59,352.59,0.0,0.0
1630607877.39936996,104428212,0.21,0.2,0.17,0.16,352.59,352.59,0.0,0.0
1630607877.49933004,104528172,0.21,0.21,0.17,0.15,352.59,352.59,0.0,0.0
1630607877.60012293,104628965,0.19,0.2,0.2,0.16,352.59,352.59,0.0,0.0
1630607877.70008302,104728925,0.17,0.18,0.21,0.18,352.59,352.59,0.0,0.0
1630607877.80004311,104828885,0.15,0.15,0.2,0.19,352.59,352.59,0.0,0.0
1630607877.90000296,104928845,0.15,0.12,0.19,0.2,352.59,352.59,0.0,0.0
1630607877.99996305,105028805,0.2,0.14,0.18,0.18,352.59,352.59,0.0,0.0
1630607878.09992313,105128765,0.26,0.2,0.18,0.18,352.59,352.6,0.0,0.0
1630607878.19988298,105228725,0.29,0.26,0.17,0.17,352.59,352.6,0.0,0.0
1630607878.29984307,105328685,0.29,0.29,0.17,0.16,352.59,352.6,0.0,0.0
1630607878.39980292,105428645,0.25,0.28,0.16,0.15,352.59,352.6,0.0,0.0
1630607878.49976301,105528605,0.21,0.24,0.14,0.15,352.59,352.6,0.0,0.0
1630607878.59972310,105628565,0.21,0.21,0.12,0.12,352.59,352.6,0.0,0.0
1630607878.69968295,105728525,0.23,0.2,0.15,0.12,352.59,352.6,0.0,0.0
1630607878.79964304,105828485,0.26,0.23,0.18,0.15,352.59,352.6,0.0,0.0
1630607878.89960313,105928445,0.27,0.26,0.21,0.18,352.59,352.6,0.0,0.0
1630607878.99956298,106028405,0.24,0.25,0.22,0.21,352.59,352.6,0.0,0.0
1630607879.09952307,106128365,0.24,0.24,0.19,0.22,352.59,352.59,0.0,0.0
1630607879.19948292,106228325,0.23,0.22,0.13,0.17,352.59,352.59,0.0,0.0
1630607879.29944301,106328285,0.22,0.2,0.11,0.11,352.59,352.59,0.0,0.0
1630607879.39940310,106428245,0.22,0.19,0.1,0.06,352.59,352.59,0.0,0.0
1630607879.49936295,106528205,0.22,0.2,0.12,0.06,352.59,352.58,0.0,0.0
1630607879.59932303,106628165,0.23,0.21,0.17,0.1,352.59,352.58,0.0,0.0
1630607879.70011592,106728958,0.23,0.21,0.23,0.18,352.59,352.59,0.0,0.0
1630607879.80007601,106828918,0.24,0.23,0.27,0.25,352.59,352.59,0.0,0.0
1630607879.90003610,106928878,0.23,0.22,0.25,0.27,352.59,352.59,0.0,0.0
1630607879.99999595,107028838,0.21,0.21,0.2,0.24,352.59,352.6,0.0,0.0
1630607880.09995604,107128798,0.18,0.19,0.15,0.19,352.59,352.6,0.0,0.0
1630607880.19991612,107228758,0.17,0.17,0.12,0.14,352.59,352.6,0.0,0.0
1630607880.29987597,107328718,0.15,0.16,0.11,0.1,352.59,352.6,0.0,0.0
1630607880.39983606,107428678,0.12,0.12,0.13,0.1,352.59,352.6,0.0,0.0
1630607880.49979591,107528638,0.13,0.1,0.15,0.12,352.59,352.6,0.0,0.0
1630607880.59975600,107628598,0.15,0.11,0.17,0.15,352.59,352.6,0.0,0.0
1630607880.69971609,107728558,0.16,0.13,0.19,0.17,352.59,352.6,0.0,0.0
1630607880.79967594,107828518,0.14,0.13,0.2,0.17,352.59,352.59,0.0,0.0
1630607880.89963603,107928478,0.12,0.11,0.21,0.2,352.59,352.59,0.0,0.0
1630607880.99959612,108028438,0.11,0.08,0.21,0.2,352.59,352.59,0.0,0.0
1630607881.09955597,108128398,0.13,0.09,0.19,0.19,352.59,352.59,0.0,0.0
1630607881.19951606,108228358,0.13,0.1,0.18,0.17,352.59,352.58,0.0,0.0
1630607881.29947615,108328318,0.12,0.1,0.18,0.17,352.59,352.58,0.0,0.0
1630607881.39943600,108428278,0.17,0.13,0.17,0.17,352.59,352.59,0.0,0.0
1630607881.49939609,108528238,0.21,0.18,0.17,0.16,352.59,352.59,0.0,0.0
1630607881.59935594,108628198,0.21,0.22,0.19,0.16,352.59,352.59,0.0,0.0
1630607881.69931602,108728158,0.2,0.22,0.2,0.18,352.59,352.59,0.0,0.0
1630607881.80010891,108828951,0.18,0.2,0.23,0.2,352.59,352.59,0.0,0.0
1630607881.90006900,108928911,0.15,0.18,0.26,0.24,352.59,352.59,0.0,0.0
1630607882.00002909,109028871,0.12,0.14,0.27,0.26,352.59,352.6,0.0,0.0
1630607882.09998894,109128831,0.13,0.12,0.26,0.28,352.59,352.6,0.0,0.0
1630607882.19994903,109228791,0.16,0.12,0.25,0.27,352.59,352.6,0.0,0.0
1630607882.29990911,109328751,0.2,0.15,0.21,0.24,352.59,352.6,0.0,0.0
1630607882.39986897,109428711,0.24,0.19,0.17,0.19,352.59,352.59,0.0,0.0
1630607882.49982905,109528671,0.26,0.24,0.17,0.15,352.59,352.59,0.0,0.0
1630607882.59978914,109628631,0.26,0.27,0.21,0.15,352.59,352.59,0.0,0.0
1630607882.69974899,109728591,0.24,0.27,0.27,0.21,352.59,352.59,0.0,0.0
1630607882.79970908,109828551,0.23,0.25,0.27,0.25,352.59,352.59,0.0,0.0
1630607882.89966893,109928511,0.22,0.23,0.24,0.25,352.59,352.59,0.0,0.0
1630607882.99962902,110028471,0.22,0.21,0.19,0.22,352.59,352.59,0.0,0.0
1630607883.09958911,110128431,0.23,0.2,0.15,0.17,352.59,352.59,0.0,0.0
1630607883.19954896,110228391,0.26,0.22,0.09,0.11,352.59,352.59,0.0,0.0
1630607883.29950905,110328351,0.25,0.24,0.06,0.05,352.59,352.59,0.0,0.0
1630607883.39946914,110428311,0.23,0.23,0.08,0.03,352.59,352.59,0.0,0.0
1630607883.49942899,110528271,0.22,0.23,0.11,0.06,352.59,352.59,0.0,0.0
1630607883.59938908,110628231,0.2,0.21,0.12,0.1,352.59,352.59,0.0,0.0
1630607883.69934893,110728191,0.18,0.18,0.13,0.12,352.59,352.59,0.0,0.0
1630607883.80014205,110828984,0.15,0.15,0.14,0.14,352.59,352.59,0.0,0.0
1630607883.90010214,110928944,0.13,0.12,0.16,0.15,352.59,352.59,0.0,0.0
1630607884.00006199,111028904,0.12,0.1,0.19,0.17,352.59,352.59,0.0,0.0
1630607884.10002208,111128864,0.14,0.11,0.17,0.17,352.59,352.59,0.0,0.0
1630607884.19998193,111228824,0.16,0.13,0.16,0.15,352.59,352.59,0.0,0.0
1630607884.29994202,111328784,0.17,0.16,0.15,0.14,352.59,352.59,0.0,0.0
1630607884.39990211,111428744,0.18,0.16,0.16,0.13,352.59,352.59,0.0,0.0
1630607884.49986196,111528704,0.14,0.16,0.17,0.14,352.59,352.59,0.0,0.0
1630607884.59982204,111628664,0.12,0.12,0.19,0.17,352.59,352.59,0.0,0.0
1630607884.69978213,111728624,0.13,0.11,0.2,0.2,352.59,352.59,0.0,0.0
1630607884.79974198,111828584,0.15,0.12,0.21,0.21,352.59,352.59,0.0,0.0
1630607884.89970207,111928544,0.16,0.15,0.19,0.21,352.59,352.59,0.0,0.0
1630607884.99966192,112028504,0.16,0.15,0.14,0.17,352.59,352.59,0.0,0.0
1630607885.09962201,112128464,0.16,0.15,0.12,0.13,352.59,352.59,0.0,0.0
1630607885.19958210,112228424,0.18,0.16,0.13,0.11,352.59,352.59,0.0,0.0
1630607885.29954195,112328384,0.2,0.19,0.17,0.14,352.59,352.59,0.0,0.0
1630607885.39950204,112428344,0.22,0.21,0.18,0.16,352.59,352.59,0.0,0.0
1630607885.49946213,112528304,0.22,0.22,0.16,0.16,352.59,352.59,0.0,0.0
1630607885.59942198,112628264,0.19,0.21,0.15,0.14,352.59,352.59,0.0,0.0
1630607885.69938207,112728224,0.15,0.18,0.15,0.13,352.59,352.59,0.0,0.0
1630607885.79934192,112828184,0.13,0.13,0.16,0.13,352.59,352.59,0.0,0.0
1630607885.90013504,112928977,0.13,0.1,0.17,0.13,352.59,352.6,0.0,0.0
1630607886.00009513,113028937,0.15,0.1,0.18,0.14,352.59,352.6,0.0,0.0
1630607886.10005498,113128897,0.18,0.12,0.17,0.15,352.59,352.6,0.0,0.0
1630607886.20001507,113228857,0.2,0.16,0.18,0.16,352.59,352.6,0.0,0.0
1630607886.29997492,113328817,0.21,0.2,0.2,0.18,352.59,352.6,0.0,0.0
1630607886.39993501,113428777,0.19,0.2,0.21,0.2,352.59,352.59,0.0,0.0
1630607886.49989510,113528737,0.16,0.17,0.21,0.21,352.59,352.59,0.0,0.0
1630607886.59985495,113628697,0.13,0.13,0.22,0.2,352.59,352.59,0.0,0.0
1630607886.69981503,113728657,0.12,0.11,0.24,0.22,352.59,352.58,0.0,0.0
1630607886.79977512,113828617,0.15,0.11,0.25,0.24,352.59,352.58,0.0,0.0
1630607886.89973497,113928577,0.2,0.17,0.26,0.25,352.59,352.58,0.0,0.0
1630607886.99969506,114028537,0.24,0.22,0.27,0.26,352.59,352.58,0.0,0.0
1630607887.09965491,114128497,0.23,0.24,0.24,0.26,352.59,352.58,0.0,0.0
1630607887.19961500,114228457,0.24,0.25,0.2,0.22,352.59,352.59,0.0,0.0
1630607887.29957509,114328417,0.25,0.26,0.17,0.19,352.59,352.59,0.0,0.0
1630607887.39953494,114428377,0.25,0.26,0.14,0.15,352.59,352.59,0.0,0.0
1630607887.49949503,114528337,0.26,0.26,0.11,0.11,352.59,352.59,0.0,0.0
1630607887.59945512,114628297,0.25,0.26,0.1,0.08,352.59,352.59,0.0,0.0
1630607887.69941497,114728257,0.23,0.23,0.1,0.07,352.59,352.59,0.0,0.0
1630607887.79937506,114828217,0.19,0.2,0.12,0.08,352.59,352.59,0.0,0.0
1630607887.89933515,114928177,0.16,0.16,0.15,0.12,352.59,352.59,0.0,0.0
1630607888.00012803,115028970,0.14,0.13,0.19,0.16,352.59,352.59,0.0,0.0
1630607888.10008812,115128930,0.15,0.12,0.19,0.19,352.59,352.59,0.0,0.0
1630607888.20004797,115228890,0.17,0.12,0.17,0.2,352.59,352.59,0.0,0.0
1630607888.30000806,115328850,0.21,0.15,0.17,0.19,352.59,352.59,0.0,0.0
1630607888.39996791,115428810,0.24,0.2,0.16,0.17,352.59,352.59,0.0,0.0
1630607888.49992800,115528770,0.26,0.24,0.14,0.15,352.59,352.59,0.0,0.0
1630607888.59988809,115628730,0.22,0.23,0.12,0.12,352.59,352.58,0.0,0.0
1630607888.69984794,115728690,0.19,0.2,0.15,0.12,352.59,352.58,0.0,0.0
1630607888.79980803,115828650,0.18,0.17,0.18,0.14,352.59,352.58,0.0,0.0
1630607888.89976811,115928610,0.21,0.18,0.18,0.17,352.59,352.58,0.0,0.0
1630607888.99972796,116028570,0.22,0.2,0.18,0.18,352.59,352.58,0.0,0.0
1630607889.09968805,116128530,0.19,0.19,0.16,0.17,352.59,352.58,0.0,0.0
1630607889.19964814,116228490,0.2,0.19,0.12,0.14,352.59,352.59,0.0,0.0
1630607889.29960799,116328450,0.2,0.2,0.14,0.12,352.59,352.59,0.0,0.0
1630607889.39956808,116428410,0.19,0.19,0.16,0.12,352.59,352.59,0.0,0.0
1630607889.49952793,116528370,0.17,0.17,0.16,0.14,352.59,352.59,0.0,0.0
1630607889.59948802,116628330,0.2,0.17,0.16,0.15,352.59,352.59,0.0,0.0
1630607889.69944811,116728290,0.23,0.2,0.18,0.17,352.59,352.59,0.0,0.0
1630607889.79940796,116828250,0.23,0.22,0.2,0.19,352.59,352.6,0.0,0.0
1630607889.89936805,116928210,0.24,0.23,0.21,0.2,352.59,352.6,0.0,0.0
1630607889.99932814,117028170,0.24,0.23,0.18,0.18,352.59,352.59,0.0,0.0
1630607890.10012102,117128963,0.26,0.25,0.19,0.18,352.59,352.59,0.0,0.0
1630607890.20008111,117228923,0.26,0.26,0.18,0.17,352.59,352.59,0.0,0.0
1630607890.30004096,117328883,0.26,0.26,0.16,0.16,352.59,352.59,0.0,0.0
1630607890.40000105,117428843,0.26,0.26,0.14,0.12,352.59,352.59,0.0,0.0
1630607890.49996114,117528803,0.24,0.25,0.17,0.12,352.59,352.59,0.0,0.0
1630607890.59992099,117628763,0.23,0.24,0.2,0.13,352.59,352.59,0.0,0.0
1630607890.69988108,117728723,0.22,0.22,0.21,0.17,352.59,352.58,0.0,0.0
1630607890.79984093,117828683,0.2,0.19,0.2,0.19,352.59,352.58,0.0,0.0
1630607890.89980102,117928643,0.18,0.16,0.19,0.2,352.59,352.58,0.0,0.0
1630607890.99976110,118028603,0.18,0.15,0.17,0.19,352.59,352.59,0.0,0.0
1630607891.09972095,118128563,0.18,0.16,0.18,0.18,352.59,352.59,0.0,0.0
1630607891.19968104,118228523,0.2,0.17,0.19,0.19,352.59,352.59,0.0,0.0
1630607891.29964113,118328483,0.21,0.19,0.22,0.21,352.59,352.59,0.0,0.0
1630607891.39960098,118428443,0.22,0.2,0.22,0.23,352.59,352.59,0.0,0.0
1630607891.49956107,118528403,0.2,0.2,0.19,0.22,352.59,352.59,0.0,0.0
1630607891.59952092,118628363,0.17,0.18,0.15,0.18,352.59,352.59,0.0,0.0
1630607891.69948101,118728323,0.14,0.15,0.15,0.15,352.59,352.59,0.0,0.0
1630607891.79944110,118828283,0.1,0.11,0.17,0.15,352.59,352.59,0.0,0.0
1630607891.89940095,118928243,0.1,0.08,0.17,0.16,352.59,352.59,0.0,0.0
1630607891.99936104,119028203,0.09,0.07,0.15,0.15,352.59,352.59,0.0,0.0
1630607892.09932113,119128163,0.05,0.04,0.13,0.13,352.59,352.59,0.0,0.0
1630607892.20011401,119228956,0.02,0.0,0.11,0.1,352.59,352.58,0.0,0.0
1630607892.30007410,119328916,0.04,0.0,0.17,0.11,352.59,352.58,0.0,0.0
1630607892.40003395,119428876,0.1,0.03,0.23,0.17,352.59,352.58,0.0,0.0
1630607892.49999404,119528836,0.17,0.12,0.23,0.22,352.59,352.58,0.0,0.0
1630607892.59995413,119628796,0.19,0.18,0.21,0.22,352.59,352.59,0.0,0.0
1630607892.69991398,119728756,0.18,0.19,0.21,0.2,352.59,352.59,0.0,0.0
1630607892.79987407,119828716,0.16,0.18,0.26,0.23,352.59,352.59,0.0,0.0
1630607892.89983392,119928676,0.16,0.17,0.28,0.26,352.59,352.59,0.0,0.0
1630607892.99979401,120028636,0.18,0.17,0.26,0.26,352.59,352.59,0.0,0.0
1630607893.09975410,120128596,0.18,0.18,0.23,0.25,352.59,352.59,0.0,0.0
1630607893.19971395,120228556,0.16,0.18,0.18,0.21,352.59,352.59,0.0,0.0
1630607893.29967403,120328516,0.15,0.16,0.15,0.16,352.59,352.59,0.0,0.0
1630607893.39963412,120428476,0.17,0.15,0.16,0.13,352.59,352.59,0.0,0.0
1630607893.49959397,120528436,0.2,0.17,0.2,0.15,352.59,352.59,0.0,0.0
1630607893.59955406,120628396,0.24,0.22,0.22,0.18,352.59,352.59,0.0,0.0
1630607893.69951391,120728356,0.23,0.24,0.2,0.2,352.59,352.59,0.0,0.0
1630607893.79947400,120828316,0.19,0.21,0.19,0.18,352.59,352.59,0.0,0.0
1630607893.89943409,120928276,0.18,0.18,0.18,0.18,352.59,352.58,0.0,0.0
1630607893.99939394,121028236,0.2,0.17,0.17,0.17,352.59,352.58,0.0,0.0
1630607894.09935403,121128196,0.2,0.18,0.18,0.16,352.59,352.58,0.0,0.0
1630607894.19931412,121228156,0.18,0.17,0.2,0.17,352.59,352.59,0.0,0.0
1630607894.30010700,121328949,0.17,0.16,0.22,0.2,352.59,352.59,0.0,0.0
1630607894.40006709,121428909,0.16,0.14,0.22,0.22,352.59,352.59,0.0,0.0
1630607894.50002694,121528869,0.18,0.15,0.21,0.22,352.59,352.59,0.0,0.0
1630607894.59998703,121628829,0.22,0.18,0.2,0.2,352.59,352.59,0.0,0.0
1630607894.69994712,121728789,0.26,0.22,0.19,0.18,352.59,352.59,0.0,0.0
1630607894.79990697,121828749,0.28,0.26,0.19,0.17,352.59,352.59,0.0,0.0
1630607894.89986706,121928709,0.25,0.27,0.18,0.16,352.59,352.59,0.0,0.0
1630607894.99982715,122028669,0.24,0.26,0.16,0.16,352.59,352.59,0.0,0.0
1630607895.09978700,122128629,0.21,0.24,0.14,0.14,352.59,352.58,0.0,0.0
1630607895.19974709,122228589,0.16,0.18,0.12,0.12,352.59,352.58,0.0,0.0
1630607895.29970694,122328549,0.14,0.13,0.12,0.09,352.59,352.58,0.0,0.0
1630607895.39966702,122428509,0.18,0.12,0.16,0.1,352.59,352.58,0.0,0.0
1630607895.49962711,122528469,0.22,0.16,0.22,0.16,352.59,352.58,0.0,0.0
1630607895.59958696,122628429,0.26,0.22,0.25,0.21,352.59,352.58,0.0,0.0
1630607895.69954705,122728389,0.26,0.26,0.23,0.24,352.59,352.58,0.0,0.0
1630607895.79950714,122828349,0.23,0.26,0.19,0.22,352.59,352.59,0.0,0.0
1630607895.89946699,122928309,0.17,0.21,0.15,0.18,352.59,352.58,0.0,0.0
1630607895.99942708,123028269,0.1,0.13,0.13,0.13,352.59,352.58,0.0,0.0
1630607896.09938693,123128229,0.1,0.08,0.13,0.1,352.59,352.58,0.0,0.0
1630607896.19934702,123228189,0.14,0.08,0.16,0.11,352.59,352.59,0.0,0.0
1630607896.30014014,123328982,0.17,0.12,0.16,0.14,352.59,352.59,0.0,0.0
1630607896.40009999,123428942,0.2,0.16,0.16,0.15,352.59,352.59,0.0,0.0
1630607896.50006008,123528902,0.24,0.21,0.16,0.16,352.59,352.59,0.0,0.0
1630607896.60001993,123628862,0.29,0.26,0.15,0.15,352.59,352.59,0.0,0.0
1630607896.69998002,123728822,0.29,0.3,0.14,0.14,352.59,352.59,0.0,0.0
1630607896.79994011,123828782,0.24,0.28,0.15,0.13,352.59,352.58,0.0,0.0
1630607896.89989996,123928742,0.18,0.22,0.18,0.15,352.59,352.58,0.0,0.0
1630607896.99986005,124028702,0.14,0.16,0.19,0.17,352.59,352.59,0.0,0.0
1630607897.09982014,124128662,0.14,0.11,0.21,0.19,352.59,352.59,0.0,0.0
1630607897.19977999,124228622,0.16,0.1,0.2,0.2,352.59,352.59,0.0,0.0
1630607897.29974008,124328582,0.18,0.12,0.18,0.2,352.59,352.58,0.0,0.0
1630607897.39969993,124428542,0.18,0.14,0.19,0.19,352.59,352.59,0.0,0.0
1630607897.49966002,124528502,0.2,0.17,0.23,0.2,352.59,352.59,0.0,0.0
1630607897.59962010,124628462,0.22,0.2,0.26,0.23,352.59,352.59,0.0,0.0
1630607897.69957995,124728422,0.24,0.23,0.28,0.27,352.59,352.59,0.0,0.0
1630607897.79954004,124828382,0.28,0.26,0.28,0.28,352.59,352.59,0.0,0.0
1630607897.89950013,124928342,0.29,0.3,0.28,0.29,352.59,352.59,0.0,0.0
1630607897.99945998,125028302,0.27,0.3,0.27,0.28,352.59,352.59,0.0,0.0
1630607898.09942007,125128262,0.24,0.28,0.27,0.27,352.59,352.59,0.0,0.0
1630607898.19937992,125228222,0.22,0.25,0.26,0.26,352.59,352.59,0.0,0.0
1630607898.29934001,125328182,0.19,0.21,0.25,0.25,352.59,352.59,0.0,0.0
1630607898.40013313,125428975,0.16,0.17,0.26,0.25,352.59,352.59,0.0,0.0
1630607898.50009298,125528935,0.14,0.13,0.28,0.26,352.59,352.59,0.0,0.0
1630607898.60005307,125628895,0.16,0.12,0.29,0.28,352.59,352.59,0.0,0.0
1630607898.70001292,125728855,0.21,0.16,0.3,0.29,352.59,352.58,0.0,0.0
1630607898.79997301,125828815,0.23,0.21,0.31,0.3,352.59,352.58,0.0,0.0
1630607898.89993310,125928775,0.25,0.24,0.29,0.3,352.59,352.58,0.0,0.0
1630607898.99989295,126028735,0.24,0.25,0.27,0.28,352.59,352.58,0.0,0.0
1630607899.09985304,126128695,0.24,0.25,0.25,0.26,352.59,352.58,0.0,0.0
1630607899.19981313,126228655,0.24,0.24,0.24,0.24,352.59,352.58,0.0,0.0
1630607899.29977298,126328615,0.23,0.23,0.22,0.22,352.59,352.58,0.0,0.0
1630607899.39973307,126428575,0.22,0.21,0.21,0.2,352.59,352.58,0.0,0.0
1630607899.49969292,126528535,0.18,0.18,0.18,0.17,352.59,352.58,0.0,0.0
1630607899.59965301,126628495,0.13,0.13,0.12,0.13,352.59,352.58,0.0,0.0
1630607899.69961309,126728455,0.12,0.1,0.08,0.08,352.59,352.58,0.0,0.0
1630607899.79957294,126828415,0.16,0.12,0.09,0.05,352.59,352.59,0.0,0.0
1630607899.89953303,126928375,0.18,0.15,0.1,0.05,352.59,352.59,0.0,0.0
1630607899.99949312,127028335,0.2,0.17,0.1,0.07,352.59,352.59,0.0,0.0
1630607900.09945297,127128295,0.2,0.19,0.09,0.08,352.59,352.59,0.0,0.0
1630607900.19941306,127228255,0.16,0.17,0.07,0.06,352.59,352.59,0.0,0.0
1630607900.29937291,127328215,0.14,0.14,0.08,0.06,352.59,352.59,0.0,0.0
1630607900.39933300,127428175,0.14,0.12,0.12,0.08,352.59,352.59,0.0,0.0
1630607900.50012612,127528968,0.15,0.12,0.17,0.13,352.59,352.59,0.0,0.0
1630607900.60008597,127628928,0.14,0.12,0.19,0.17,352.59,352.59,0.0,0.0
1630607900.70004606,127728888,0.13,0.11,0.19,0.2,352.59,352.58,0.0,0.0
1630607900.80000591,127828848,0.12,0.1,0.15,0.17,352.59,352.58,0.0,0.0
1630607900.89996600,127928808,0.13,0.1,0.12,0.14,352.59,352.58,0.0,0.0
1630607900.99992609,128028768,0.14,0.11,0.14,0.12,352.59,352.58,0.0,0.0
1630607901.09988594,128128728,0.13,0.12,0.14,0.13,352.59,352.58,0.0,0.0
1630607901.19984603,128228688,0.12,0.11,0.13,0.11,352.59,352.58,0.0,0.0
1630607901.29980612,128328648,0.1,0.1,0.15,0.12,352.59,352.58,0.0,0.0
1630607901.39976597,128428608,0.12,0.09,0.16,0.13,352.59,352.58,0.0,0.0
1630607901.49972606,128528568,0.16,0.12,0.18,0.16,352.59,352.58,0.0,0.0
1630607901.59968615,128628528,0.19,0.16,0.21,0.19,352.59,352.58,0.0,0.0
1630607901.69964600,128728488,0.23,0.21,0.25,0.22,352.59,352.58,0.0,0.0
1630607901.79960608,128828448,0.28,0.26,0.29,0.27,352.59,352.58,0.0,0.0
1630607901.89956594,128928408,0.3,0.3,0.29,0.29,352.59,352.58,0.0,0.0
1630607901.99952602,129028368,0.28,0.3,0.29,0.29,352.59,352.59,0.0,0.0
1630607902.09948611,129128328,0.25,0.27,0.28,0.28,352.59,352.59,0.0,0.0
1630607902.19944596,129228288,0.24,0.24,0.29,0.27,352.59,352.59,0.0,0.0
1630607902.29940605,129328248,0.23,0.22,0.32,0.29,352.59,352.58,0.0,0.0
1630607902.39936614,129428208,0.22,0.2,0.33,0.31,352.59,352.58,0.0,0.0
1630607902.49932599,129528168,0.21,0.2,0.3,0.31,352.59,352.58,0.0,0.0
1630607902.60011911,129628961,0.23,0.2,0.27,0.28,352.59,352.58,0.0,0.0
1630607902.70007896,129728921,0.24,0.22,0.25,0.25,352.59,352.58,0.0,0.0
1630607902.80003905,129828881,0.23,0.23,0.24,0.22,352.59,352.59,0.0,0.0
1630607902.89999914,129928841,0.2,0.2,0.23,0.21,352.59,352.59,0.0,0.0
1630607902.99995899,130028801,0.16,0.16,0.23,0.2,352.59,352.59,0.0,0.0
1630607903.09991908,130128761,0.17,0.14,0.24,0.22,352.59,352.59,0.0,0.0
1630607903.19987893,130228721,0.19,0.15,0.25,0.24,352.59,352.59,0.0,0.0
1630607903.29983902,130328681,0.18,0.16,0.24,0.24,352.59,352.59,0.0,0.0
1630607903.39979911,130428641,0.19,0.17,0.24,0.24,352.59,352.59,0.0,0.0
1630607903.49975896,130528601,0.19,0.18,0.24,0.24,352.59,352.59,0.0,0.0
1630607903.59971905,130628561,0.17,0.18,0.21,0.22,352.59,352.59,0.0,0.0
1630607903.69967914,130728521,0.14,0.16,0.2,0.2,352.59,352.59,0.0,0.0
1630607903.79963899,130828481,0.13,0.13,0.2,0.19,352.59,352.59,0.0,0.0
1630607903.89959908,130928441,0.13,0.12,0.22,0.19,352.59,352.59,0.0,0.0
1630607903.99955893,131028401,0.13,0.11,0.23,0.21,352.59,352.58,0.0,0.0
1630607904.09951901,131128361,0.15,0.12,0.25,0.23,352.59,352.58,0.0,0.0
1630607904.19947910,131228321,0.14,0.12,0.26,0.24,352.59,352.58,0.0,0.0
1630607904.29943895,131328281,0.13,0.12,0.25,0.24,352.59,352.58,0.0,0.0
1630607904.39939904,131428241,0.1,0.1,0.22,0.23,352.59,352.58,0.0,0.0
1630607904.49935913,131528201,0.11,0.09,0.23,0.21,352.59,352.58,0.0,0.0
1630607904.59931898,131628161,0.14,0.1,0.24,0.21,352.59,352.58,0.0,0.0
1630607904.70011210,131728954,0.16,0.13,0.25,0.23,352.59,352.58,0.0,0.0
1630607904.80007195,131828914,0.18,0.15,0.25,0.24,352.59,352.59,0.0,0.0
1630607904.90003204,131928874,0.19,0.17,0.25,0.24,352.59,352.59,0.0,0.0
1630607904.99999213,132028834,0.19,0.18,0.25,0.24,352.59,352.59,0.0,0.0
1630607905.09995198,132128794,0.19,0.19,0.26,0.24,352.59,352.59,0.0,0.0
1630607905.19991207,132228754,0.18,0.18,0.28,0.25,352.59,352.59,0.0,0.0
1630607905.29987192,132328714,0.19,0.19,0.3,0.28,352.59,352.58,0.0,0.0
1630607905.39983201,132428674,0.2,0.18,0.32,0.3,352.59,352.58,0.0,0.0
1630607905.49979210,132528634,0.22,0.2,0.31,0.32,352.59,352.58,0.0,0.0
1630607905.59975195,132628594,0.24,0.23,0.29,0.29,352.59,352.58,0.0,0.0
1630607905.69971204,132728554,0.22,0.24,0.25,0.26,352.59,352.58,0.0,0.0
1630607905.79967213,132828514,0.21,0.21,0.21,0.21,352.59,352.58,0.0,0.0
1630607905.89963198,132928474,0.23,0.21,0.19,0.17,352.59,352.58,0.0,0.0
1630607905.99959207,133028434,0.22,0.21,0.19,0.15,352.59,352.58,0.0,0.0
1630607906.09955192,133128394,0.23,0.21,0.2,0.17,352.59,352.58,0.0,0.0
1630607906.19951200,133228354,0.25,0.22,0.22,0.18,352.59,352.58,0.0,0.0
1630607906.29947209,133328314,0.24,0.23,0.23,0.21,352.59,352.58,0.0,0.0
1630607906.39943194,133428274,0.22,0.21,0.24,0.22,352.59,352.58,0.0,0.0
1630607906.49939203,133528234,0.2,0.19,0.26,0.24,352.59,352.58,0.0,0.0
1630607906.59935212,133628194,0.2,0.18,0.27,0.26,352.59,352.59,0.0,0.0
1630607906.69931197,133728154,0.24,0.21,0.27,0.27,352.59,352.59,0.0,0.0
1630607906.80010509,133828947,0.26,0.24,0.28,0.27,352.59,352.59,0.0,0.0
1630607906.90006495,133928907,0.26,0.25,0.29,0.29,352.59,352.59,0.0,0.0
1630607907.00002503,134028867,0.25,0.24,0.27,0.28,352.59,352.58,0.0,0.0
1630607907.09998512,134128827,0.26,0.23,0.24,0.26,352.59,352.58,0.0,0.0
1630607907.19994497,134228787,0.27,0.24,0.23,0.23,352.59,352.58,0.0,0.0
1630607907.29990506,134328747,0.28,0.26,0.24,0.22,352.59,352.58,0.0,0.0
1630607907.39986491,134428707,0.28,0.27,0.25,0.23,352.59,352.58,0.0,0.0
1630607907.49982500,134528667,0.29,0.28,0.24,0.23,352.59,352.58,0.0,0.0
1630607907.59978509,134628627,0.3,0.29,0.2,0.2,352.59,352.58,0.0,0.0
1630607907.69974494,134728587,0.31,0.3,0.19,0.17,352.59,352.59,0.0,0.0
1630607907.79970503,134828547,0.3,0.29,0.21,0.17,352.59,352.59,0.0,0.0
1630607907.89966512,134928507,0.27,0.28,0.23,0.2,352.59,352.59,0.0,0.0
1630607907.99962497,135028467,0.24,0.24,0.25,0.22,352.59,352.59,0.0,0.0
1630607908.09958506,135128427,0.23,0.22,0.25,0.23,352.59,352.59,0.0,0.0
1630607908.19954515,135228387,0.23,0.2,0.25,0.23,352.59,352.59,0.0,0.0
1630607908.29950500,135328347,0.22,0.2,0.27,0.25,352.59,352.59,0.0,0.0
1630607908.39946508,135428307,0.2,0.2,0.25,0.26,352.59,352.58,0.0,0.0
1630607908.49942493,135528267,0.17,0.18,0.22,0.25,352.59,352.58,0.0,0.0
1630607908.59938502,135628227,0.16,0.15,0.19,0.21,352.59,352.58,0.0,0.0
1630607908.69934511,135728187,0.16,0.14,0.16,0.17,352.59,352.58,0.0,0.0
1630607908.80013800,135828980,0.16,0.13,0.14,0.13,352.59,352.57,0.0,0.0
1630607908.90009809,135928940,0.18,0.15,0.14,0.12,352.59,352.57,0.0,0.0
1630607909.00005794,136028900,0.2,0.17,0.15,0.11,352.59,352.57,0.0,0.0
1630607909.10001802,136128860,0.2,0.19,0.17,0.13,352.59,352.57,0.0,0.0
1630607909.19997811,136228820,0.19,0.19,0.18,0.16,352.59,352.57,0.0,0.0
1630607909.29993796,136328780,0.16,0.18,0.18,0.18,352.59,352.58,0.0,0.0
1630607909.39989805,136428740,0.13,0.14,0.17,0.18,352.59,352.58,0.0,0.0
1630607909.49985814,136528700,0.13,0.12,0.16,0.16,352.59,352.58,0.0,0.0
1630607909.59981799,136628660,0.16,0.12,0.13,0.14,352.59,352.59,0.0,0.0
1630607909.69977808,136728620,0.18,0.15,0.09,0.1,352.59,352.59,0.0,0.0
1630607909.79973793,136828580,0.19,0.16,0.08,0.07,352.59,352.59,0.0,0.0
1630607909.89969802,136928540,0.2,0.19,0.08,0.06,352.59,352.59,0.0,0.0
1630607909.99965811,137028500,0.2,0.2,0.08,0.06,352.59,352.59,0.0,0.0
1630607910.09961796,137128460,0.18,0.2,0.1,0.07,352.59,352.59,0.0,0.0
1630607910.19957805,137228420,0.18,0.18,0.07,0.07,352.59,352.59,0.0,0.0
1630607910.29953814,137328380,0.15,0.17,0.12,0.07,352.59,352.59,0.0,0.0
1630607910.39949799,137428340,-0.02,0.06,0.42,0.24,352.59,352.59,0.0,0.0
1630607910.49945807,137528300,-0.34,-0.19,0.93,0.66,352.59,352.58,0.0,0.0
1630607910.59941792,137628260,-0.77,-0.6,1.58,1.29,352.59,352.58,0.0,0.0
1630607910.69937801,137728220,-1.3,-1.14,2.34,2.09,352.59,352.56,0.0,0.0
1630607910.79933810,137828180,-1.84,-1.75,3.12,2.96,352.59,352.55,0.0,0.0
1630607910.90013099,137928973,-2.31,-2.32,3.79,3.78,352.59,352.53,0.0,0.0
1630607911.00009108,138028933,-2.68,-2.8,4.32,4.44,352.59,352.52,0.0,0.0
1630607911.10005093,138128893,-2.97,-3.15,4.75,4.94,352.59,352.52,0.0,0.0
1630607911.20001101,138228853,-3.22,-3.4,5.1,5.29,352.59,352.53,0.0,0.0
1630607911.29997110,138328813,-3.45,-3.6,5.4,5.57,352.59,352.54,0.0,0.0
1630607911.39993095,138428773,-3.68,-3.78,5.75,5.84,352.59,352.56,0.0,0.0
1630607911.49989104,138528733,-3.9,-3.96,6.13,6.15,352.59,352.56,0.0,0.0
1630607911.59985113,138628693,-4.1,-4.15,6.44,6.46,352.59,352.57,0.0,0.0
1630607911.69981098,138728653,-4.26,-4.31,6.68,6.72,352.59,352.58,0.0,0.0
1630607911.79977107,138828613,-4.4,-4.44,6.88,6.93,352.59,352.58,0.0,0.0
1630607911.89973092,138928573,-4.52,-4.56,7.02,7.09,352.59,352.59,0.0,0.0
1630607911.99969101,139028533,-4.62,-4.66,7.13,7.19,352.59,352.6,0.0,0.0
1630607912.09965110,139128493,-4.73,-4.73,7.26,7.29,352.35,352.6,0.0,0.0
1630607912.19961095,139228453,-4.88,-4.7,7.48,7.53,349.88,352.48,0.0,0.0
1630607912.29957104,139328413,-5.17,-4.51,7.74,8.03,344.75,351.73,0.0,0.0
1630607912.39953113,139428373,-5.68,-4.42,7.93,8.64,338.75,349.61,0.0,0.0
1630607912.49949098,139528333,-6.5,-4.8,7.9,9.1,332.75,345.79,0.0,0.0
1630607912.59945107,139628293,-7.61,-5.73,7.53,9.14,326.75,340.36,0.0,0.01
1630607912.69941092,139728253,-8.89,-7.12,6.71,8.6,320.75,333.63,0.0,0.02
1630607912.79937100,139828213,-10.19,-8.73,5.46,7.39,314.75,325.97,0.0,0.03
1630607912.89933109,139928173,-11.37,-10.33,3.84,5.58,308.76,317.72,0.0,0.05
1630607913.00012398,140028966,-12.31,-11.71,2.01,3.31,302.76,309.18,0.0,0.06
1630607913.10008407,140128926,-12.93,-12.68,0.07,0.8,296.76,300.59,0.0,0.07
1630607913.20004392,140228886,-13.21,-13.17,-1.85,-1.73,290.76,292.17,0.0,0.08
1630607913.30000401,140328846,-13.16,-13.16,-3.7,-4.11,284.76,284.1,0.0,0.09
1630607913.39996409,140428806,-12.86,-12.73,-5.43,-6.21,278.76,276.52,0.0,0.09
1630607913.49992394,140528766,-12.41,-12.06,-6.99,-7.97,272.76,269.5,0.0,0.09
1630607913.59988403,140628726,-11.83,-11.29,-8.4,-9.39,266.76,263.06,0.0,0.09
1630607913.69984412,140728686,-11.14,-10.48,-9.67,-10.53,260.75,257.15,0.0,0.08
1630607913.79980397,140828646,-10.35,-9.7,-10.79,-11.44,254.75,251.69,0.0,0.08
1630607913.89976406,140928606,-9.47,-8.93,-11.78,-12.2,248.75,246.53,0.0,0.07
1630607913.99972391,141028566,-8.51,-8.16,-12.67,-12.85,242.75,241.54,0.0,0.06
1630607914.09968400,141128526,-7.46,-7.36,-13.47,-13.46,236.75,236.57,0.0,0.06
1630607914.19964409,141228486,-6.3,-6.47,-14.18,-14.05,230.75,231.52,0.0,0.05
1630607914.29960394,141328446,-4.98,-5.42,-14.8,-14.61,224.75,226.28,0.0,0.05
1630607914.39956403,141428406,-3.52,-4.15,-15.31,-15.13,218.75,220.8,0.0,0.05
1630607914.49952412,141528366,-1.95,-2.59,-15.7,-15.59,213.69,215.07,0.0,0.05
1630607914.59948397,141628326,-0.3,-0.42,-15.94,-15.92,210.97,209.35,0.0,0.05
1630607914.69944406,141728286,1.24,2.1,-15.99,-15.98,209.57,204.25,0.0,0.05
1630607914.79940414,141828246,2.45,4.46,-15.91,-15.78,208.85,200.33,0.0,0.05
1630607914.89936399,141928206,3.13,6.14,-15.84,-15.46,208.45,197.88,0.0,0.05
1630607914.99932408,142028166,3.21,6.85,-15.85,-15.22,208.21,196.9,0.0,0.04
1630607915.10011697,142128959,2.79,6.55,-15.97,-15.16,208.03,197.18,0.0,0.04
1630607915.20007706,142228919,2.04,5.43,-16.17,-15.32,207.86,198.45,0.0,0.04
1630607915.30003715,142328879,1.16,3.78,-16.38,-15.63,207.69,200.4,0.0,0.04
1630607915.39999700,142428839,0.31,1.94,-16.58,-16.0,207.51,202.73,0.0,0.05
1630607915.49995708,142528799,-0.38,0.2,-16.7,-16.33,207.34,205.15,0.0,0.05
1630607915.59991693,142628759,-0.89,-1.21,-16.73,-16.54,207.17,207.35,0.0,0.06
1630607915.69987702,142728719,-1.21,-2.2,-16.71,-16.62,207.02,209.1,0.0,0.06
1630607915.79983711,142828679,-1.33,-2.74,-16.66,-16.62,206.89,210.26,0.0,0.06
1630607915.89979696,142928639,-1.24,-2.83,-16.64,-16.57,206.78,210.79,0.0,0.05
1630607915.99975705,143028599,-1.05,-2.56,-16.64,-16.55,206.7,210.74,0.0,0.05
1630607916.09971714,143128559,-0.82,-2.08,-16.67,-16.56,206.65,210.2,0.0,0.04
1630607916.19967699,143228519,-0.55,-1.47,-16.73,-16.62,206.61,209.33,0.0,0.03
1630607916.29963708,143328479,-0.27,-0.81,-16.77,-16.69,206.59,208.28,0.0,0.02
1630607916.39959693,143428439,0.01,-0.15,-16.84,-16.77,206.58,207.19,0.0,0.02
1630607916.49955702,143528399,0.26,0.42,-16.87,-16.85,206.57,206.21,0.0,0.01
1630607916.59951711,143628359,0.44,0.89,-16.89,-16.89,206.57,205.42,0.0,0.01
1630607916.69947696,143728319,0.55,1.19,-16.9,-16.91,206.57,204.88,0.0,0.01
1630607916.79943705,143828279,0.54,1.29,-16.91,-16.92,206.57,204.61,0.0,0.01
1630607916.89939713,143928239,0.46,1.21,-16.94,-16.93,206.57,204.59,0.0,0.01
1630607916.99935699,144028199,0.34,1.0,-16.97,-16.95,206.56,204.78,0.0,0.01
1630607917.09931707,144128159,0.2,0.71,-16.99,-16.98,206.56,205.12,0.0,0.01
1630607917.20010996,144228952,0.07,0.4,-17.02,-17.01,206.55,205.55,0.0,0.01
1630607917.30007005,144328912,-0.02,0.12,-17.06,-17.04,206.54,206.0,0.0,0.01
1630607917.40003014,144428872,-0.08,-0.09,-17.09,-17.08,206.53,206.41,0.0,0.02
1630607917.49998999,144528832,-0.11,-0.24,-17.1,-17.11,206.54,206.75,0.0,0.02
1630607917.59995008,144628792,-0.13,-0.32,-17.08,-17.11,206.54,206.99,0.0,0.02
1630607917.69990993,144728752,-0.13,-0.35,-17.09,-17.1,206.55,207.11,0.0,0.02
1630607917.79987001,144828712,-0.09,-0.31,-17.14,-17.13,206.56,207.14,0.0,0.01
1630607917.89983010,144928672,-0.02,-0.23,-17.19,-17.17,206.58,207.09,0.0,0.01
1630607917.99978995,145028632,0.03,-0.1,-17.2,-17.21,206.6,206.97,0.0,0.01
1630607918.09975004,145128592,0.08,0.01,-17.22,-17.23,206.63,206.83,0.0,0.01
1630607918.19971013,145228552,0.14,0.13,-17.27,-17.26,206.66,206.67,0.0,0.01
1630607918.29966998,145328512,0.19,0.25,-17.31,-17.3,206.69,206.53,0.0,0.01
1630607918.39963007,145428472,0.21,0.34,-17.37,-17.36,206.72,206.43,0.0,0.01
1630607918.49958992,145528432,0.21,0.38,-17.4,-17.4,206.75,206.36,0.0,0.01
1630607918.59955001,145628392,0.21,0.39,-17.4,-17.42,206.78,206.35,0.0,0.01
1630607918.69951010,145728352,0.21,0.37,-17.38,-17.41,206.81,206.37,0.0,0.01
1630607918.79946995,145828312,0.21,0.35,-17.39,-17.41,206.85,206.44,0.0,0.01
1630607918.89943004,145928272,0.21,0.32,-17.42,-17.43,206.88,206.53,0.0,0.01
1630607918.99939013,146028232,0.2,0.29,-17.46,-17.46,206.91,206.63,0.0,0.01
1630607919.09934998,146128192,0.2,0.26,-17.51,-17.5,206.94,206.74,0.0,0.01
1630607919.20014310,146228985,0.18,0.23,-17.54,-17.55,206.97,206.85,0.0,0.01
1630607919.30010295,146328945,0.16,0.19,-17.56,-17.58,207.0,206.94,0.0,0.01
1630607919.40006304,146428905,0.15,0.16,-17.58,-17.6,207.03,207.02,0.0,0.01
1630607919.50002313,146528865,0.14,0.14,-17.57,-17.6,207.07,207.08,0.0,0.01
1630607919.59998298,146628825,0.14,0.12,-17.53,-17.57,207.1,207.12,0.0,0.01
1630607919.69994307,146728785,0.17,0.14,-17.53,-17.54,207.13,207.14,0.0,0.01
1630607919.79990292,146828745,0.21,0.18,-17.57,-17.56,207.17,207.15,0.0,0.0
1630607919.89986300,146928705,0.25,0.24,-17.63,-17.61,207.2,207.15,0.0,0.0
1630607919.99982309,147028665,0.28,0.3,-17.67,-17.66,207.24,207.15,0.0,0.0
1630607920.09978294,147128625,0.28,0.34,-17.71,-17.71,207.27,207.15,0.0,0.0
1630607920.19974303,147228585,0.26,0.34,-17.71,-17.74,207.31,207.16,0.0,0.0
1630607920.29970312,147328545,0.25,0.33,-17.7,-17.73,207.34,207.18,0.0,0.0
1630607920.39966297,147428505,0.24,0.3,-17.72,-17.74,207.38,207.21,0.0,0.0
1630607920.49962306,147528465,0.23,0.29,-17.72,-17.75,207.41,207.25,0.0,0.0
1630607920.59958291,147628425,0.23,0.27,-17.72,-17.74,207.44,207.29,0.0,0.0
1630607920.69954300,147728385,0.26,0.27,-17.74,-17.75,207.47,207.33,0.0,0.0
1630607920.79950309,147828345,0.29,0.3,-17.78,-17.78,207.5,207.37,0.0,0.0
1630607920.89946294,147928305,0.32,0.32,-17.8,-17.82,207.53,207.42,0.0,0.0
1630607920.99942303,148028265,3.63,1.91,-14.66,-16.35,207.57,207.5,0.0,0.0
1630607921.09938312,148128225,5.62,4.79,-12.74,-13.59,207.59,207.68,0.0,0.0
1630607921.19934297,148228185,5.09,5.97,-13.17,-12.39,207.6,207.76,0.0,0.01
1630607921.30013609,148328978,3.67,5.31,-14.45,-12.94,207.58,207.66,0.0,0.01
1630607921.40009594,148428938,2.29,3.68,-15.71,-14.42,207.53,207.51,0.0,0.01
1630607921.50005603,148528898,1.38,2.02,-16.58,-15.96,207.45,207.4,0.0,0.01
1630607921.60001612,148628858,1.0,0.88,-16.97,-17.04,207.35,207.35,0.0,0.01
1630607921.69997597,148728818,1.03,0.44,-16.97,-17.48,207.24,207.3,0.0,0.01
1630607921.79993606,148828778,1.27,0.56,-16.77,-17.41,207.13,207.23,0.0,0.01
1630607921.89989614,148928738,1.54,0.97,-16.54,-17.06,207.03,207.14,0.0,0.01
1630607921.99985600,149028698,1.71,1.4,-16.41,-16.69,206.93,207.03,0.0,0.01
1630607922.09981608,149128658,1.75,1.69,-16.42,-16.45,206.83,206.9,0.0,0.0
1630607922.19977593,149228618,1.68,1.78,-16.51,-16.41,206.74,206.76,0.0,0.0
1630607922.29973602,149328578,1.57,1.73,-16.67,-16.52,206.64,206.61,0.0,0.0
1630607922.39969611,149428538,1.44,1.6,-16.84,-16.71,206.54,206.46,0.0,0.0
1630607922.49965596,149528498,1.32,1.44,-16.96,-16.9,206.44,206.33,0.0,0.0
1630607922.59961605,149628458,1.25,1.3,-17.04,-17.04,206.34,206.2,0.0,0.0
1630607922.69957614,149728418,1.23,1.23,-17.09,-17.13,206.24,206.09,0.0,0.0
1630607922.79953599,149828378,1.25,1.22,-17.09,-17.16,206.15,205.99,0.0,0.0
1630607922.89949608,149928338,1.26,1.24,-17.07,-17.14,206.05,205.9,0.0,0.0
1630607922.99945593,150028298,1.26,1.26,-17.07,-17.12,205.96,205.82,0.0,0.0
1630607923.09941602,150128258,1.26,1.28,-17.09,-17.11,205.87,205.74,0.0,0.0
1630607923.19937611,150228218,1.24,1.28,-17.16,-17.15,205.79,205.67,0.0,0.0
1630607923.29933596,150328178,1.24,1.27,-17.22,-17.21,205.71,205.6,0.0,0.0
1630607923.40012908,150428971,1.21,1.25,-17.28,-17.27,205.63,205.54,0.0,0.0
1630607923.50008893,150528931,1.2,1.22,-17.32,-17.33,205.56,205.47,0.0,0.0
1630607923.60004902,150628891,1.22,1.22,-17.33,-17.37,205.49,205.41,0.0,0.0
1630607923.70000911,150728851,1.23,1.24,-17.33,-17.37,205.42,205.34,0.0,0.0
1630607923.79996896,150828811,1.23,1.25,-17.34,-17.36,205.36,205.28,0.0,0.0
1630607923.89992905,150928771,1.21,1.25,-17.32,-17.35,205.3,205.22,0.0,0.0
1630607923.99988914,151028731,1.19,1.22,-17.26,-17.3,205.24,205.16,0.0,0.0
1630607924.09984899,151128691,1.19,1.2,-17.2,-17.23,205.18,205.1,0.0,0.0
1630607924.19980907,151228651,1.21,1.21,-17.16,-17.17,205.12,205.05,0.0,0.0
1630607924.29976892,151328611,1.24,1.24,-17.16,-17.14,205.07,204.99,0.0,0.0
1630607924.39972901,151428571,1.27,1.27,-17.16,-17.14,205.02,204.93,0.0,0.0
1630607924.49968910,151528531,1.31,1.32,-17.16,-17.14,204.97,204.88,0.0,0.0
1630607924.59964895,151628491,1.36,1.37,-17.15,-17.15,204.93,204.83,0.0,0.0
1630607924.69960904,151728451,1.41,1.42,-17.12,-17.13,204.89,204.79,0.0,0.0
1630607924.79956913,151828411,1.41,1.45,-17.11,-17.12,204.85,204.75,0.0,0.0
1630607924.89952898,151928371,1.41,1.45,-17.11,-17.12,204.82,204.72,0.0,0.0
1630607924.99948907,152028331,1.41,1.45,-17.11,-17.13,204.78,204.69,0.0,0.0
1630607925.09944892,152128291,1.39,1.44,-17.1,-17.12,204.75,204.66,0.0,0.0
1630607925.19940901,152228251,1.37,1.41,-17.09,-17.11,204.72,204.64,0.0,0.0
1630607925.29936910,152328211,1.37,1.39,-17.1,-17.1,204.69,204.62,0.0,0.0
1630607925.39932895,152428171,1.37,1.38,-17.12,-17.1,204.67,204.6,0.0,0.0
1630607925.50012207,152528964,1.38,1.38,-17.1,-17.1,204.65,204.58,0.0,0.0
1630607925.60008192,152628924,1.39,1.39,-17.09,-17.1,204.62,204.56,0.0,0.0
1630607925.70004201,152728884,1.42,1.42,-17.09,-17.09,204.6,204.54,0.0,0.0
1630607925.80000210,152828844,1.43,1.44,-17.11,-17.12,204.59,204.52,0.0,0.0
1630607925.89996195,152928804,1.44,1.45,-17.12,-17.14,204.57,204.5,0.0,0.0
1630607925.99992204,153028764,1.45,1.47,-17.1,-17.14,204.55,204.48,0.0,0.0
1630607926.09988213,153128724,1.45,1.47,-17.08,-17.12,204.53,204.47,0.0,0.0
1630607926.19984198,153228684,1.44,1.47,-17.05,-17.09,204.52,204.45,0.0,0.0
1630607926.29980206,153328644,1.44,1.47,-17.02,-17.05,204.51,204.44,0.0,0.0
1630607926.39976192,153428604,1.45,1.47,-17.03,-17.04,204.49,204.42,0.0,0.0
1630607926.49972200,153528564,1.48,1.49,-17.05,-17.04,204.48,204.41,0.0,0.0
1630607926.59968209,153628524,1.5,1.5,-17.07,-17.06,204.48,204.4,0.0,0.0
1630607926.69964194,153728484,1.51,1.51,-17.09,-17.09,204.47,204.39,0.0,0.0
1630607926.79960203,153828444,1.5,1.51,-17.12,-17.12,204.46,204.38,0.0,0.0
1630607926.89956212,153928404,1.49,1.5,-17.15,-17.16,204.46,204.38,0.0,0.0
1630607926.99952197,154028364,1.53,1.52,-17.16,-17.19,204.45,204.38,0.0,0.0
1630607927.09948206,154128324,1.55,1.56,-17.14,-17.18,204.45,204.38,0.0,0.0
1630607927.19944191,154228284,1.55,1.57,-17.11,-17.15,204.45,204.39,0.0,0.0
1630607927.29940200,154328244,1.54,1.57,-17.09,-17.11,204.44,204.39,0.0,0.0
1630607927.39936209,154428204,1.52,1.55,-17.1,-17.11,204.44,204.39,0.0,0.0
1630607927.49932194,154528164,1.5,1.52,-17.11,-17.12,204.44,204.39,0.0,0.0
1630607927.60011506,154628957,1.5,1.5,-17.11,-17.13,204.43,204.39,0.0,0.0
1630607927.70007491,154728917,1.51,1.5,-17.11,-17.12,204.43,204.38,0.0,0.0
1630607927.80003500,154828877,1.52,1.51,-17.11,-17.12,204.43,204.38,0.0,0.0
1630607927.89999509,154928837,1.53,1.53,-17.13,-17.13,204.42,204.38,0.0,0.0
1630607927.99995494,155028797,1.55,1.54,-17.14,-17.15,204.42,204.37,0.0,0.0
1630607928.09991503,155128757,1.58,1.58,-17.15,-17.16,204.42,204.37,0.0,0.0
1630607928.19987512,155228717,1.58,1.59,-17.14,-17.17,204.42,204.37,0.0,0.0
1630607928.29983497,155328677,1.57,1.59,-17.12,-17.15,204.42,204.36,0.0,0.0
1630607928.39979506,155428637,1.56,1.58,-17.1,-17.12,204.42,204.36,0.0,0.0
1630607928.49975514,155528597,1.55,1.57,-17.09,-17.1,204.42,204.36,0.0,0.0
1630607928.59971499,155628557,1.56,1.56,-17.1,-17.09,204.42,204.36,0.0,0.0
1630607928.69967508,155728517,1.54,1.55,-17.11,-17.1,204.41,204.36,0.0,0.0
1630607928.79963493,155828477,1.53,1.54,-17.13,-17.12,204.41,204.36,0.0,0.0
1630607928.89959502,155928437,1.55,1.54,-17.15,-17.14,204.41,204.36,0.0,0.0
1630607928.99955511,156028397,1.55,1.55,-17.13,-17.16,204.41,204.36,0.0,0.0
1630607929.09951496,156128357,1.56,1.56,-17.09,-17.14,204.41,204.36,0.0,0.0
1630607929.19947505,156228317,1.54,1.56,-17.07,-17.1,204.4,204.36,0.0,0.0
1630607929.29943514,156328277,1.53,1.55,-17.07,-17.08,204.4,204.36,0.0,0.0
1630607929.39939499,156428237,1.55,1.55,-17.07,-17.07,204.4,204.36,0.0,0.0
1630607929.49935508,156528197,1.57,1.56,-17.08,-17.07,204.4,204.36,0.0,0.0
1630607929.59931493,156628157,1.59,1.58,-17.09,-17.09,204.4,204.35,0.0,0.0
1630607929.70010805,156728950,1.6,1.6,-17.11,-17.11,204.4,204.35,0.0,0.0
1630607929.80006814,156828910,1.6,1.61,-17.13,-17.14,204.4,204.35,0.0,0.0
1630607929.90002799,156928870,1.58,1.59,-17.12,-17.14,204.4,204.36,0.0,0.0
1630607929.99998808,157028830,1.58,1.57,-17.11,-17.13,204.41,204.36,0.0,0.0
1630607930.09994793,157128790,1.6,1.58,-17.1,-17.11,204.41,204.36,0.0,0.0
1630607930.19990802,157228750,1.6,1.58,-17.1,-17.11,204.41,204.37,0.0,0.0
1630607930.29986811,157328710,1.59,1.59,-17.1,-17.1,204.41,204.37,0.0,0.0
1630607930.39982796,157428670,1.59,1.59,-17.09,-17.1,204.41,204.37,0.0,0.0
1630607930.49978805,157528630,1.62,1.61,-17.08,-17.09,204.41,204.37,0.0,0.0
1630607930.59974813,157628590,1.63,1.63,-17.09,-17.1,204.41,204.38,0.0,0.0
1630607930.69970798,157728550,1.65,1.65,-17.09,-17.1,204.41,204.38,0.0,0.0
1630607930.79966807,157828510,1.67,1.67,-17.1,-17.11,204.42,204.38,0.0,0.0
1630607930.89962792,157928470,1.65,1.68,-17.14,-17.13,204.42,204.38,0.0,0.0
1630607930.99958801,158028430,1.64,1.66,-17.15,-17.16,204.42,204.38,0.0,0.0
1630607931.09954810,158128390,1.64,1.65,-17.12,-17.16,204.42,204.39,0.0,0.0
1630607931.19950795,158228350,1.66,1.66,-17.07,-17.12,204.42,204.39,0.0,0.0
1630607931.29946804,158328310,1.65,1.66,-17.05,-17.08,204.42,204.39,0.0,0.0
1630607931.39942813,158428270,1.64,1.64,-17.05,-17.05,204.42,204.4,0.0,0.0
1630607931.49938798,158528230,1.63,1.63,-17.06,-17.06,204.42,204.4,0.0,0.0
1630607931.59934807,158628190,1.62,1.61,-17.08,-17.08,204.42,204.4,0.0,0.0
1630607931.70014095,158728983,1.64,1.61,-17.08,-17.09,204.42,204.39,0.0,0.0
1630607931.80010104,158828943,1.66,1.64,-17.07,-17.1,204.42,204.39,0.0,0.0
1630607931.90006113,158928903,1.65,1.66,-17.07,-17.09,204.42,204.39,0.0,0.0
1630607932.00002098,159028863,1.64,1.66,-17.09,-17.1,204.42,204.38,0.0,0.0
1630607932.09998107,159128823,1.63,1.65,-17.11,-17.13,204.42,204.38,0.0,0.0
1630607932.19994092,159228783,1.62,1.64,-17.1,-17.14,204.42,204.38,0.0,0.0
1630607932.29990101,159328743,1.64,1.64,-17.09,-17.12,204.42,204.39,0.0,0.0
1630607932.39986110,159428703,1.69,1.67,-17.08,-17.1,204.42,204.39,0.0,0.0
1630607932.49982095,159528663,1.72,1.72,-17.05,-17.08,204.42,204.39,0.0,0.0
1630607932.59978104,159628623,1.71,1.73,-17.0,-17.03,204.43,204.4,0.0,0.0
1630607932.69974113,159728583,1.7,1.71,-17.0,-17.0,204.43,204.4,0.0,0.0
1630607932.79970098,159828543,1.68,1.7,-17.03,-17.0,204.43,204.4,0.0,0.0
1630607932.89966106,159928503,1.66,1.67,-17.05,-17.03,204.42,204.4,0.0,0.0
1630607932.99962091,160028463,1.65,1.65,-17.05,-17.05,204.42,204.4,0.0,0.0
1630607933.09958100,160128423,1.62,1.63,-17.06,-17.05,204.42,204.4,0.0,0.0
1630607933.19954109,160228383,1.58,1.58,-17.08,-17.07,204.42,204.4,0.0,0.0
1630607933.29950094,160328343,1.6,1.57,-17.08,-17.08,204.41,204.39,0.0,0.0
1630607933.39946103,160428303,1.63,1.6,-17.09,-17.1,204.41,204.39,0.0,0.0
1630607933.49942112,160528263,1.65,1.62,-17.06,-17.1,204.4,204.38,0.0,0.0
1630607933.59938097,160628223,1.65,1.64,-17.04,-17.08,204.4,204.38,0.0,0.0
1630607933.69934106,160728183,1.63,1.63,-17.04,-17.06,204.4,204.37,0.0,0.0
1630607933.80013394,160828976,1.61,1.61,-17.06,-17.07,204.4,204.37,0.0,0.0
1630607933.90009403,160928936,1.63,1.6,-17.07,-17.08,204.39,204.36,0.0,0.0
1630607934.00005412,161028896,1.66,1.62,-17.06,-17.09,204.39,204.36,0.0,0.0
1630607934.10001397,161128856,1.7,1.66,-17.04,-17.08,204.39,204.36,0.0,0.0
1630607934.19997406,161228816,1.72,1.71,-17.03,-17.06,204.39,204.36,0.0,0.0
1630607934.29993391,161328776,1.72,1.73,-17.04,-17.05,204.39,204.36,0.0,0.0
1630607934.39989400,161428736,1.7,1.72,-17.04,-17.05,204.4,204.36,0.0,0.0
1630607934.49985409,161528696,1.65,1.68,-17.03,-17.05,204.4,204.37,0.0,0.0
1630607934.59981394,161628656,1.62,1.63,-17.03,-17.04,204.4,204.37,0.0,0.0
1630607934.69977403,161728616,1.63,1.61,-17.04,-17.04,204.4,204.37,0.0,0.0
1630607934.79973412,161828576,1.68,1.64,-17.05,-17.05,204.4,204.38,0.0,0.0
1630607934.89969397,161928536,1.71,1.69,-17.06,-17.06,204.4,204.38,0.0,0.0
1630607934.99965405,162028496,1.69,1.71,-17.08,-17.08,204.4,204.38,0.0,0.0
1630607935.09961414,162128456,1.68,1.71,-17.09,-17.1,204.4,204.38,0.0,0.0
1630607935.19957399,162228416,1.7,1.71,-17.07,-17.1,204.4,204.38,0.0,0.0
1630607935.29953408,162328376,1.69,1.71,-17.04,-17.08,204.4,204.38,0.0,0.0
1630607935.39949393,162428336,1.67,1.69,-17.02,-17.05,204.4,204.38,0.0,0.0
1630607935.49945402,162528296,1.64,1.66,-17.03,-17.04,204.4,204.38,0.0,0.0
1630607935.59941411,162628256,1.64,1.64,-17.08,-17.06,204.41,204.38,0.0,0.0
1630607935.69937396,162728216,1.65,1.65,-17.09,-17.09,204.4,204.38,0.0,0.0
1630607935.79933405,162828176,1.64,1.65,-17.09,-17.11,204.41,204.38,0.0,0.0
1630607935.90012693,162928969,1.65,1.65,-17.07,-17.1,204.41,204.38,0.0,0.0
1630607936.00008702,163028929,1.66,1.66,-17.08,-17.1,204.41,204.38,0.0,0.0
1630607936.10004711,163128889,1.68,1.68,-17.1,-17.11,204.41,204.39,0.0,0.0
1630607936.20000696,163228849,1.7,1.69,-17.11,-17.13,204.41,204.39,0.0,0.0
1630607936.29996705,163328809,1.71,1.71,-17.07,-17.11,204.41,204.39,0.0,0.0
1630607936.39992714,163428769,1.71,1.72,-17.05,-17.08,204.42,204.4,0.0,0.0
1630607936.49988699,163528729,1.7,1.71,-17.01,-17.04,204.42,204.4,0.0,0.0
1630607936.59984708,163628689,1.7,1.7,-16.99,-17.0,204.42,204.4,0.0,0.0
1630607936.69980693,163728649,1.69,1.69,-17.0,-16.99,204.42,204.4,0.0,0.0
1630607936.79976702,163828609,1.7,1.69,-17.04,-17.02,204.42,204.41,0.0,0.0
1630607936.89972711,163928569,1.71,1.71,-17.07,-17.07,204.43,204.41,0.0,0.0
1630607936.99968696,164028529,1.72,1.71,-17.08,-17.09,204.43,204.41,0.0,0.0
1630607937.09964705,164128489,1.71,1.72,-17.07,-17.1,204.43,204.41,0.0,0.0
1630607937.19960713,164228449,1.7,1.71,-17.06,-17.1,204.43,204.41,0.0,0.0
1630607937.29956698,164328409,1.7,1.7,-17.04,-17.07,204.43,204.41,0.0,0.0
1630607937.39952707,164428369,1.7,1.7,-17.06,-17.07,204.43,204.41,0.0,0.0
1630607937.49948692,164528329,1.72,1.7,-17.05,-17.07,204.43,204.41,0.0,0.0
