timestamp,TimeUS,DesRoll,Roll,DesPitch,Pitch,DesYaw,Yaw,ErrRP,ErrYaw
1630606942.59999990,76828423,0.0,0.13,0.0,0.12,353.0,353.01,0.0,0.0
1630606942.69995999,76928383,0.0,0.13,0.0,0.12,353.0,353.01,0.0,0.0
1630606942.79991984,77028343,0.0,0.13,0.0,0.12,353.0,353.01,0.0,0.0
1630606942.89987993,77128303,0.0,0.13,0.0,0.12,353.0,353.01,0.0,0.0
1630606942.99983978,77228263,0.0,0.13,0.0,0.12,353.01,353.02,0.0,0.0
1630606943.09979987,77328223,0.0,0.13,0.0,0.12,353.01,353.02,0.0,0.0
1630606943.19975996,77428183,0.0,0.14,0.0,0.12,353.01,353.02,0.0,0.0
1630606943.30055285,77528976,0.0,0.14,0.0,0.12,353.01,353.02,0.0,0.0
1630606943.40051293,77628936,0.0,0.14,0.0,0.12,353.01,353.02,0.0,0.0
1630606943.50047278,77728896,0.0,0.14,0.0,0.12,353.01,353.02,0.0,0.0
1630606943.60043287,77828856,0.0,0.14,0.0,0.12,353.01,353.02,0.0,0.0
1630606943.70039296,77928816,0.0,0.14,0.0,0.12,353.01,353.02,0.0,0.0
1630606943.80035281,78028776,0.0,0.14,0.0,0.12,353.01,353.02,0.0,0.0
1630606943.90031290,78128736,0.0,0.14,0.0,0.12,353.01,353.02,0.0,0.0
1630606944.00027299,78228696,0.0,0.14,0.0,0.12,353.01,353.02,0.0,0.0
1630606944.10023284,78328656,0.0,0.14,0.0,0.12,353.01,353.02,0.0,0.0
1630606944.20019293,78428616,0.0,0.14,0.0,0.12,353.01,353.02,0.0,0.0
1630606944.30015278,78528576,0.0,0.14,0.0,0.12,353.01,353.02,0.0,0.0
1630606944.40011287,78628536,0.0,0.14,0.0,0.12,353.01,353.02,0.0,0.0
1630606944.50007296,78728496,0.0,0.14,0.0,0.12,353.01,353.02,0.0,0.0
1630606944.60003281,78828456,0.0,0.14,0.0,0.12,353.01,353.02,0.0,0.0
1630606944.69999290,78928416,0.0,0.14,0.0,0.12,353.01,353.02,0.0,0.0
1630606944.79995298,79028376,0.0,0.14,0.0,0.12,353.01,353.02,0.0,0.0
1630606944.89991283,79128336,0.0,0.14,0.0,0.12,353.02,353.03,0.0,0.0
1630606944.99987292,79228296,0.0,0.14,0.0,0.12,353.02,353.03,0.0,0.0
1630606945.09983277,79328256,0.0,0.14,0.0,0.12,353.02,353.03,0.0,0.0
1630606945.19979286,79428216,0.0,0.14,0.0,0.12,353.02,353.03,0.0,0.0
1630606945.29975295,79528176,0.0,0.14,0.0,0.12,353.02,353.03,0.0,0.0
1630606945.40054584,79628969,0.0,0.14,0.0,0.13,353.02,353.03,0.0,0.0
1630606945.50050592,79728929,0.0,0.14,0.0,0.13,353.02,353.03,0.0,0.0
1630606945.60046577,79828889,0.0,0.14,0.0,0.13,353.02,353.03,0.0,0.0
1630606945.70042586,79928849,0.0,0.14,0.0,0.13,353.02,353.03,0.0,0.0
1630606945.80038595,80028809,-0.05,0.14,-0.05,0.13,353.02,353.03,0.0,0.0
1630606945.90034580,80128769,-0.2,0.14,-0.2,0.13,353.02,353.03,0.0,0.0
1630606946.00030589,80228729,-0.28,0.14,-0.28,0.13,353.02,353.03,0.0,0.0
1630606946.10026598,80328689,-0.34,0.14,-0.34,0.13,353.02,353.03,0.0,0.0
1630606946.20022583,80428649,-0.38,0.14,-0.38,0.13,353.02,353.03,0.0,0.0
1630606946.30018592,80528609,-0.41,0.14,-0.42,0.13,353.02,353.03,0.0,0.0
1630606946.40014577,80628569,-0.44,0.14,-0.45,0.13,353.02,353.03,0.0,0.0
1630606946.50010586,80728529,-0.47,0.14,-0.47,0.13,353.02,353.03,0.0,0.0
1630606946.60006595,80828489,-0.51,0.14,-0.51,0.13,353.02,353.03,0.0,0.0
1630606946.70002580,80928449,-0.54,0.14,-0.54,0.13,353.02,353.03,0.0,0.0
1630606946.79998589,81028409,-0.56,0.14,-0.57,0.13,353.02,353.03,0.0,0.0
1630606946.89994597,81128369,-0.59,0.15,-0.61,0.13,353.02,353.03,0.0,0.0
1630606946.99990582,81228329,-0.63,0.15,-0.64,0.13,353.02,353.03,0.0,0.0
1630606947.09986591,81328289,-0.67,0.15,-0.67,0.13,353.02,353.03,0.0,0.0
1630606947.19982576,81428249,-0.69,0.15,-0.69,0.13,353.02,353.03,0.0,0.0
1630606947.29978585,81528209,-0.71,0.15,-0.71,0.13,353.02,353.04,0.0,0.0
1630606947.39974594,81628169,-0.73,0.02,-0.75,0.0,353.02,353.04,0.0,0.0
1630606947.50053883,81728962,-0.75,-0.44,-0.76,-0.46,353.02,353.03,0.0,0.0
1630606947.60049891,81828922,-0.68,-0.92,-0.67,-0.91,353.02,353.04,0.0,0.0
1630606947.70045877,81928882,-0.51,-1.17,-0.46,-1.12,353.02,353.04,0.0,0.0
1630606947.80041885,82028842,-0.22,-1.11,-0.17,-1.05,353.02,353.03,0.0,0.0
1630606947.90037894,82128802,0.08,-0.83,0.14,-0.76,353.02,353.02,0.0,0.0
1630606948.00033879,82228762,0.35,-0.47,0.42,-0.39,353.02,353.02,0.0,0.0
1630606948.10029888,82328722,0.58,-0.11,0.61,-0.04,353.02,353.02,0.0,0.0
1630606948.20025897,82428682,0.7,0.17,0.74,0.21,353.02,353.02,0.0,0.0
1630606948.30021882,82528642,0.73,0.33,0.79,0.39,353.02,353.02,0.0,0.0
1630606948.40017891,82628602,0.72,0.39,0.76,0.44,353.02,353.02,0.0,0.0
1630606948.50013900,82728562,0.69,0.38,0.72,0.42,353.02,353.02,0.0,0.0
1630606948.60009885,82828522,0.65,0.34,0.66,0.37,353.02,353.02,0.0,0.0
1630606948.70005894,82928482,0.65,0.3,0.62,0.31,353.02,353.02,0.0,0.0
1630606948.80001879,83028442,0.64,0.3,0.62,0.29,353.02,353.02,0.0,0.0
1630606948.89997888,83128402,0.62,0.31,0.63,0.31,353.02,353.02,0.0,0.0
1630606948.99993896,83228362,0.61,0.32,0.65,0.35,353.02,353.02,0.0,0.0
1630606949.09989882,83328322,0.63,0.35,0.66,0.39,352.61,352.62,0.0,0.0
1630606949.19985890,83428282,0.62,0.39,0.65,0.42,352.61,352.62,0.0,0.0
1630606949.29981899,83528242,0.58,0.4,0.64,0.45,352.61,352.62,0.0,0.0
1630606949.39977884,83628202,0.54,0.4,0.62,0.45,352.61,352.63,0.0,0.0
1630606949.49973893,83728162,0.5,0.38,0.58,0.45,352.61,352.63,0.0,0.0
1630606949.60053182,83828955,0.48,0.35,0.53,0.42,352.61,352.63,0.0,0.0
1630606949.70049191,83928915,0.45,0.33,0.46,0.36,352.61,352.62,0.0,0.0
1630606949.80045199,84028875,0.43,0.3,0.41,0.3,352.61,352.62,0.0,0.0
1630606949.90041184,84128835,0.43,0.3,0.36,0.25,352.61,352.62,0.0,0.0
1630606950.00037193,84228795,0.4,0.31,0.29,0.19,352.61,352.62,0.0,0.0
1630606950.10033178,84328755,0.35,0.29,0.26,0.15,352.61,352.62,0.0,0.0
1630606950.20029187,84428715,0.32,0.25,0.25,0.13,352.61,352.62,0.0,0.0
1630606950.30025196,84528675,0.27,0.2,0.21,0.12,352.61,352.62,0.0,0.0
1630606950.40021181,84628635,0.24,0.16,0.16,0.09,352.61,352.62,0.0,0.0
1630606950.50017190,84728595,0.22,0.13,0.13,0.06,352.61,352.62,0.0,0.0
1630606950.60013199,84828555,0.23,0.13,0.11,0.04,352.61,352.62,0.0,0.0
1630606950.70009184,84928515,0.23,0.15,0.12,0.05,352.61,352.62,0.0,0.0
1630606950.80005193,85028475,0.19,0.15,0.12,0.06,352.61,352.62,0.0,0.0
1630606950.90001178,85128435,0.16,0.13,0.14,0.07,352.61,352.62,0.0,0.0
1630606950.99997187,85228395,0.13,0.11,0.17,0.1,352.61,352.63,0.0,0.0
1630606951.09993196,85328355,0.12,0.08,0.19,0.14,352.61,352.63,0.0,0.0
1630606951.19989181,85428315,0.13,0.07,0.2,0.17,352.61,352.62,0.0,0.0
1630606951.29985189,85528275,0.16,0.1,0.15,0.16,352.61,352.62,0.0,0.0
1630606951.39981198,85628235,0.14,0.1,0.08,0.11,352.61,352.62,0.0,0.0
1630606951.49977183,85728195,0.13,0.1,0.05,0.05,352.61,352.62,0.0,0.0
1630606951.59973192,85828155,0.14,0.1,0.04,0.0,352.61,352.62,0.0,0.0
1630606951.70052481,85928948,0.15,0.11,0.06,0.0,352.61,352.62,0.0,0.0
1630606951.80048490,86028908,0.16,0.12,0.08,0.01,352.61,352.62,0.0,0.0
1630606951.90044498,86128868,0.16,0.13,0.12,0.06,352.61,352.62,0.0,0.0
1630606952.00040483,86228828,0.18,0.15,0.14,0.1,352.61,352.62,0.0,0.0
1630606952.10036492,86328788,0.2,0.17,0.13,0.12,352.61,352.62,0.0,0.0
1630606952.20032477,86428748,0.21,0.19,0.13,0.13,352.61,352.62,0.0,0.0
1630606952.30028486,86528708,0.22,0.21,0.09,0.11,352.61,352.61,0.0,0.0
1630606952.40024495,86628668,0.19,0.2,0.09,0.08,352.61,352.61,0.0,0.0
1630606952.50020480,86728628,0.14,0.16,0.14,0.1,352.61,352.61,0.0,0.0
1630606952.60016489,86828588,0.11,0.1,0.17,0.14,352.61,352.61,0.0,0.0
1630606952.70012498,86928548,0.09,0.06,0.18,0.18,352.61,352.61,0.0,0.0
1630606952.80008483,87028508,0.13,0.06,0.17,0.19,352.61,352.62,0.0,0.0
1630606952.90004492,87128468,0.2,0.12,0.17,0.19,352.61,352.62,0.0,0.0
1630606953.00000477,87228428,0.24,0.2,0.18,0.18,352.61,352.63,0.0,0.0
1630606953.09996486,87328388,0.23,0.24,0.16,0.16,352.61,352.63,0.0,0.0
1630606953.19992495,87428348,0.22,0.23,0.13,0.12,352.61,352.63,0.0,0.0
1630606953.29988480,87528308,0.2,0.22,0.11,0.09,352.61,352.63,0.0,0.0
1630606953.39984488,87628268,0.2,0.2,0.11,0.08,352.61,352.63,0.0,0.0
1630606953.49980497,87728228,0.21,0.19,0.13,0.09,352.61,352.63,0.0,0.0
1630606953.59976482,87828188,0.22,0.2,0.17,0.12,352.61,352.62,0.0,0.0
1630606953.70055795,87928981,0.18,0.18,0.19,0.16,352.61,352.62,0.0,0.0
1630606953.80051780,88028941,0.14,0.14,0.19,0.18,352.61,352.62,0.0,0.0
1630606953.90047789,88128901,0.14,0.13,0.19,0.19,352.61,352.62,0.0,0.0
1630606954.00043797,88228861,0.17,0.14,0.19,0.19,352.61,352.62,0.0,0.0
1630606954.10039783,88328821,0.18,0.16,0.19,0.19,352.61,352.62,0.0,0.0
1630606954.20035791,88428781,0.18,0.17,0.17,0.17,352.61,352.62,0.0,0.0
1630606954.30031776,88528741,0.16,0.17,0.15,0.15,352.61,352.62,0.0,0.0
1630606954.40027785,88628701,0.13,0.14,0.16,0.14,352.61,352.62,0.0,0.0
1630606954.50023794,88728661,0.14,0.12,0.14,0.13,352.61,352.62,0.0,0.0
1630606954.60019779,88828621,0.16,0.12,0.14,0.12,352.61,352.62,0.0,0.0
1630606954.70015788,88928581,0.18,0.15,0.17,0.14,352.61,352.62,0.0,0.0
1630606954.80011797,89028541,0.23,0.19,0.21,0.18,352.61,352.62,0.0,0.0
1630606954.90007782,89128501,0.26,0.24,0.21,0.21,352.61,352.62,0.0,0.0
1630606955.00003791,89228461,0.27,0.26,0.21,0.21,352.61,352.62,0.0,0.0
1630606955.09999800,89328421,0.25,0.27,0.2,0.21,352.61,352.62,0.0,0.0
1630606955.19995785,89428381,0.23,0.25,0.18,0.2,352.61,352.62,0.0,0.0
1630606955.29991794,89528341,0.22,0.23,0.18,0.18,352.61,352.62,0.0,0.0
1630606955.39987779,89628301,0.24,0.23,0.15,0.16,352.61,352.62,0.0,0.0
1630606955.49983788,89728261,0.21,0.23,0.16,0.14,352.61,352.62,0.0,0.0
1630606955.59979796,89828221,0.18,0.2,0.18,0.14,352.61,352.62,0.0,0.0
1630606955.69975781,89928181,0.18,0.18,0.19,0.16,352.61,352.62,0.0,0.0
1630606955.80055094,90028974,0.21,0.18,0.2,0.18,352.61,352.63,0.0,0.0
1630606955.90051079,90128934,0.22,0.2,0.19,0.19,352.61,352.63,0.0,0.0
1630606956.00047088,90228894,0.23,0.21,0.2,0.19,352.61,352.63,0.0,0.0
1630606956.10043097,90328854,0.24,0.23,0.2,0.19,352.61,352.63,0.0,0.0
1630606956.20039082,90428814,0.22,0.23,0.2,0.2,352.61,352.63,0.0,0.0
1630606956.30035090,90528774,0.19,0.21,0.21,0.2,352.61,352.62,0.0,0.0
1630606956.40031099,90628734,0.18,0.19,0.18,0.19,352.61,352.62,0.0,0.0
1630606956.50027084,90728694,0.17,0.17,0.15,0.18,352.61,352.62,0.0,0.0
1630606956.60023093,90828654,0.19,0.17,0.12,0.14,352.61,352.62,0.0,0.0
1630606956.70019078,90928614,0.22,0.19,0.12,0.12,352.61,352.63,0.0,0.0
1630606956.80015087,91028574,0.2,0.19,0.14,0.12,352.61,352.63,0.0,0.0
1630606956.90011096,91128534,0.13,0.15,0.16,0.13,352.61,352.63,0.0,0.0
1630606957.00007081,91228494,0.08,0.09,0.19,0.15,352.61,352.63,0.0,0.0
1630606957.10003090,91328454,0.08,0.06,0.19,0.18,352.61,352.63,0.0,0.0
1630606957.19999099,91428414,0.08,0.05,0.17,0.17,352.61,352.63,0.0,0.0
1630606957.29995084,91528374,0.07,0.04,0.14,0.16,352.61,352.63,0.0,0.0
1630606957.39991093,91628334,0.08,0.05,0.13,0.12,352.61,352.62,0.0,0.0
1630606957.49987078,91728294,0.07,0.06,0.15,0.12,352.61,352.62,0.0,0.0
1630606957.59983087,91828254,0.09,0.06,0.16,0.13,352.61,352.62,0.0,0.0
1630606957.69979095,91928214,0.14,0.1,0.14,0.14,352.61,352.62,0.0,0.0
1630606957.79975080,92028174,0.16,0.15,0.13,0.13,352.61,352.62,0.0,0.0
1630606957.90054393,92128967,0.15,0.17,0.14,0.13,352.61,352.62,0.0,0.0
1630606958.00050378,92228927,0.14,0.16,0.16,0.14,352.61,352.62,0.0,0.0
1630606958.10046387,92328887,0.14,0.15,0.2,0.18,352.61,352.62,0.0,0.0
1630606958.20042396,92428847,0.14,0.14,0.2,0.2,352.61,352.62,0.0,0.0
1630606958.30038381,92528807,0.14,0.14,0.18,0.19,352.61,352.62,0.0,0.0
1630606958.40034389,92628767,0.15,0.13,0.18,0.18,352.61,352.62,0.0,0.0
1630606958.50030398,92728727,0.15,0.14,0.19,0.19,352.61,352.63,0.0,0.0
1630606958.60026383,92828687,0.14,0.13,0.14,0.16,352.61,352.62,0.0,0.0
1630606958.70022392,92928647,0.14,0.12,0.1,0.11,352.61,352.62,0.0,0.0
1630606958.80018377,93028607,0.15,0.13,0.1,0.09,352.61,352.62,0.0,0.0
1630606958.90014386,93128567,0.15,0.14,0.1,0.07,352.61,352.62,0.0,0.0
1630606959.00010395,93228527,0.14,0.15,0.13,0.07,352.61,352.62,0.0,0.0
1630606959.10006380,93328487,0.15,0.15,0.14,0.11,352.61,352.62,0.0,0.0
1630606959.20002389,93428447,0.17,0.16,0.14,0.13,352.61,352.62,0.0,0.0
1630606959.29998398,93528407,0.19,0.19,0.14,0.14,352.61,352.62,0.0,0.0
1630606959.39994383,93628367,0.17,0.19,0.12,0.14,352.61,352.62,0.0,0.0
1630606959.49990392,93728327,0.15,0.17,0.12,0.13,352.61,352.62,0.0,0.0
1630606959.59986377,93828287,0.14,0.14,0.13,0.13,352.61,352.62,0.0,0.0
1630606959.69982386,93928247,0.15,0.13,0.14,0.13,352.61,352.62,0.0,0.0
1630606959.79978395,94028207,0.16,0.12,0.14,0.13,352.61,352.62,0.0,0.0
1630606959.89974380,94128167,0.17,0.13,0.15,0.14,352.61,352.63,0.0,0.0
1630606960.00053692,94228960,0.2,0.16,0.15,0.14,352.61,352.63,0.0,0.0
1630606960.10049677,94328920,0.26,0.22,0.15,0.14,352.61,352.63,0.0,0.0
1630606960.20045686,94428880,0.28,0.26,0.16,0.15,352.61,352.63,0.0,0.0
1630606960.30041695,94528840,0.26,0.28,0.16,0.15,352.61,352.62,0.0,0.0
1630606960.40037680,94628800,0.25,0.26,0.16,0.15,352.61,352.62,0.0,0.0
1630606960.50033689,94728760,0.24,0.24,0.13,0.14,352.61,352.63,0.0,0.0
1630606960.60029697,94828720,0.26,0.24,0.1,0.11,352.61,352.63,0.0,0.0
1630606960.70025682,94928680,0.27,0.26,0.08,0.08,352.61,352.63,0.0,0.0
1630606960.80021691,95028640,0.25,0.25,0.07,0.06,352.61,352.63,0.0,0.0
1630606960.90017676,95128600,0.22,0.23,0.08,0.06,352.61,352.63,0.0,0.0
1630606961.00013685,95228560,0.2,0.19,0.07,0.05,352.61,352.63,0.0,0.0
1630606961.10009694,95328520,0.22,0.17,0.09,0.06,352.61,352.63,0.0,0.0
1630606961.20005679,95428480,0.25,0.2,0.12,0.08,352.61,352.63,0.0,0.0
1630606961.30001688,95528440,0.24,0.23,0.16,0.13,352.61,352.63,0.0,0.0
1630606961.39997697,95628400,0.21,0.21,0.21,0.18,352.61,352.63,0.0,0.0
1630606961.49993682,95728360,0.19,0.19,0.23,0.23,352.61,352.62,0.0,0.0
1630606961.59989691,95828320,0.16,0.16,0.24,0.26,352.61,352.62,0.0,0.0
1630606961.69985700,95928280,0.15,0.14,0.21,0.26,352.61,352.62,0.0,0.0
1630606961.79981685,96028240,0.17,0.13,0.16,0.21,352.61,352.62,0.0,0.0
1630606961.89977694,96128200,0.19,0.16,0.14,0.17,352.61,352.62,0.0,0.0
1630606961.99973679,96228160,0.17,0.16,0.15,0.14,352.61,352.62,0.0,0.0
1630606962.10052991,96328953,0.19,0.17,0.17,0.14,352.61,352.62,0.0,0.0
1630606962.20049000,96428913,0.21,0.18,0.19,0.15,352.61,352.62,0.0,0.0
1630606962.30044985,96528873,0.23,0.2,0.23,0.18,352.61,352.62,0.0,0.0
1630606962.40040994,96628833,0.26,0.23,0.23,0.21,352.61,352.62,0.0,0.0
1630606962.50036979,96728793,0.25,0.25,0.21,0.21,352.61,352.62,0.0,0.0
1630606962.60032988,96828753,0.23,0.24,0.18,0.19,352.61,352.62,0.0,0.0
1630606962.70028996,96928713,0.2,0.21,0.18,0.18,352.61,352.62,0.0,0.0
1630606962.80024981,97028673,0.14,0.16,0.16,0.17,352.61,352.62,0.0,0.0
1630606962.90020990,97128633,0.11,0.11,0.16,0.15,352.61,352.62,0.0,0.0
1630606963.00016999,97228593,0.12,0.08,0.15,0.13,352.61,352.62,0.0,0.0
1630606963.10012984,97328553,0.14,0.1,0.17,0.14,352.61,352.62,0.0,0.0
1630606963.20008993,97428513,0.13,0.11,0.19,0.17,352.61,352.62,0.0,0.0
1630606963.30004978,97528473,0.12,0.12,0.19,0.18,352.61,352.62,0.0,0.0
1630606963.40000987,97628433,0.14,0.12,0.19,0.19,352.61,352.62,0.0,0.0
1630606963.49996996,97728393,0.14,0.14,0.19,0.19,352.61,352.62,0.0,0.0
1630606963.59992981,97828353,0.13,0.13,0.17,0.17,352.61,352.62,0.0,0.0
1630606963.69988990,97928313,0.13,0.12,0.14,0.14,352.61,352.62,0.0,0.0
1630606963.79984999,98028273,0.15,0.14,0.1,0.1,352.61,352.62,0.0,0.0
1630606963.89980984,98128233,0.16,0.15,0.1,0.08,352.61,352.62,0.0,0.0
1630606963.99976993,98228193,0.14,0.14,0.13,0.1,352.61,352.62,0.0,0.0
1630606964.10056281,98328986,0.13,0.13,0.14,0.12,352.61,352.62,0.0,0.0
1630606964.20052290,98428946,0.13,0.12,0.17,0.14,352.61,352.62,0.0,0.0
1630606964.30048299,98528906,0.13,0.11,0.19,0.18,352.61,352.62,0.0,0.0
1630606964.40044284,98628866,0.14,0.11,0.17,0.19,352.61,352.62,0.0,0.0
1630606964.50040293,98728826,0.14,0.13,0.16,0.18,352.61,352.62,0.0,0.0
1630606964.60036278,98828786,0.13,0.13,0.14,0.16,352.61,352.62,0.0,0.0
1630606964.70032287,98928746,0.13,0.13,0.13,0.14,352.61,352.62,0.0,0.0
1630606964.80028296,99028706,0.15,0.14,0.11,0.1,352.61,352.62,0.0,0.0
1630606964.90024281,99128666,0.14,0.14,0.1,0.09,352.61,352.62,0.0,0.0
1630606965.00020289,99228626,0.15,0.13,0.1,0.08,352.61,352.62,0.0,0.0
1630606965.10016298,99328586,0.15,0.14,0.13,0.1,352.61,352.62,0.0,0.0
1630606965.20012283,99428546,0.16,0.15,0.15,0.13,352.61,352.62,0.0,0.0
1630606965.30008292,99528506,0.18,0.17,0.12,0.13,352.61,352.62,0.0,0.0
1630606965.40004277,99628466,0.19,0.19,0.12,0.11,352.61,352.62,0.0,0.0
1630606965.50000286,99728426,0.2,0.2,0.13,0.12,352.61,352.62,0.0,0.0
1630606965.59996295,99828386,0.22,0.21,0.15,0.12,352.61,352.62,0.0,0.0
1630606965.69992280,99928346,0.21,0.21,0.16,0.14,352.61,352.63,0.0,0.0
1630606965.79988289,100028306,0.17,0.18,0.14,0.13,352.61,352.63,0.0,0.0
1630606965.89984298,100128266,0.15,0.15,0.14,0.13,352.61,352.62,0.0,0.0
1630606965.99980283,100228226,0.14,0.13,0.13,0.12,352.61,352.62,0.0,0.0
1630606966.09976292,100328186,0.16,0.15,0.13,0.12,352.61,352.62,0.0,0.0
1630606966.20055580,100428979,0.16,0.15,0.15,0.12,352.61,352.62,0.0,0.0
1630606966.30051589,100528939,0.16,0.16,0.2,0.16,352.61,352.62,0.0,0.0
1630606966.40047598,100628899,0.14,0.14,0.24,0.2,352.61,352.62,0.0,0.0
1630606966.50043583,100728859,0.12,0.12,0.22,0.22,352.61,352.61,0.0,0.0
1630606966.60039592,100828819,0.13,0.11,0.18,0.19,352.61,352.61,0.0,0.0
1630606966.70035577,100928779,0.16,0.14,0.17,0.17,352.61,352.61,0.0,0.0
1630606966.80031586,101028739,0.16,0.16,0.17,0.16,352.61,352.61,0.0,0.0
1630606966.90027595,101128699,0.13,0.15,0.18,0.16,352.61,352.61,0.0,0.0
1630606967.00023580,101228659,0.14,0.13,0.2,0.17,352.61,352.62,0.0,0.0
1630606967.10019588,101328619,0.17,0.14,0.18,0.18,352.61,352.61,0.0,0.0
1630606967.20015597,101428579,0.18,0.15,0.17,0.16,352.61,352.62,0.0,0.0
1630606967.30011582,101528539,0.15,0.16,0.16,0.15,352.61,352.62,0.0,0.0
1630606967.40007591,101628499,0.11,0.12,0.14,0.13,352.61,352.62,0.0,0.0
1630606967.50003576,101728459,0.11,0.1,0.15,0.13,352.61,352.62,0.0,0.0
1630606967.59999585,101828419,0.13,0.1,0.19,0.15,352.61,352.62,0.0,0.0
1630606967.69995594,101928379,0.16,0.13,0.24,0.2,352.61,352.62,0.0,0.0
1630606967.79991579,102028339,0.2,0.17,0.25,0.24,352.61,352.62,0.0,0.0
1630606967.89987588,102128299,0.21,0.21,0.21,0.24,352.61,352.63,0.0,0.0
1630606967.99983597,102228259,0.2,0.21,0.16,0.2,352.61,352.63,0.0,0.0
1630606968.09979582,102328219,0.18,0.2,0.12,0.14,352.61,352.62,0.0,0.0
1630606968.19975591,102428179,0.14,0.16,0.08,0.08,352.61,352.62,0.0,0.0
1630606968.30054879,102528972,0.1,0.11,0.1,0.06,352.61,352.62,0.0,0.0
1630606968.40050888,102628932,0.08,0.07,0.14,0.08,352.61,352.62,0.0,0.0
1630606968.50046897,102728892,0.08,0.05,0.16,0.12,352.61,352.61,0.0,0.0
1630606968.60042882,102828852,0.1,0.05,0.18,0.16,352.61,352.61,0.0,0.0
1630606968.70038891,102928812,0.15,0.09,0.19,0.19,352.61,352.61,0.0,0.0
1630606968.80034900,103028772,0.18,0.15,0.16,0.17,352.61,352.61,0.0,0.0
1630606968.90030885,103128732,0.2,0.18,0.14,0.15,352.61,352.62,0.0,0.0
1630606969.00026894,103228692,0.21,0.2,0.14,0.13,352.61,352.62,0.0,0.0
1630606969.10022879,103328652,0.2,0.21,0.15,0.13,352.61,352.63,0.0,0.0
1630606969.20018888,103428612,0.21,0.21,0.17,0.14,352.61,352.63,0.0,0.0
1630606969.30014896,103528572,0.22,0.22,0.2,0.18,352.61,352.63,0.0,0.0
1630606969.40010881,103628532,0.21,0.23,0.19,0.19,352.61,352.63,0.0,0.0
1630606969.50006890,103728492,0.18,0.21,0.2,0.2,352.61,352.63,0.0,0.0
1630606969.60002899,103828452,0.16,0.17,0.22,0.22,352.61,352.63,0.0,0.0
1630606969.69998884,103928412,0.16,0.16,0.25,0.25,352.61,352.63,0.0,0.0
1630606969.79994893,104028372,0.17,0.15,0.24,0.25,352.61,352.62,0.0,0.0
1630606969.89990878,104128332,0.17,0.15,0.22,0.24,352.61,352.62,0.0,0.0
1630606969.99986887,104228292,0.18,0.16,0.21,0.21,352.61,352.62,0.0,0.0
1630606970.09982896,104328252,0.19,0.18,0.19,0.19,352.61,352.61,0.0,0.0
1630606970.19978881,104428212,0.2,0.18,0.17,0.17,352.61,352.61,0.0,0.0
1630606970.29974890,104528172,0.2,0.19,0.18,0.16,352.61,352.61,0.0,0.0
1630606970.40054178,104628965,0.17,0.17,0.2,0.17,352.61,352.61,0.0,0.0
1630606970.50050187,104728925,0.16,0.15,0.22,0.2,352.61,352.61,0.0,0.0
1630606970.60046196,104828885,0.14,0.13,0.21,0.21,352.61,352.62,0.0,0.0
1630606970.70042181,104928845,0.15,0.12,0.19,0.2,352.61,352.62,0.0,0.0
1630606970.80038190,105028805,0.19,0.14,0.17,0.18,352.61,352.62,0.0,0.0
1630606970.90034199,105128765,0.25,0.21,0.16,0.16,352.61,352.62,0.0,0.0
1630606971.00030184,105228725,0.28,0.26,0.16,0.15,352.61,352.62,0.0,0.0
1630606971.10026193,105328685,0.27,0.29,0.15,0.14,352.61,352.62,0.0,0.0
1630606971.20022178,105428645,0.23,0.26,0.14,0.13,352.61,352.62,0.0,0.0
1630606971.30018187,105528605,0.2,0.22,0.12,0.13,352.61,352.62,0.0,0.0
1630606971.40014195,105628565,0.21,0.2,0.11,0.11,352.61,352.62,0.0,0.0
1630606971.50010180,105728525,0.24,0.21,0.14,0.12,352.61,352.62,0.0,0.0
1630606971.60006189,105828485,0.28,0.24,0.17,0.14,352.61,352.62,0.0,0.0
1630606971.70002198,105928445,0.29,0.27,0.2,0.17,352.61,352.62,0.0,0.0
1630606971.79998183,106028405,0.25,0.26,0.21,0.2,352.61,352.62,0.0,0.0
1630606971.89994192,106128365,0.25,0.24,0.19,0.21,352.61,352.62,0.0,0.0
1630606971.99990177,106228325,0.24,0.22,0.13,0.16,352.61,352.62,0.0,0.0
1630606972.09986186,106328285,0.23,0.21,0.11,0.1,352.61,352.62,0.0,0.0
1630606972.19982195,106428245,0.24,0.21,0.1,0.07,352.61,352.62,0.0,0.0
1630606972.29978180,106528205,0.24,0.23,0.12,0.08,352.61,352.62,0.0,0.0
1630606972.39974189,106628165,0.24,0.23,0.16,0.11,352.61,352.62,0.0,0.0
1630606972.50053477,106728958,0.23,0.23,0.22,0.18,352.61,352.62,0.0,0.0
1630606972.60049486,106828918,0.24,0.23,0.25,0.25,352.61,352.62,0.0,0.0
1630606972.70045495,106928878,0.23,0.23,0.24,0.27,352.61,352.62,0.0,0.0
1630606972.80041480,107028838,0.21,0.21,0.18,0.24,352.61,352.63,0.0,0.0
1630606972.90037489,107128798,0.18,0.19,0.14,0.18,352.61,352.63,0.0,0.0
1630606973.00033498,107228758,0.17,0.16,0.1,0.12,352.61,352.63,0.0,0.0
1630606973.10029483,107328718,0.16,0.15,0.1,0.09,352.61,352.63,0.0,0.0
1630606973.20025492,107428678,0.12,0.12,0.12,0.09,352.61,352.63,0.0,0.0
1630606973.30021477,107528638,0.13,0.1,0.15,0.11,352.61,352.63,0.0,0.0
1630606973.40017486,107628598,0.15,0.12,0.17,0.14,352.61,352.62,0.0,0.0
1630606973.50013494,107728558,0.15,0.12,0.19,0.17,352.61,352.62,0.0,0.0
1630606973.60009480,107828518,0.13,0.12,0.19,0.17,352.61,352.62,0.0,0.0
1630606973.70005488,107928478,0.1,0.1,0.2,0.19,352.61,352.62,0.0,0.0
1630606973.80001497,108028438,0.09,0.07,0.19,0.18,352.61,352.61,0.0,0.0
1630606973.89997482,108128398,0.11,0.07,0.17,0.17,352.61,352.61,0.0,0.0
1630606973.99993491,108228358,0.11,0.08,0.15,0.15,352.61,352.61,0.0,0.0
1630606974.09989500,108328318,0.1,0.09,0.16,0.15,352.61,352.61,0.0,0.0
1630606974.19985485,108428278,0.15,0.11,0.15,0.14,352.61,352.61,0.0,0.0
1630606974.29981494,108528238,0.19,0.16,0.16,0.14,352.61,352.61,0.0,0.0
1630606974.39977479,108628198,0.2,0.2,0.18,0.14,352.61,352.61,0.0,0.0
1630606974.49973488,108728158,0.19,0.2,0.2,0.17,352.61,352.61,0.0,0.0
1630606974.60052776,108828951,0.17,0.19,0.23,0.2,352.61,352.61,0.0,0.0
1630606974.70048785,108928911,0.14,0.16,0.26,0.24,352.61,352.62,0.0,0.0
1630606974.80044794,109028871,0.11,0.11,0.27,0.26,352.61,352.62,0.0,0.0
1630606974.90040779,109128831,0.12,0.09,0.27,0.27,352.61,352.62,0.0,0.0
1630606975.00036788,109228791,0.15,0.1,0.25,0.27,352.61,352.62,0.0,0.0
1630606975.10032797,109328751,0.19,0.15,0.22,0.24,352.61,352.62,0.0,0.0
1630606975.20028782,109428711,0.24,0.2,0.18,0.2,352.61,352.62,0.0,0.0
1630606975.30024791,109528671,0.26,0.26,0.18,0.16,352.61,352.62,0.0,0.0
1630606975.40020800,109628631,0.27,0.29,0.22,0.16,352.61,352.62,0.0,0.0
1630606975.50016785,109728591,0.25,0.29,0.28,0.22,352.61,352.62,0.0,0.0
1630606975.60012794,109828551,0.23,0.26,0.28,0.26,352.61,352.62,0.0,0.0
1630606975.70008779,109928511,0.21,0.23,0.24,0.26,352.61,352.62,0.0,0.0
1630606975.80004787,110028471,0.21,0.2,0.19,0.22,352.61,352.63,0.0,0.0
1630606975.90000796,110128431,0.22,0.19,0.14,0.17,352.61,352.63,0.0,0.0
1630606975.99996781,110228391,0.24,0.21,0.09,0.1,352.61,352.63,0.0,0.0
1630606976.09992790,110328351,0.23,0.22,0.06,0.04,352.61,352.62,0.0,0.0
1630606976.19988799,110428311,0.22,0.22,0.08,0.03,352.61,352.62,0.0,0.0
1630606976.29984784,110528271,0.21,0.21,0.11,0.06,352.61,352.62,0.0,0.0
1630606976.39980793,110628231,0.19,0.2,0.12,0.1,352.61,352.62,0.0,0.0
1630606976.49976778,110728191,0.17,0.17,0.14,0.13,352.61,352.62,0.0,0.0
1630606976.60056090,110828984,0.15,0.14,0.14,0.15,352.61,352.62,0.0,0.0
1630606976.70052099,110928944,0.13,0.11,0.16,0.16,352.61,352.62,0.0,0.0
1630606976.80048084,111028904,0.13,0.09,0.18,0.17,352.61,352.62,0.0,0.0
1630606976.90044093,111128864,0.15,0.11,0.16,0.17,352.61,352.61,0.0,0.0
1630606977.00040078,111228824,0.18,0.14,0.15,0.14,352.61,352.61,0.0,0.0
1630606977.10036087,111328784,0.19,0.17,0.14,0.13,352.61,352.61,0.0,0.0
1630606977.20032096,111428744,0.2,0.18,0.15,0.12,352.61,352.61,0.0,0.0
1630606977.30028081,111528704,0.16,0.18,0.16,0.13,352.61,352.61,0.0,0.0
1630606977.40024090,111628664,0.12,0.13,0.18,0.16,352.61,352.62,0.0,0.0
1630606977.50020099,111728624,0.12,0.11,0.2,0.19,352.61,352.62,0.0,0.0
1630606977.60016084,111828584,0.14,0.11,0.21,0.21,352.61,352.62,0.0,0.0
1630606977.70012093,111928544,0.16,0.14,0.19,0.21,352.61,352.62,0.0,0.0
1630606977.80008078,112028504,0.15,0.15,0.14,0.17,352.61,352.62,0.0,0.0
1630606977.90004086,112128464,0.16,0.15,0.12,0.13,352.61,352.61,0.0,0.0
1630606978.00000095,112228424,0.19,0.17,0.13,0.11,352.61,352.61,0.0,0.0
1630606978.09996080,112328384,0.21,0.2,0.17,0.13,352.61,352.61,0.0,0.0
1630606978.19992089,112428344,0.22,0.22,0.18,0.16,352.61,352.62,0.0,0.0
1630606978.29988098,112528304,0.22,0.23,0.16,0.16,352.61,352.62,0.0,0.0
1630606978.39984083,112628264,0.2,0.21,0.14,0.14,352.61,352.62,0.0,0.0
1630606978.49980092,112728224,0.16,0.19,0.14,0.13,352.61,352.62,0.0,0.0
1630606978.59976077,112828184,0.14,0.15,0.15,0.13,352.61,352.62,0.0,0.0
1630606978.70055389,112928977,0.14,0.13,0.17,0.15,352.61,352.62,0.0,0.0
1630606978.80051398,113028937,0.15,0.13,0.17,0.16,352.61,352.62,0.0,0.0
1630606978.90047383,113128897,0.17,0.14,0.16,0.16,352.61,352.62,0.0,0.0
1630606979.00043392,113228857,0.2,0.16,0.17,0.15,352.61,352.62,0.0,0.0
1630606979.10039377,113328817,0.21,0.19,0.18,0.17,352.61,352.62,0.0,0.0
1630606979.20035386,113428777,0.18,0.18,0.19,0.18,352.61,352.62,0.0,0.0
1630606979.30031395,113528737,0.15,0.15,0.2,0.18,352.61,352.61,0.0,0.0
1630606979.40027380,113628697,0.12,0.12,0.21,0.19,352.61,352.61,0.0,0.0
1630606979.50023389,113728657,0.11,0.1,0.24,0.22,352.61,352.61,0.0,0.0
1630606979.60019398,113828617,0.14,0.11,0.25,0.24,352.61,352.61,0.0,0.0
1630606979.70015383,113928577,0.19,0.16,0.26,0.25,352.61,352.61,0.0,0.0
1630606979.80011392,114028537,0.22,0.21,0.27,0.26,352.61,352.61,0.0,0.0
1630606979.90007377,114128497,0.21,0.22,0.24,0.25,352.61,352.61,0.0,0.0
1630606980.00003386,114228457,0.22,0.23,0.19,0.22,352.61,352.62,0.0,0.0
1630606980.09999394,114328417,0.24,0.23,0.16,0.18,352.61,352.62,0.0,0.0
1630606980.19995379,114428377,0.24,0.23,0.14,0.14,352.61,352.62,0.0,0.0
1630606980.29991388,114528337,0.25,0.24,0.1,0.1,352.61,352.62,0.0,0.0
1630606980.39987397,114628297,0.24,0.24,0.09,0.08,352.61,352.62,0.0,0.0
1630606980.49983382,114728257,0.23,0.22,0.09,0.07,352.61,352.62,0.0,0.0
1630606980.59979391,114828217,0.19,0.19,0.11,0.08,352.61,352.62,0.0,0.0
1630606980.69975400,114928177,0.16,0.15,0.15,0.11,352.61,352.62,0.0,0.0
1630606980.80054688,115028970,0.14,0.12,0.18,0.15,352.61,352.62,0.0,0.0
1630606980.90050697,115128930,0.15,0.11,0.18,0.19,352.61,352.61,0.0,0.0
1630606981.00046682,115228890,0.16,0.11,0.17,0.19,352.61,352.61,0.0,0.0
1630606981.10042691,115328850,0.2,0.15,0.17,0.18,352.61,352.61,0.0,0.0
1630606981.20038676,115428810,0.24,0.19,0.15,0.17,352.61,352.61,0.0,0.0
1630606981.30034685,115528770,0.25,0.24,0.14,0.14,352.61,352.61,0.0,0.0
1630606981.40030694,115628730,0.21,0.23,0.12,0.11,352.61,352.61,0.0,0.0
1630606981.50026679,115728690,0.17,0.2,0.15,0.11,352.61,352.61,0.0,0.0
1630606981.60022688,115828650,0.17,0.17,0.17,0.14,352.61,352.61,0.0,0.0
1630606981.70018697,115928610,0.21,0.18,0.18,0.16,352.61,352.61,0.0,0.0
1630606981.80014682,116028570,0.23,0.2,0.18,0.17,352.61,352.61,0.0,0.0
1630606981.90010691,116128530,0.21,0.21,0.16,0.17,352.61,352.61,0.0,0.0
1630606982.00006700,116228490,0.23,0.22,0.12,0.14,352.61,352.62,0.0,0.0
1630606982.10002685,116328450,0.22,0.23,0.14,0.12,352.61,352.62,0.0,0.0
1630606982.19998693,116428410,0.2,0.21,0.16,0.12,352.61,352.62,0.0,0.0
1630606982.29994678,116528370,0.18,0.18,0.16,0.14,352.61,352.62,0.0,0.0
1630606982.39990687,116628330,0.2,0.17,0.16,0.15,352.61,352.62,0.0,0.0
1630606982.49986696,116728290,0.23,0.19,0.18,0.16,352.61,352.62,0.0,0.0
1630606982.59982681,116828250,0.22,0.2,0.2,0.18,352.61,352.62,0.0,0.0
1630606982.69978690,116928210,0.24,0.21,0.2,0.19,352.61,352.62,0.0,0.0
1630606982.79974699,117028170,0.24,0.22,0.18,0.18,352.61,352.62,0.0,0.0
1630606982.90053988,117128963,0.25,0.25,0.18,0.17,352.61,352.62,0.0,0.0
1630606983.00049996,117228923,0.25,0.25,0.17,0.16,352.61,352.62,0.0,0.0
1630606983.10045981,117328883,0.26,0.25,0.15,0.14,352.61,352.61,0.0,0.0
1630606983.20041990,117428843,0.25,0.26,0.13,0.11,352.61,352.61,0.0,0.0
1630606983.30037999,117528803,0.23,0.24,0.17,0.11,352.61,352.61,0.0,0.0
1630606983.40033984,117628763,0.22,0.23,0.2,0.13,352.61,352.61,0.0,0.0
1630606983.50029993,117728723,0.21,0.21,0.21,0.17,352.61,352.62,0.0,0.0
1630606983.60025978,117828683,0.18,0.18,0.2,0.19,352.61,352.62,0.0,0.0
1630606983.70021987,117928643,0.16,0.15,0.19,0.19,352.61,352.62,0.0,0.0
1630606983.80017996,118028603,0.17,0.13,0.17,0.19,352.61,352.62,0.0,0.0
1630606983.90013981,118128563,0.17,0.14,0.17,0.18,352.61,352.62,0.0,0.0
1630606984.00009990,118228523,0.19,0.16,0.19,0.18,352.61,352.62,0.0,0.0
1630606984.10005999,118328483,0.21,0.18,0.23,0.21,352.61,352.62,0.0,0.0
1630606984.20001984,118428443,0.23,0.21,0.24,0.24,352.61,352.62,0.0,0.0
1630606984.29997993,118528403,0.22,0.22,0.23,0.25,352.61,352.62,0.0,0.0
1630606984.39993978,118628363,0.19,0.21,0.19,0.22,352.61,352.62,0.0,0.0
1630606984.49989986,118728323,0.16,0.18,0.19,0.2,352.61,352.62,0.0,0.0
1630606984.59985995,118828283,0.11,0.12,0.21,0.2,352.61,352.62,0.0,0.0
1630606984.69981980,118928243,0.1,0.09,0.21,0.2,352.61,352.62,0.0,0.0
1630606984.79977989,119028203,0.08,0.06,0.18,0.18,352.61,352.62,0.0,0.0
1630606984.89973998,119128163,0.03,0.02,0.15,0.15,352.61,352.61,0.0,0.0
1630606985.00053287,119228956,0.01,-0.01,0.13,0.11,352.61,352.61,0.0,0.0
1630606985.10049295,119328916,0.02,-0.02,0.19,0.12,352.61,352.61,0.0,0.0
1630606985.20045280,119428876,0.09,0.02,0.25,0.19,352.61,352.61,0.0,0.0
1630606985.30041289,119528836,0.16,0.11,0.25,0.23,352.61,352.61,0.0,0.0
1630606985.40037298,119628796,0.18,0.17,0.23,0.23,352.61,352.61,0.0,0.0
1630606985.50033283,119728756,0.17,0.18,0.23,0.22,352.61,352.62,0.0,0.0
1630606985.60029292,119828716,0.15,0.17,0.27,0.24,352.61,352.62,0.0,0.0
1630606985.70025277,119928676,0.16,0.16,0.29,0.27,352.61,352.62,0.0,0.0
1630606985.80021286,120028636,0.17,0.16,0.27,0.28,352.61,352.62,0.0,0.0
1630606985.90017295,120128596,0.17,0.16,0.24,0.27,352.61,352.62,0.0,0.0
1630606986.00013280,120228556,0.15,0.16,0.19,0.22,352.61,352.62,0.0,0.0
1630606986.10009289,120328516,0.14,0.15,0.16,0.17,352.61,352.62,0.0,0.0
1630606986.20005298,120428476,0.16,0.15,0.17,0.14,352.61,352.62,0.0,0.0
1630606986.30001283,120528436,0.19,0.17,0.21,0.16,352.61,352.62,0.0,0.0
1630606986.39997292,120628396,0.23,0.2,0.23,0.19,352.61,352.62,0.0,0.0
1630606986.49993277,120728356,0.23,0.23,0.22,0.21,352.61,352.61,0.0,0.0
1630606986.59989285,120828316,0.21,0.22,0.2,0.2,352.61,352.61,0.0,0.0
1630606986.69985294,120928276,0.2,0.21,0.2,0.2,352.61,352.61,0.0,0.0
1630606986.79981279,121028236,0.23,0.21,0.19,0.19,352.61,352.61,0.0,0.0
1630606986.89977288,121128196,0.22,0.22,0.19,0.18,352.61,352.61,0.0,0.0
1630606986.99973297,121228156,0.19,0.2,0.21,0.19,352.61,352.61,0.0,0.0
1630606987.10052586,121328949,0.18,0.17,0.23,0.21,352.61,352.61,0.0,0.0
1630606987.20048594,121428909,0.17,0.15,0.24,0.23,352.61,352.61,0.0,0.0
1630606987.30044580,121528869,0.19,0.16,0.22,0.23,352.61,352.61,0.0,0.0
1630606987.40040588,121628829,0.23,0.19,0.2,0.21,352.61,352.61,0.0,0.0
1630606987.50036597,121728789,0.28,0.24,0.18,0.18,352.61,352.61,0.0,0.0
1630606987.60032582,121828749,0.3,0.28,0.17,0.16,352.61,352.62,0.0,0.0
1630606987.70028591,121928709,0.33,0.32,0.15,0.14,352.61,352.62,0.0,0.0
1630606987.80024600,122028669,0.35,0.35,0.12,0.11,352.61,352.62,0.0,0.0
1630606987.90020585,122128629,0.32,0.35,0.09,0.08,352.61,352.62,0.0,0.0
1630606988.00016594,122228589,0.27,0.3,0.08,0.06,352.61,352.62,0.0,0.0
1630606988.10012579,122328549,0.24,0.25,0.08,0.06,352.61,352.61,0.0,0.0
1630606988.20008588,122428509,0.25,0.23,0.13,0.08,352.61,352.61,0.0,0.0
1630606988.30004597,122528469,0.27,0.23,0.18,0.13,352.61,352.61,0.0,0.0
1630606988.40000582,122628429,0.28,0.25,0.2,0.18,352.61,352.61,0.0,0.0
1630606988.49996591,122728389,0.27,0.25,0.19,0.2,352.61,352.61,0.0,0.0
1630606988.59992599,122828349,0.25,0.24,0.16,0.17,352.61,352.61,0.0,0.0
1630606988.69988585,122928309,0.21,0.21,0.14,0.14,352.61,352.61,0.0,0.0
1630606988.79984593,123028269,0.15,0.15,0.13,0.12,352.61,352.61,0.0,0.0
1630606988.89980578,123128229,0.15,0.12,0.12,0.11,352.61,352.61,0.0,0.0
1630606988.99976587,123228189,0.16,0.12,0.15,0.12,352.61,352.61,0.0,0.0
1630606989.10055900,123328982,0.18,0.15,0.14,0.14,352.61,352.61,0.0,0.0
1630606989.20051885,123428942,0.18,0.16,0.13,0.13,352.61,352.61,0.0,0.0
1630606989.30047894,123528902,0.21,0.19,0.13,0.13,352.61,352.61,0.0,0.0
1630606989.40043879,123628862,0.24,0.23,0.12,0.12,352.61,352.61,0.0,0.0
1630606989.50039887,123728822,0.23,0.24,0.12,0.11,352.61,352.61,0.0,0.0
1630606989.60035896,123828782,0.19,0.21,0.15,0.12,352.61,352.61,0.0,0.0
1630606989.70031881,123928742,0.14,0.16,0.18,0.15,352.61,352.61,0.0,0.0
1630606989.80027890,124028702,0.1,0.1,0.2,0.18,352.61,352.61,0.0,0.0
1630606989.90023899,124128662,0.09,0.08,0.22,0.22,352.61,352.61,0.0,0.0
1630606990.00019884,124228622,0.1,0.08,0.21,0.22,352.61,352.61,0.0,0.0
1630606990.10015893,124328582,0.11,0.09,0.19,0.2,352.61,352.61,0.0,0.0
1630606990.20011878,124428542,0.1,0.08,0.18,0.18,352.61,352.61,0.0,0.0
1630606990.30007887,124528502,0.12,0.09,0.21,0.19,352.61,352.61,0.0,0.0
1630606990.40003896,124628462,0.13,0.11,0.24,0.21,352.61,352.61,0.0,0.0
1630606990.49999881,124728422,0.16,0.14,0.25,0.24,352.61,352.62,0.0,0.0
1630606990.59995890,124828382,0.21,0.18,0.25,0.25,352.61,352.62,0.0,0.0
1630606990.69991899,124928342,0.23,0.22,0.26,0.26,352.61,352.61,0.0,0.0
1630606990.79987884,125028302,0.22,0.23,0.25,0.25,352.61,352.61,0.0,0.0
1630606990.89983892,125128262,0.21,0.21,0.25,0.25,352.61,352.61,0.0,0.0
1630606990.99979877,125228222,0.2,0.19,0.24,0.23,352.61,352.61,0.0,0.0
1630606991.09975886,125328182,0.19,0.19,0.24,0.22,352.61,352.61,0.0,0.0
1630606991.20055199,125428975,0.18,0.17,0.25,0.22,352.61,352.61,0.0,0.0
1630606991.30051184,125528935,0.17,0.16,0.26,0.24,352.61,352.61,0.0,0.0
1630606991.40047193,125628895,0.2,0.17,0.27,0.26,352.61,352.61,0.0,0.0
1630606991.50043178,125728855,0.23,0.21,0.28,0.27,352.61,352.61,0.0,0.0
1630606991.60039186,125828815,0.25,0.25,0.29,0.28,352.61,352.61,0.0,0.0
1630606991.70035195,125928775,0.26,0.27,0.28,0.28,352.61,352.61,0.0,0.0
1630606991.80031180,126028735,0.25,0.27,0.25,0.27,352.61,352.61,0.0,0.0
1630606991.90027189,126128695,0.26,0.27,0.24,0.25,352.61,352.61,0.0,0.0
1630606992.00023198,126228655,0.26,0.27,0.23,0.22,352.61,352.61,0.0,0.0
1630606992.10019183,126328615,0.26,0.26,0.22,0.21,352.61,352.61,0.0,0.0
1630606992.20015192,126428575,0.24,0.24,0.21,0.19,352.61,352.61,0.0,0.0
1630606992.30011177,126528535,0.21,0.21,0.19,0.18,352.61,352.61,0.0,0.0
1630606992.40007186,126628495,0.16,0.16,0.16,0.14,352.61,352.62,0.0,0.0
1630606992.50003195,126728455,0.15,0.12,0.14,0.11,352.61,352.61,0.0,0.0
1630606992.59999180,126828415,0.18,0.13,0.14,0.11,352.61,352.61,0.0,0.0
1630606992.69995189,126928375,0.2,0.16,0.16,0.12,352.61,352.61,0.0,0.0
1630606992.79991198,127028335,0.21,0.18,0.16,0.13,352.61,352.61,0.0,0.0
1630606992.89987183,127128295,0.21,0.2,0.14,0.14,352.61,352.61,0.0,0.0
1630606992.99983191,127228255,0.18,0.19,0.12,0.13,352.61,352.61,0.0,0.0
1630606993.09979177,127328215,0.15,0.16,0.12,0.12,352.61,352.61,0.0,0.0
1630606993.19975185,127428175,0.16,0.13,0.16,0.13,352.61,352.61,0.0,0.0
1630606993.30054498,127528968,0.16,0.13,0.2,0.16,352.61,352.61,0.0,0.0
1630606993.40050483,127628928,0.16,0.12,0.23,0.2,352.61,352.61,0.0,0.0
1630606993.50046492,127728888,0.15,0.13,0.23,0.23,352.61,352.61,0.0,0.0
1630606993.60042477,127828848,0.15,0.13,0.2,0.21,352.61,352.61,0.0,0.0
1630606993.70038486,127928808,0.16,0.14,0.18,0.19,352.61,352.61,0.0,0.0
1630606993.80034494,128028768,0.17,0.15,0.2,0.17,352.61,352.61,0.0,0.0
1630606993.90030479,128128728,0.18,0.16,0.2,0.19,352.61,352.61,0.0,0.0
1630606994.00026488,128228688,0.17,0.16,0.19,0.18,352.61,352.61,0.0,0.0
1630606994.10022497,128328648,0.16,0.15,0.2,0.18,352.61,352.61,0.0,0.0
1630606994.20018482,128428608,0.16,0.14,0.2,0.18,352.61,352.61,0.0,0.0
1630606994.30014491,128528568,0.18,0.16,0.21,0.19,352.61,352.61,0.0,0.0
1630606994.40010500,128628528,0.2,0.17,0.23,0.2,352.61,352.61,0.0,0.0
1630606994.50006485,128728488,0.22,0.19,0.26,0.22,352.61,352.61,0.0,0.0
1630606994.60002494,128828448,0.27,0.23,0.3,0.26,352.61,352.61,0.0,0.0
1630606994.69998479,128928408,0.28,0.27,0.3,0.28,352.61,352.61,0.0,0.0
1630606994.79994488,129028368,0.26,0.27,0.3,0.29,352.61,352.61,0.0,0.0
1630606994.89990497,129128328,0.22,0.25,0.29,0.3,352.61,352.61,0.0,0.0
1630606994.99986482,129228288,0.21,0.21,0.28,0.28,352.61,352.61,0.0,0.0
1630606995.09982491,129328248,0.2,0.2,0.3,0.29,352.61,352.61,0.0,0.0
1630606995.19978499,129428208,0.2,0.18,0.3,0.31,352.61,352.61,0.0,0.0
1630606995.29974484,129528168,0.19,0.17,0.26,0.29,352.61,352.61,0.0,0.0
1630606995.40053797,129628961,0.21,0.17,0.23,0.25,352.61,352.61,0.0,0.0
1630606995.50049782,129728921,0.23,0.2,0.21,0.21,352.61,352.61,0.0,0.0
1630606995.60045791,129828881,0.23,0.22,0.2,0.18,352.61,352.61,0.0,0.0
1630606995.70041800,129928841,0.2,0.21,0.2,0.17,352.61,352.61,0.0,0.0
1630606995.80037785,130028801,0.16,0.17,0.2,0.17,352.61,352.61,0.0,0.0
1630606995.90033793,130128761,0.17,0.15,0.22,0.19,352.61,352.61,0.0,0.0
1630606996.00029778,130228721,0.19,0.16,0.24,0.21,352.61,352.62,0.0,0.0
1630606996.10025787,130328681,0.19,0.17,0.23,0.23,352.61,352.62,0.0,0.0
1630606996.20021796,130428641,0.2,0.18,0.23,0.22,352.61,352.62,0.0,0.0
1630606996.30017781,130528601,0.2,0.2,0.23,0.23,352.61,352.61,0.0,0.0
1630606996.40013790,130628561,0.18,0.19,0.21,0.21,352.61,352.61,0.0,0.0
1630606996.50009799,130728521,0.15,0.17,0.2,0.19,352.61,352.61,0.0,0.0
1630606996.60005784,130828481,0.14,0.15,0.2,0.18,352.61,352.61,0.0,0.0
1630606996.70001793,130928441,0.14,0.14,0.21,0.19,352.61,352.61,0.0,0.0
1630606996.79997778,131028401,0.15,0.13,0.22,0.21,352.61,352.61,0.0,0.0
1630606996.89993787,131128361,0.16,0.15,0.24,0.23,352.61,352.61,0.0,0.0
1630606996.99989796,131228321,0.15,0.15,0.24,0.24,352.61,352.61,0.0,0.0
1630606997.09985781,131328281,0.14,0.14,0.24,0.24,352.61,352.61,0.0,0.0
1630606997.19981790,131428241,0.11,0.11,0.22,0.23,352.61,352.61,0.0,0.0
1630606997.29977798,131528201,0.11,0.09,0.23,0.21,352.61,352.61,0.0,0.0
1630606997.39973783,131628161,0.14,0.09,0.25,0.21,352.61,352.61,0.0,0.0
1630606997.50053096,131728954,0.16,0.12,0.26,0.23,352.61,352.61,0.0,0.0
1630606997.60049081,131828914,0.19,0.16,0.26,0.24,352.61,352.61,0.0,0.0
1630606997.70045090,131928874,0.2,0.19,0.26,0.25,352.61,352.61,0.0,0.0
1630606997.80041099,132028834,0.2,0.19,0.26,0.24,352.61,352.61,0.0,0.0
1630606997.90037084,132128794,0.19,0.2,0.26,0.24,352.61,352.61,0.0,0.0
1630606998.00033092,132228754,0.19,0.18,0.28,0.25,352.61,352.62,0.0,0.0
1630606998.10029078,132328714,0.2,0.19,0.3,0.27,352.61,352.62,0.0,0.0
1630606998.20025086,132428674,0.2,0.19,0.31,0.29,352.61,352.62,0.0,0.0
1630606998.30021095,132528634,0.23,0.2,0.3,0.29,352.61,352.62,0.0,0.0
1630606998.40017080,132628594,0.25,0.22,0.27,0.28,352.61,352.62,0.0,0.0
1630606998.50013089,132728554,0.24,0.23,0.23,0.24,352.61,352.62,0.0,0.0
1630606998.60009098,132828514,0.23,0.22,0.2,0.2,352.61,352.62,0.0,0.0
1630606998.70005083,132928474,0.24,0.23,0.18,0.16,352.61,352.62,0.0,0.0
1630606998.80001092,133028434,0.23,0.22,0.17,0.15,352.61,352.61,0.0,0.0
1630606998.89997077,133128394,0.24,0.22,0.17,0.15,352.61,352.61,0.0,0.0
1630606998.99993086,133228354,0.25,0.23,0.2,0.16,352.61,352.61,0.0,0.0
1630606999.09989095,133328314,0.23,0.24,0.2,0.19,352.61,352.61,0.0,0.0
1630606999.19985080,133428274,0.21,0.22,0.21,0.2,352.61,352.61,0.0,0.0
1630606999.29981089,133528234,0.18,0.2,0.23,0.21,352.61,352.61,0.0,0.0
1630606999.39977098,133628194,0.17,0.16,0.24,0.22,352.61,352.61,0.0,0.0
1630606999.49973083,133728154,0.21,0.17,0.24,0.24,352.61,352.61,0.0,0.0
1630606999.60052395,133828947,0.23,0.19,0.25,0.25,352.61,352.61,0.0,0.0
1630606999.70048380,133928907,0.24,0.21,0.27,0.27,352.61,352.61,0.0,0.0
1630606999.80044389,134028867,0.23,0.21,0.24,0.26,352.61,352.61,0.0,0.0
1630606999.90040398,134128827,0.25,0.22,0.22,0.23,352.61,352.61,0.0,0.0
1630607000.00036383,134228787,0.26,0.24,0.21,0.2,352.61,352.61,0.0,0.0
1630607000.10032392,134328747,0.27,0.26,0.22,0.2,352.61,352.61,0.0,0.0
1630607000.20028377,134428707,0.27,0.26,0.23,0.21,352.61,352.61,0.0,0.0
1630607000.30024385,134528667,0.28,0.27,0.22,0.21,352.61,352.61,0.0,0.0
1630607000.40020394,134628627,0.28,0.28,0.18,0.18,352.61,352.62,0.0,0.0
1630607000.50016379,134728587,0.29,0.29,0.17,0.15,352.61,352.62,0.0,0.0
1630607000.60012388,134828547,0.29,0.29,0.19,0.15,352.61,352.62,0.0,0.0
1630607000.70008397,134928507,0.26,0.27,0.21,0.18,352.61,352.62,0.0,0.0
1630607000.80004382,135028467,0.23,0.23,0.23,0.21,352.61,352.62,0.0,0.0
1630607000.90000391,135128427,0.21,0.21,0.22,0.22,352.61,352.61,0.0,0.0
1630607000.99996400,135228387,0.21,0.19,0.23,0.22,352.61,352.61,0.0,0.0
1630607001.09992385,135328347,0.21,0.18,0.24,0.22,352.61,352.61,0.0,0.0
1630607001.19988394,135428307,0.19,0.18,0.23,0.22,352.61,352.61,0.0,0.0
1630607001.29984379,135528267,0.17,0.16,0.2,0.2,352.61,352.61,0.0,0.0
1630607001.39980388,135628227,0.16,0.14,0.18,0.18,352.61,352.61,0.0,0.0
1630607001.49976397,135728187,0.16,0.14,0.16,0.15,352.61,352.61,0.0,0.0
1630607001.60055685,135828980,0.17,0.15,0.14,0.12,352.61,352.61,0.0,0.0
1630607001.70051694,135928940,0.19,0.17,0.14,0.12,352.61,352.61,0.0,0.0
1630607001.80047679,136028900,0.21,0.19,0.15,0.11,352.61,352.62,0.0,0.0
1630607001.90043688,136128860,0.21,0.21,0.16,0.13,352.61,352.62,0.0,0.0
1630607002.00039697,136228820,0.2,0.2,0.18,0.15,352.61,352.62,0.0,0.0
1630607002.10035682,136328780,0.17,0.18,0.18,0.17,352.61,352.62,0.0,0.0
1630607002.20031691,136428740,0.14,0.14,0.18,0.18,352.61,352.62,0.0,0.0
1630607002.30027699,136528700,0.14,0.12,0.18,0.19,352.61,352.61,0.0,0.0
1630607002.40023685,136628660,0.17,0.13,0.16,0.18,352.61,352.61,0.0,0.0
1630607002.50019693,136728620,0.19,0.16,0.13,0.15,352.61,352.61,0.0,0.0
1630607002.60015678,136828580,0.2,0.19,0.11,0.12,352.61,352.61,0.0,0.0
1630607002.70011687,136928540,0.21,0.21,0.12,0.11,352.61,352.61,0.0,0.0
1630607002.80007696,137028500,0.2,0.22,0.12,0.1,352.61,352.61,0.0,0.0
1630607002.90003681,137128460,0.18,0.21,0.13,0.1,352.61,352.61,0.0,0.0
1630607002.99999690,137228420,0.18,0.19,0.14,0.11,352.61,352.61,0.0,0.0
1630607003.09995699,137328380,0.2,0.2,0.17,0.13,352.61,352.61,0.0,0.0
1630607003.19991684,137428340,0.2,0.2,0.23,0.18,352.61,352.61,0.0,0.0
1630607003.29987693,137528300,0.2,0.19,0.26,0.24,352.61,352.62,0.0,0.0
1630607003.39983678,137628260,0.21,0.19,0.25,0.26,352.61,352.62,0.0,0.0
1630607003.49979687,137728220,0.21,0.21,0.24,0.26,352.61,352.63,0.0,0.0
1630607003.59975696,137828180,0.21,0.21,0.23,0.24,352.61,352.63,0.0,0.0
1630607003.70054984,137928973,0.21,0.2,0.21,0.22,352.61,352.62,0.0,0.0
1630607003.80050993,138028933,0.19,0.18,0.22,0.21,352.61,352.62,0.0,0.0
1630607003.90046978,138128893,0.17,0.16,0.26,0.24,352.61,352.61,0.0,0.0
1630607004.00042987,138228853,0.16,0.13,0.26,0.25,352.61,352.61,0.0,0.0
1630607004.10038996,138328813,0.16,0.14,0.23,0.23,352.61,352.61,0.0,0.0
1630607004.20034981,138428773,0.19,0.14,0.22,0.2,352.61,352.6,0.0,0.0
1630607004.30030990,138528733,0.22,0.18,0.24,0.2,352.61,352.6,0.0,0.0
1630607004.40026999,138628693,0.23,0.21,0.25,0.22,352.61,352.61,0.0,0.0
1630607004.50022984,138728653,0.25,0.23,0.26,0.24,352.61,352.61,0.0,0.0
1630607004.60018992,138828613,0.25,0.24,0.29,0.27,352.61,352.61,0.0,0.0
1630607004.70014977,138928573,0.24,0.24,0.3,0.29,352.61,352.61,0.0,0.0
1630607004.80010986,139028533,0.23,0.23,0.29,0.3,352.61,352.61,0.0,0.0
1630607004.90006995,139128493,0.25,0.22,0.26,0.28,352.61,352.61,0.0,0.0
1630607005.00002980,139228453,0.27,0.23,0.24,0.25,352.61,352.61,0.0,0.0
1630607005.09998989,139328413,0.26,0.24,0.21,0.22,352.61,352.62,0.0,0.0
1630607005.19994998,139428373,0.24,0.24,0.19,0.19,352.61,352.62,0.0,0.0
1630607005.29990983,139528333,0.21,0.22,0.19,0.18,352.61,352.62,0.0,0.0
1630607005.39986992,139628293,0.2,0.19,0.22,0.18,352.61,352.62,0.0,0.0
1630607005.49982977,139728253,0.22,0.18,0.25,0.21,352.61,352.62,0.0,0.0
1630607005.59978986,139828213,0.26,0.2,0.28,0.23,352.61,352.62,0.0,0.0
1630607005.69974995,139928173,0.27,0.23,0.28,0.25,352.61,352.62,0.0,0.0
1630607005.80054283,140028966,0.26,0.24,0.29,0.27,352.61,352.62,0.0,0.0
1630607005.90050292,140128926,0.22,0.22,0.3,0.29,352.61,352.62,0.0,0.0
1630607006.00046277,140228886,0.17,0.18,0.3,0.3,352.61,352.62,0.0,0.0
1630607006.10042286,140328846,0.17,0.15,0.28,0.29,352.61,352.61,0.0,0.0
1630607006.20038295,140428806,0.18,0.14,0.25,0.26,352.61,352.61,0.0,0.0
1630607006.30034280,140528766,0.18,0.16,0.23,0.22,352.61,352.61,0.0,0.0
1630607006.40030289,140628726,0.2,0.17,0.23,0.2,352.61,352.61,0.0,0.0
1630607006.50026298,140728686,0.21,0.2,0.24,0.21,352.61,352.61,0.0,0.0
1630607006.60022283,140828646,0.21,0.21,0.23,0.21,352.61,352.61,0.0,0.0
1630607006.70018291,140928606,0.21,0.21,0.24,0.21,352.61,352.61,0.0,0.0
1630607006.80014277,141028566,0.21,0.22,0.24,0.22,352.61,352.61,0.0,0.0
1630607006.90010285,141128526,0.2,0.21,0.25,0.23,352.61,352.61,0.0,0.0
1630607007.00006294,141228486,0.18,0.19,0.27,0.25,352.61,352.61,0.0,0.0
1630607007.10002279,141328446,0.19,0.18,0.29,0.27,352.61,352.61,0.0,0.0
1630607007.19998288,141428406,0.19,0.18,0.31,0.3,352.61,352.61,0.0,0.0
1630607007.29994297,141528366,0.18,0.18,0.29,0.31,352.61,352.61,0.0,0.0
1630607007.39990282,141628326,0.17,0.16,0.25,0.28,352.61,352.61,0.0,0.0
1630607007.49986291,141728286,0.15,0.14,0.23,0.24,352.61,352.61,0.0,0.0
1630607007.59982300,141828246,0.15,0.13,0.22,0.22,352.61,352.61,0.0,0.0
1630607007.69978285,141928206,0.17,0.13,0.23,0.21,352.61,352.61,0.0,0.0
1630607007.79974294,142028166,0.19,0.15,0.22,0.21,352.61,352.61,0.0,0.0
1630607007.90053582,142128959,0.22,0.18,0.21,0.2,352.61,352.61,0.0,0.0
1630607008.00049591,142228919,0.24,0.21,0.19,0.17,352.61,352.61,0.0,0.0
1630607008.10045600,142328879,0.26,0.24,0.2,0.18,352.61,352.61,0.0,0.0
1630607008.20041585,142428839,0.26,0.25,0.2,0.19,352.61,352.61,0.0,0.0
1630607008.30037594,142528799,0.26,0.26,0.21,0.2,352.61,352.61,0.0,0.0
1630607008.40033579,142628759,0.26,0.26,0.25,0.21,352.61,352.61,0.0,0.0
1630607008.50029588,142728719,0.24,0.26,0.27,0.24,352.61,352.61,0.0,0.0
1630607008.60025597,142828679,0.23,0.24,0.29,0.26,352.61,352.61,0.0,0.0
1630607008.70021582,142928639,0.26,0.24,0.3,0.28,352.61,352.61,0.0,0.0
1630607008.80017591,143028599,0.28,0.25,0.3,0.29,352.61,352.61,0.0,0.0
1630607008.90013599,143128559,0.26,0.26,0.3,0.3,352.61,352.61,0.0,0.0
1630607009.00009584,143228519,0.23,0.23,0.3,0.3,352.61,352.61,0.0,0.0
1630607009.10005593,143328479,0.2,0.21,0.31,0.3,352.61,352.61,0.0,0.0
1630607009.20001578,143428439,0.21,0.18,0.29,0.3,352.61,352.61,0.0,0.0
1630607009.29997587,143528399,0.21,0.18,0.29,0.29,352.61,352.61,0.0,0.0
1630607009.39993596,143628359,0.23,0.19,0.29,0.29,352.61,352.61,0.0,0.0
1630607009.49989581,143728319,0.26,0.22,0.29,0.28,352.61,352.61,0.0,0.0
1630607009.59985590,143828279,0.29,0.22,0.11,0.27,352.61,352.61,0.0,0.0
1630607009.69981599,143928239,1.92,1.1,-7.42,-3.14,352.61,352.58,0.0,0.0
1630607009.79977584,144028199,2.79,2.47,-18.91,-13.89,352.61,352.32,0.0,0.0
1630607009.89973593,144128159,2.68,3.15,-20.21,-21.51,352.61,352.15,0.0,0.01
1630607010.00052881,144228952,2.07,2.86,-16.26,-21.8,352.61,352.41,0.0,0.01
1630607010.10048890,144328912,1.35,2.0,-10.99,-17.07,352.61,352.86,0.0,0.01
1630607010.20044899,144428872,0.83,1.07,-6.45,-10.48,352.61,353.16,0.0,0.01
1630607010.30040884,144528832,0.59,0.45,-3.64,-4.77,352.61,353.26,0.0,0.02
1630607010.40036893,144628792,0.56,0.18,-2.57,-1.36,352.61,353.21,0.0,0.02
1630607010.50032878,144728752,0.67,0.23,-2.66,-0.33,352.61,353.08,0.01,0.02
1630607010.60028887,144828712,0.79,0.44,-3.12,-0.85,352.61,352.92,0.01,0.01
1630607010.70024896,144928672,0.85,0.66,-3.34,-1.84,352.61,352.75,0.01,0.01
1630607010.80020881,145028632,0.81,0.79,-3.0,-2.48,352.61,352.58,0.01,0.01
1630607010.90016890,145128592,0.68,0.76,-2.2,-2.37,352.61,352.46,0.01,0.01
1630607011.00012898,145228552,0.52,0.63,-1.21,-1.65,352.61,352.38,0.01,0.0
1630607011.10008883,145328512,0.38,0.45,-0.27,-0.62,352.61,352.34,0.0,0.0
1630607011.20004892,145428472,0.27,0.28,0.45,0.35,352.61,352.33,0.0,0.0
1630607011.30000877,145528432,0.18,0.15,0.98,1.11,352.61,352.36,0.0,0.0
1630607011.39996886,145628392,0.14,0.07,1.32,1.6,352.61,352.4,0.0,0.0
1630607011.49992895,145728352,0.13,0.05,1.54,1.86,352.61,352.46,0.0,0.0
1630607011.59988880,145828312,0.13,0.06,1.66,1.94,352.61,352.52,0.0,0.0
1630607011.69984889,145928272,0.14,0.08,1.76,1.95,352.61,352.58,0.0,0.0
1630607011.79980898,146028232,0.14,0.11,1.84,1.95,352.61,352.63,0.0,0.0
1630607011.89976883,146128192,0.15,0.14,1.91,1.96,352.61,352.67,0.0,0.0
1630607012.00056195,146228985,0.13,0.14,1.99,1.99,352.61,352.69,0.0,0.0
1630607012.10052180,146328945,0.1,0.12,2.05,2.03,352.61,352.7,0.0,0.0
1630607012.20048189,146428905,0.07,0.08,2.07,2.05,352.61,352.7,0.0,0.0
1630607012.30044198,146528865,0.05,0.06,2.09,2.08,352.61,352.68,0.0,0.0
1630607012.40040183,146628825,0.04,0.03,2.11,2.09,352.61,352.66,0.0,0.0
1630607012.50036192,146728785,0.04,0.03,2.07,2.07,352.61,352.64,0.0,0.0
1630607012.60032177,146828745,0.06,0.04,1.98,1.99,352.61,352.62,0.0,0.0
1630607012.70028186,146928705,0.09,0.07,1.86,1.87,352.61,352.6,0.0,0.0
1630607012.80024195,147028665,0.12,0.1,1.74,1.73,352.61,352.59,0.0,0.0
1630607012.90020180,147128625,0.12,0.12,1.64,1.61,352.61,352.58,0.0,0.0
1630607013.00016189,147228585,0.11,0.11,1.57,1.51,352.61,352.58,0.0,0.0
1630607013.10012197,147328545,0.1,0.1,1.48,1.43,352.61,352.58,0.0,0.0
1630607013.20008183,147428505,0.09,0.08,1.36,1.33,352.61,352.58,0.0,0.0
1630607013.30004191,147528465,0.09,0.08,1.26,1.23,352.61,352.59,0.0,0.0
1630607013.40000176,147628425,0.09,0.07,1.16,1.13,352.61,352.59,0.0,0.0
1630607013.49996185,147728385,0.13,0.09,1.06,1.03,352.61,352.6,0.0,0.0
1630607013.59992194,147828345,0.17,0.12,0.93,0.93,352.61,352.61,0.0,0.0
1630607013.69988179,147928305,0.2,0.16,0.81,0.81,352.61,352.62,0.0,0.0
1630607013.79984188,148028265,0.22,0.19,0.7,0.68,352.61,352.62,0.0,0.0
1630607013.89980197,148128225,0.21,0.22,0.64,0.59,352.61,352.62,0.0,0.0
1630607013.99976182,148228185,0.2,0.22,0.6,0.54,352.61,352.62,0.0,0.0
1630607014.10055494,148328978,0.18,0.21,0.57,0.52,352.61,352.62,0.0,0.0
1630607014.20051479,148428938,0.16,0.17,0.54,0.5,352.61,352.62,0.0,0.0
1630607014.30047488,148528898,0.15,0.15,0.5,0.48,352.61,352.61,0.0,0.0
1630607014.40043497,148628858,0.14,0.13,0.43,0.43,352.61,352.61,0.0,0.0
1630607014.50039482,148728818,0.14,0.12,0.35,0.36,352.61,352.61,0.0,0.0
1630607014.60035491,148828778,0.15,0.12,0.29,0.29,352.61,352.61,0.0,0.0
1630607014.70031500,148928738,0.18,0.13,0.25,0.22,352.61,352.6,0.0,0.0
1630607014.80027485,149028698,0.21,0.16,0.22,0.18,352.61,352.6,0.0,0.0
1630607014.90023494,149128658,0.26,0.21,0.2,0.16,352.61,352.6,0.0,0.0
1630607015.00019479,149228618,0.29,0.26,0.2,0.16,352.61,352.6,0.0,0.0
1630607015.10015488,149328578,0.31,0.3,0.18,0.17,352.61,352.6,0.0,0.0
1630607015.20011497,149428538,0.29,0.32,0.15,0.16,352.61,352.59,0.0,0.0
1630607015.30007482,149528498,0.26,0.3,0.11,0.14,352.61,352.59,0.0,0.0
1630607015.40003490,149628458,0.21,0.24,0.08,0.09,352.61,352.59,0.0,0.0
1630607015.49999499,149728418,0.19,0.19,0.05,0.05,352.61,352.59,0.0,0.0
1630607015.59995484,149828378,0.19,0.16,0.05,0.03,352.61,352.59,0.0,0.0
1630607015.69991493,149928338,0.18,0.16,0.09,0.06,352.61,352.59,0.0,0.0
1630607015.79987478,150028298,0.19,0.16,0.13,0.1,352.61,352.59,0.0,0.0
1630607015.89983487,150128258,0.19,0.16,0.14,0.12,352.61,352.59,0.0,0.0
1630607015.99979496,150228218,0.19,0.16,0.11,0.1,352.61,352.59,0.0,0.0
1630607016.09975481,150328178,0.21,0.18,0.1,0.09,352.61,352.59,0.0,0.0
1630607016.20054793,150428971,0.2,0.19,0.08,0.07,352.61,352.59,0.0,0.0
1630607016.30050778,150528931,0.19,0.18,0.08,0.06,352.61,352.59,0.0,0.0
1630607016.40046787,150628891,0.2,0.19,0.1,0.07,352.61,352.59,0.0,0.0
1630607016.50042796,150728851,0.2,0.2,0.12,0.1,352.61,352.59,0.0,0.0
1630607016.60038781,150828811,0.2,0.19,0.16,0.13,352.61,352.6,0.0,0.0
1630607016.70034790,150928771,0.17,0.18,0.2,0.18,352.61,352.6,0.0,0.0
1630607016.80030799,151028731,0.13,0.14,0.23,0.23,352.61,352.6,0.0,0.0
1630607016.90026784,151128691,0.13,0.11,0.22,0.24,352.61,352.6,0.0,0.0
1630607017.00022793,151228651,0.15,0.11,0.21,0.23,352.61,352.6,0.0,0.0
1630607017.10018778,151328611,0.17,0.14,0.17,0.19,352.61,352.6,0.0,0.0
1630607017.20014787,151428571,0.2,0.15,0.16,0.15,352.61,352.59,0.0,0.0
1630607017.30010796,151528531,0.23,0.19,0.16,0.13,352.61,352.59,0.0,0.0
1630607017.40006781,151628491,0.27,0.23,0.19,0.14,352.61,352.59,0.0,0.0
1630607017.50002789,151728451,0.32,0.29,0.22,0.19,352.61,352.59,0.0,0.0
1630607017.59998798,151828411,0.33,0.32,0.25,0.23,352.61,352.59,0.0,0.0
1630607017.69994783,151928371,0.31,0.33,0.25,0.25,352.61,352.59,0.0,0.0
1630607017.79990792,152028331,0.3,0.32,0.26,0.25,352.61,352.59,0.0,0.0
1630607017.89986777,152128291,0.27,0.29,0.25,0.25,352.61,352.59,0.0,0.0
1630607017.99982786,152228251,0.24,0.25,0.25,0.25,352.61,352.59,0.0,0.0
1630607018.09978795,152328211,0.22,0.21,0.24,0.25,352.61,352.59,0.0,0.0
1630607018.19974780,152428171,0.22,0.19,0.23,0.22,352.61,352.59,0.0,0.0
1630607018.30054092,152528964,0.22,0.2,0.24,0.23,352.61,352.59,0.0,0.0
1630607018.40050077,152628924,0.22,0.2,0.26,0.23,352.61,352.59,0.0,0.0
1630607018.50046086,152728884,0.24,0.22,0.26,0.25,352.61,352.59,0.0,0.0
1630607018.60042095,152828844,0.25,0.23,0.23,0.23,352.61,352.6,0.0,0.0
1630607018.70038080,152928804,0.25,0.24,0.22,0.22,352.61,352.6,0.0,0.0
1630607018.80034089,153028764,0.26,0.24,0.23,0.21,352.61,352.6,0.0,0.0
1630607018.90030098,153128724,0.25,0.24,0.24,0.22,352.61,352.6,0.0,0.0
1630607019.00026083,153228684,0.25,0.24,0.27,0.23,352.61,352.6,0.0,0.0
1630607019.10022092,153328644,0.25,0.24,0.3,0.27,352.61,352.59,0.0,0.0
1630607019.20018077,153428604,0.26,0.23,0.3,0.28,352.61,352.59,0.0,0.0
1630607019.30014086,153528564,0.28,0.25,0.28,0.28,352.61,352.59,0.0,0.0
1630607019.40010095,153628524,0.29,0.26,0.27,0.26,352.61,352.59,0.0,0.0
1630607019.50006080,153728484,0.29,0.28,0.25,0.25,352.61,352.59,0.0,0.0
1630607019.60002089,153828444,0.27,0.27,0.22,0.23,352.61,352.59,0.0,0.0
1630607019.69998097,153928404,0.26,0.26,0.19,0.2,352.61,352.59,0.0,0.0
1630607019.79994082,154028364,0.28,0.26,0.17,0.17,352.61,352.59,0.0,0.0
1630607019.89990091,154128324,0.3,0.28,0.18,0.16,352.61,352.6,0.0,0.0
1630607019.99986076,154228284,0.29,0.3,0.21,0.17,352.61,352.6,0.0,0.0
1630607020.09982085,154328244,0.29,0.3,0.23,0.2,352.61,352.6,0.0,0.0
1630607020.19978094,154428204,0.26,0.27,0.22,0.2,352.61,352.6,0.0,0.0
1630607020.29974079,154528164,0.23,0.24,0.22,0.21,352.61,352.6,0.0,0.0
1630607020.40053391,154628957,0.23,0.21,0.24,0.22,352.61,352.6,0.0,0.0
1630607020.50049376,154728917,0.24,0.22,0.24,0.23,352.61,352.6,0.0,0.0
1630607020.60045385,154828877,0.25,0.22,0.23,0.23,352.61,352.6,0.0,0.0
1630607020.70041394,154928837,0.26,0.24,0.21,0.21,352.61,352.6,0.0,0.0
1630607020.80037379,155028797,0.29,0.26,0.19,0.19,352.61,352.6,0.0,0.0
1630607020.90033388,155128757,0.32,0.3,0.19,0.17,352.61,352.6,0.0,0.0
1630607021.00029397,155228717,0.32,0.31,0.2,0.17,352.61,352.6,0.0,0.0
1630607021.10025382,155328677,0.31,0.31,0.23,0.2,352.61,352.6,0.0,0.0
1630607021.20021391,155428637,0.3,0.3,0.25,0.22,352.61,352.6,0.0,0.0
1630607021.30017400,155528597,0.29,0.29,0.26,0.25,352.61,352.6,0.0,0.0
1630607021.40013385,155628557,0.29,0.28,0.26,0.25,352.61,352.6,0.0,0.0
1630607021.50009394,155728517,0.28,0.27,0.24,0.26,352.61,352.6,0.0,0.0
1630607021.60005379,155828477,0.27,0.27,0.22,0.25,352.61,352.6,0.0,0.0
1630607021.70001388,155928437,0.28,0.26,0.2,0.22,352.61,352.6,0.0,0.0
1630607021.79997396,156028397,0.28,0.25,0.22,0.2,352.61,352.6,0.0,0.0
1630607021.89993382,156128357,0.28,0.25,0.26,0.22,352.61,352.6,0.0,0.0
1630607021.99989390,156228317,0.26,0.24,0.3,0.26,352.61,352.6,0.0,0.0
1630607022.09985399,156328277,0.25,0.23,0.31,0.3,352.61,352.6,0.0,0.0
1630607022.19981384,156428237,0.24,0.23,0.32,0.32,352.61,352.61,0.0,0.0
1630607022.29977393,156528197,0.25,0.23,0.32,0.33,352.61,352.61,0.0,0.0
1630607022.39973378,156628157,0.26,0.24,0.31,0.31,352.61,352.6,0.0,0.0
1630607022.50052691,156728950,0.26,0.25,0.29,0.29,352.61,352.6,0.0,0.0
1630607022.60048699,156828910,0.25,0.24,0.26,0.25,352.61,352.6,0.0,0.0
1630607022.70044684,156928870,0.22,0.21,0.25,0.23,352.61,352.6,0.0,0.0
1630607022.80040693,157028830,0.21,0.18,0.27,0.23,352.61,352.6,0.0,0.0
1630607022.90036678,157128790,0.22,0.18,0.29,0.25,352.61,352.6,0.0,0.0
1630607023.00032687,157228750,0.22,0.19,0.3,0.27,352.61,352.6,0.0,0.0
1630607023.10028696,157328710,0.21,0.2,0.3,0.29,352.61,352.6,0.0,0.0
1630607023.20024681,157428670,0.22,0.2,0.31,0.29,352.61,352.6,0.0,0.0
1630607023.30020690,157528630,0.24,0.22,0.31,0.3,352.61,352.6,0.0,0.0
1630607023.40016699,157628590,0.25,0.23,0.31,0.3,352.61,352.6,0.0,0.0
1630607023.50012684,157728550,0.27,0.25,0.3,0.29,352.61,352.6,0.0,0.0
1630607023.60008693,157828510,0.3,0.27,0.29,0.28,352.61,352.61,0.0,0.0
1630607023.70004678,157928470,0.28,0.28,0.24,0.25,352.61,352.61,0.0,0.0
1630607023.80000687,158028430,0.27,0.28,0.23,0.21,352.61,352.61,0.0,0.0
1630607023.89996696,158128390,0.27,0.27,0.26,0.21,352.61,352.61,0.0,0.0
1630607023.99992681,158228350,0.29,0.27,0.31,0.26,352.61,352.61,0.0,0.0
1630607024.09988689,158328310,0.29,0.28,0.33,0.31,352.61,352.61,0.0,0.0
1630607024.19984698,158428270,0.27,0.27,0.32,0.31,352.61,352.61,0.0,0.0
1630607024.29980683,158528230,0.26,0.25,0.3,0.29,352.61,352.61,0.0,0.0
1630607024.39976692,158628190,0.25,0.23,0.27,0.26,352.61,352.6,0.0,0.0
1630607024.50055981,158728983,0.26,0.23,0.25,0.24,352.61,352.6,0.0,0.0
1630607024.60051990,158828943,0.28,0.25,0.23,0.22,352.61,352.6,0.0,0.0
1630607024.70047998,158928903,0.26,0.25,0.23,0.21,352.61,352.6,0.0,0.0
1630607024.80043983,159028863,0.25,0.24,0.2,0.2,352.61,352.6,0.0,0.0
1630607024.90039992,159128823,0.25,0.23,0.18,0.17,352.61,352.59,0.0,0.0
1630607025.00035977,159228783,0.23,0.22,0.19,0.16,352.61,352.6,0.0,0.0
1630607025.10031986,159328743,0.26,0.24,0.19,0.17,352.61,352.6,0.0,0.0
1630607025.20027995,159428703,0.31,0.27,0.21,0.17,352.61,352.6,0.0,0.0
1630607025.30023980,159528663,0.35,0.32,0.25,0.21,352.61,352.6,0.0,0.0
1630607025.40019989,159628623,0.34,0.34,0.32,0.27,352.61,352.6,0.0,0.0
1630607025.50015998,159728583,0.32,0.34,0.33,0.32,352.61,352.61,0.0,0.0
1630607025.60011983,159828543,0.3,0.33,0.3,0.32,352.61,352.61,0.0,0.0
1630607025.70007992,159928503,0.28,0.31,0.27,0.3,352.61,352.61,0.0,0.0
1630607025.80003977,160028463,0.26,0.27,0.27,0.28,352.61,352.61,0.0,0.0
1630607025.89999986,160128423,0.22,0.23,0.25,0.26,352.61,352.61,0.0,0.0
1630607025.99995995,160228383,0.18,0.17,0.24,0.23,352.61,352.61,0.0,0.0
1630607026.09991980,160328343,0.19,0.14,0.23,0.21,352.61,352.6,0.0,0.0
1630607026.19987988,160428303,0.23,0.16,0.23,0.21,352.61,352.6,0.0,0.0
1630607026.29983997,160528263,0.25,0.2,0.25,0.21,352.61,352.6,0.0,0.0
1630607026.39979982,160628223,0.26,0.22,0.27,0.24,352.61,352.6,0.0,0.0
1630607026.49975991,160728183,0.23,0.22,0.28,0.27,352.61,352.6,0.0,0.0
