timestamp,TimeUS,DesRoll,Roll,DesPitch,Pitch,DesYaw,Yaw,ErrRP,ErrYaw
1630880117.59999990,84428715,0.0,0.15,0.0,0.13,353.04,353.05,0.0,0.0
1630880117.69995999,84528675,0.0,0.15,0.0,0.13,353.04,353.05,0.0,0.0
1630880117.79991984,84628635,0.0,0.15,0.0,0.13,353.04,353.05,0.0,0.0
1630880117.89987993,84728595,0.0,0.15,0.0,0.13,353.04,353.05,0.0,0.0
1630880117.99984002,84828555,0.0,0.15,0.0,0.13,353.04,353.05,0.0,0.0
1630880118.09979987,84928515,0.0,0.15,0.0,0.13,353.04,353.05,0.0,0.0
1630880118.19975996,85028475,0.0,0.15,0.0,0.14,353.04,353.05,0.0,0.0
1630880118.29971981,85128435,0.0,0.15,0.0,0.14,353.04,353.05,0.0,0.0
1630880118.39967990,85228395,0.0,0.15,0.0,0.13,353.04,353.05,0.0,0.0
1630880118.49963999,85328355,0.0,0.15,0.0,0.14,353.04,353.05,0.0,0.0
1630880118.59959984,85428315,0.0,0.15,0.0,0.14,353.04,353.05,0.0,0.0
1630880118.69955993,85528275,0.0,0.15,0.0,0.14,353.04,353.05,0.0,0.0
1630880118.79952002,85628235,0.0,0.15,0.0,0.14,353.04,353.05,0.0,0.0
1630880118.89947987,85728195,0.0,0.15,0.0,0.14,353.04,353.05,0.0,0.0
1630880118.99943995,85828155,0.0,0.15,0.0,0.14,353.05,353.06,0.0,0.0
1630880119.10023284,85928948,0.0,0.15,0.0,0.14,353.05,353.06,0.0,0.0
1630880119.20019293,86028908,0.0,0.15,0.0,0.14,353.05,353.06,0.0,0.0
1630880119.30015302,86128868,0.0,0.15,0.0,0.14,353.05,353.06,0.0,0.0
1630880119.40011287,86228828,0.0,0.15,0.0,0.14,353.05,353.06,0.0,0.0
1630880119.50007296,86328788,0.0,0.15,0.0,0.14,353.05,353.06,0.0,0.0
1630880119.60003281,86428748,0.0,0.15,0.0,0.14,353.05,353.06,0.0,0.0
1630880119.69999290,86528708,0.0,0.15,0.0,0.14,353.05,353.06,0.0,0.0
1630880119.79995298,86628668,0.0,0.15,0.0,0.14,353.05,353.06,0.0,0.0
1630880119.89991283,86728628,0.0,0.15,0.0,0.14,353.05,353.06,0.0,0.0
1630880119.99987292,86828588,0.0,0.15,0.0,0.14,353.05,353.06,0.0,0.0
1630880120.09983301,86928548,0.0,0.15,0.0,0.14,353.05,353.06,0.0,0.0
1630880120.19979286,87028508,0.0,0.15,0.0,0.14,353.05,353.06,0.0,0.0
1630880120.29975295,87128468,0.0,0.15,0.0,0.14,353.05,353.06,0.0,0.0
1630880120.39971280,87228428,0.0,0.15,0.0,0.14,353.05,353.06,0.0,0.0
1630880120.49967289,87328388,0.0,0.15,0.0,0.14,353.05,353.06,0.0,0.0
1630880120.59963298,87428348,0.0,0.15,0.0,0.14,353.06,353.07,0.0,0.0
1630880120.69959283,87528308,0.0,0.15,0.0,0.14,353.06,353.07,0.0,0.0
1630880120.79955292,87628268,0.0,0.15,0.0,0.14,353.06,353.07,0.0,0.0
1630880120.89951301,87728228,0.0,0.15,0.0,0.14,353.06,353.07,0.0,0.0
1630880120.99947286,87828188,0.0,0.16,0.0,0.14,353.06,353.07,0.0,0.0
1630880121.10026598,87928981,0.0,0.16,0.0,0.14,353.06,353.07,0.0,0.0
1630880121.20022583,88028941,0.0,0.16,0.0,0.14,353.06,353.07,0.0,0.0
1630880121.30018592,88128901,0.0,0.16,0.0,0.14,353.06,353.07,0.0,0.0
1630880121.40014601,88228861,0.0,0.16,0.0,0.14,353.06,353.07,0.0,0.0
1630880121.50010586,88328821,0.0,0.16,0.0,0.14,353.06,353.07,0.0,0.0
1630880121.60006595,88428781,0.0,0.16,0.0,0.14,353.06,353.07,0.0,0.0
1630880121.70002580,88528741,-0.18,0.16,-0.18,0.14,353.06,353.07,0.0,0.0
1630880121.79998589,88628701,-0.29,0.16,-0.29,0.14,353.06,353.07,0.0,0.0
1630880121.89994597,88728661,-0.35,0.16,-0.36,0.14,353.06,353.07,0.0,0.0
1630880121.99990582,88828621,-0.4,0.16,-0.41,0.14,353.06,353.07,0.0,0.0
1630880122.09986591,88928581,-0.44,0.16,-0.44,0.14,353.06,353.07,0.0,0.0
1630880122.19982600,89028541,-0.47,0.16,-0.47,0.14,353.06,353.08,0.0,0.0
1630880122.29978585,89128501,-0.5,0.16,-0.5,0.14,353.06,353.08,0.0,0.0
1630880122.39974594,89228461,-0.54,0.16,-0.53,0.14,353.06,353.08,0.0,0.0
1630880122.49970603,89328421,-0.58,0.16,-0.55,0.14,353.06,353.08,0.0,0.0
1630880122.59966588,89428381,-0.61,0.16,-0.58,0.14,353.06,353.08,0.0,0.0
1630880122.69962597,89528341,-0.63,0.16,-0.61,0.14,353.06,353.08,0.0,0.0
1630880122.79958582,89628301,-0.67,0.16,-0.66,0.14,353.06,353.08,0.0,0.0
1630880122.89954591,89728261,-0.73,0.16,-0.68,0.14,353.06,353.08,0.0,0.0
1630880122.99950600,89828221,-0.75,0.16,-0.71,0.14,353.06,353.08,0.0,0.0
1630880123.09946585,89928181,-0.75,0.16,-0.72,0.14,353.06,353.08,0.0,0.0
1630880123.20025897,90028974,-0.76,0.11,-0.74,0.1,353.06,353.08,0.0,0.0
1630880123.30021882,90128934,-0.79,-0.32,-0.75,-0.3,353.06,353.08,0.0,0.0
1630880123.40017891,90228894,-0.74,-0.86,-0.69,-0.8,353.06,353.08,0.0,0.0
1630880123.50013900,90328854,-0.56,-1.17,-0.53,-1.11,353.06,353.08,0.0,0.0
1630880123.60009885,90428814,-0.29,-1.18,-0.27,-1.12,353.06,353.08,0.0,0.0
1630880123.70005894,90528774,0.04,-0.94,0.06,-0.89,353.06,353.07,0.0,0.0
1630880123.80001903,90628734,0.39,-0.54,0.36,-0.52,353.06,353.06,0.0,0.0
1630880123.89997888,90728694,0.65,-0.12,0.6,-0.13,353.06,353.06,0.0,0.0
1630880123.99993896,90828654,0.83,0.22,0.73,0.16,353.06,353.05,0.0,0.0
1630880124.09989882,90928614,0.91,0.45,0.78,0.35,353.06,353.05,0.0,0.0
1630880124.19985890,91028574,0.86,0.52,0.77,0.42,353.06,353.05,0.0,0.0
1630880124.29981899,91128534,0.75,0.46,0.73,0.42,353.06,353.06,0.0,0.0
1630880124.39977884,91228494,0.66,0.34,0.71,0.37,353.06,353.06,0.0,0.0
1630880124.49973893,91328454,0.64,0.26,0.69,0.35,353.06,353.06,0.0,0.0
1630880124.59969902,91428414,0.65,0.25,0.68,0.33,353.06,353.06,0.0,0.0
1630880124.69965887,91528374,0.68,0.29,0.68,0.35,353.06,353.06,0.0,0.0
1630880124.79961896,91628334,0.71,0.35,0.69,0.37,353.06,353.06,0.0,0.0
1630880124.89957881,91728294,0.7,0.41,0.72,0.43,353.06,353.06,0.0,0.0
1630880124.99953890,91828254,0.7,0.45,0.71,0.47,352.56,352.56,0.0,0.0
1630880125.09949899,91928214,0.71,0.49,0.66,0.47,352.56,352.56,0.0,0.0
1630880125.19945884,92028174,0.69,0.51,0.6,0.44,352.56,352.56,0.0,0.0
1630880125.30025196,92128967,0.62,0.49,0.56,0.4,352.56,352.56,0.0,0.0
1630880125.40021181,92228927,0.56,0.43,0.54,0.37,352.56,352.57,0.0,0.0
1630880125.50017190,92328887,0.53,0.39,0.54,0.37,352.56,352.57,0.0,0.0
1630880125.60013199,92428847,0.5,0.35,0.51,0.37,352.56,352.57,0.0,0.0
1630880125.70009184,92528807,0.47,0.33,0.46,0.35,352.56,352.57,0.0,0.0
1630880125.80005193,92628767,0.45,0.32,0.43,0.33,352.56,352.57,0.0,0.0
1630880125.90001202,92728727,0.42,0.32,0.41,0.32,352.56,352.57,0.0,0.0
1630880125.99997187,92828687,0.36,0.29,0.32,0.27,352.56,352.57,0.0,0.0
1630880126.09993196,92928647,0.33,0.26,0.24,0.19,352.56,352.57,0.0,0.0
1630880126.19989181,93028607,0.3,0.22,0.21,0.13,352.56,352.57,0.0,0.0
1630880126.29985189,93128567,0.26,0.19,0.17,0.08,352.56,352.57,0.0,0.0
1630880126.39981198,93228527,0.22,0.16,0.18,0.06,352.56,352.57,0.0,0.0
1630880126.49977183,93328487,0.2,0.14,0.18,0.08,352.56,352.57,0.0,0.0
1630880126.59973192,93428447,0.21,0.13,0.16,0.09,352.56,352.57,0.0,0.0
1630880126.69969201,93528407,0.23,0.15,0.14,0.09,352.56,352.56,0.0,0.0
1630880126.79965186,93628367,0.2,0.15,0.12,0.08,352.56,352.56,0.0,0.0
1630880126.89961195,93728327,0.17,0.13,0.1,0.07,352.56,352.56,0.0,0.0
1630880126.99957180,93828287,0.16,0.11,0.11,0.06,352.56,352.56,0.0,0.0
1630880127.09953189,93928247,0.16,0.1,0.11,0.07,352.56,352.57,0.0,0.0
1630880127.19949198,94028207,0.17,0.12,0.12,0.08,352.56,352.57,0.0,0.0
1630880127.29945183,94128167,0.17,0.13,0.13,0.1,352.56,352.57,0.0,0.0
1630880127.40024495,94228960,0.19,0.15,0.13,0.12,352.56,352.57,0.0,0.0
1630880127.50020480,94328920,0.24,0.19,0.14,0.13,352.56,352.57,0.0,0.0
1630880127.60016489,94428880,0.25,0.23,0.15,0.12,352.56,352.57,0.0,0.0
1630880127.70012498,94528840,0.24,0.25,0.16,0.13,352.56,352.57,0.0,0.0
1630880127.80008483,94628800,0.22,0.23,0.16,0.14,352.56,352.57,0.0,0.0
1630880127.90004492,94728760,0.22,0.22,0.15,0.14,352.56,352.56,0.0,0.0
1630880128.00000501,94828720,0.24,0.21,0.13,0.12,352.56,352.56,0.0,0.0
1630880128.09996486,94928680,0.25,0.22,0.11,0.1,352.56,352.56,0.0,0.0
1630880128.19992495,95028640,0.24,0.22,0.11,0.08,352.56,352.56,0.0,0.0
1630880128.29988480,95128600,0.23,0.22,0.12,0.08,352.56,352.56,0.0,0.0
1630880128.39984488,95228560,0.21,0.2,0.12,0.08,352.56,352.56,0.0,0.0
1630880128.49980497,95328520,0.23,0.2,0.14,0.1,352.56,352.56,0.0,0.0
1630880128.59976482,95428480,0.27,0.21,0.16,0.12,352.56,352.57,0.0,0.0
1630880128.69972491,95528440,0.26,0.23,0.21,0.15,352.56,352.57,0.0,0.0
1630880128.79968500,95628400,0.23,0.22,0.25,0.21,352.56,352.58,0.0,0.0
1630880128.89964485,95728360,0.21,0.2,0.28,0.26,352.56,352.58,0.0,0.0
1630880128.99960494,95828320,0.19,0.18,0.29,0.29,352.56,352.58,0.0,0.0
1630880129.09956503,95928280,0.18,0.16,0.27,0.29,352.56,352.58,0.0,0.0
1630880129.19952488,96028240,0.2,0.16,0.22,0.26,352.56,352.58,0.0,0.0
1630880129.29948497,96128200,0.22,0.18,0.2,0.22,352.56,352.58,0.0,0.0
1630880129.39944482,96228160,0.21,0.2,0.22,0.2,352.56,352.58,0.0,0.0
1630880129.50023794,96328953,0.22,0.22,0.24,0.22,352.56,352.58,0.0,0.0
1630880129.60019803,96428913,0.24,0.23,0.26,0.24,352.56,352.57,0.0,0.0
1630880129.70015788,96528873,0.26,0.25,0.29,0.28,352.56,352.57,0.0,0.0
1630880129.80011797,96628833,0.28,0.26,0.28,0.29,352.56,352.56,0.0,0.0
1630880129.90007782,96728793,0.26,0.26,0.25,0.27,352.56,352.56,0.0,0.0
1630880130.00003791,96828753,0.25,0.24,0.22,0.23,352.56,352.56,0.0,0.0
1630880130.09999800,96928713,0.22,0.22,0.23,0.22,352.56,352.56,0.0,0.0
1630880130.19995785,97028673,0.17,0.18,0.22,0.21,352.56,352.57,0.0,0.0
1630880130.29991794,97128633,0.15,0.14,0.22,0.21,352.56,352.57,0.0,0.0
1630880130.39987803,97228593,0.16,0.12,0.21,0.2,352.56,352.57,0.0,0.0
1630880130.49983788,97328553,0.17,0.14,0.23,0.21,352.56,352.57,0.0,0.0
1630880130.59979796,97428513,0.16,0.14,0.25,0.22,352.56,352.57,0.0,0.0
1630880130.69975781,97528473,0.15,0.14,0.24,0.23,352.56,352.57,0.0,0.0
1630880130.79971790,97628433,0.16,0.15,0.25,0.23,352.56,352.57,0.0,0.0
1630880130.89967799,97728393,0.17,0.16,0.25,0.24,352.56,352.57,0.0,0.0
1630880130.99963784,97828353,0.16,0.16,0.23,0.23,352.56,352.57,0.0,0.0
1630880131.09959793,97928313,0.16,0.16,0.2,0.21,352.56,352.57,0.0,0.0
1630880131.19955802,98028273,0.18,0.16,0.15,0.16,352.56,352.57,0.0,0.0
1630880131.29951787,98128233,0.19,0.17,0.15,0.13,352.56,352.57,0.0,0.0
1630880131.39947796,98228193,0.18,0.17,0.18,0.12,352.56,352.57,0.0,0.0
1630880131.50027084,98328986,0.18,0.17,0.19,0.14,352.56,352.56,0.0,0.0
1630880131.60023093,98428946,0.18,0.17,0.22,0.17,352.56,352.56,0.0,0.0
1630880131.70019102,98528906,0.17,0.17,0.24,0.21,352.56,352.56,0.0,0.0
1630880131.80015087,98628866,0.18,0.17,0.23,0.22,352.56,352.56,0.0,0.0
1630880131.90011096,98728826,0.18,0.17,0.21,0.22,352.56,352.56,0.0,0.0
1630880132.00007081,98828786,0.16,0.16,0.18,0.2,352.56,352.57,0.0,0.0
1630880132.10003090,98928746,0.17,0.16,0.16,0.18,352.56,352.57,0.0,0.0
1630880132.19999099,99028706,0.19,0.17,0.13,0.14,352.56,352.57,0.0,0.0
1630880132.29995084,99128666,0.18,0.17,0.11,0.11,352.56,352.57,0.0,0.0
1630880132.39991093,99228626,0.19,0.17,0.11,0.1,352.56,352.57,0.0,0.0
1630880132.49987102,99328586,0.2,0.19,0.14,0.11,352.56,352.57,0.0,0.0
1630880132.59983087,99428546,0.2,0.19,0.16,0.14,352.56,352.57,0.0,0.0
1630880132.69979095,99528506,0.21,0.2,0.13,0.14,352.56,352.57,0.0,0.0
1630880132.79975080,99628466,0.22,0.21,0.13,0.13,352.56,352.57,0.0,0.0
1630880132.89971089,99728426,0.23,0.22,0.13,0.13,352.56,352.57,0.0,0.0
1630880132.99967098,99828386,0.24,0.23,0.16,0.15,352.56,352.57,0.0,0.0
1630880133.09963083,99928346,0.22,0.23,0.17,0.16,352.56,352.57,0.0,0.0
1630880133.19959092,100028306,0.18,0.19,0.15,0.15,352.56,352.57,0.0,0.0
1630880133.29955101,100128266,0.15,0.16,0.14,0.14,352.56,352.56,0.0,0.0
1630880133.39951086,100228226,0.14,0.13,0.13,0.14,352.56,352.56,0.0,0.0
1630880133.49947095,100328186,0.15,0.13,0.12,0.13,352.56,352.56,0.0,0.0
1630880133.60026383,100428979,0.15,0.14,0.14,0.13,352.56,352.57,0.0,0.0
1630880133.70022392,100528939,0.15,0.15,0.18,0.15,352.56,352.57,0.0,0.0
1630880133.80018401,100628899,0.13,0.14,0.22,0.19,352.56,352.57,0.0,0.0
1630880133.90014386,100728859,0.12,0.13,0.2,0.21,352.56,352.57,0.0,0.0
1630880134.00010395,100828819,0.13,0.12,0.17,0.2,352.56,352.57,0.0,0.0
1630880134.10006380,100928779,0.15,0.13,0.15,0.18,352.56,352.57,0.0,0.0
1630880134.20002389,101028739,0.14,0.14,0.14,0.16,352.56,352.57,0.0,0.0
1630880134.29998398,101128699,0.12,0.13,0.15,0.15,352.56,352.57,0.0,0.0
1630880134.39994383,101228659,0.14,0.12,0.17,0.16,352.56,352.57,0.0,0.0
1630880134.49990392,101328619,0.17,0.15,0.16,0.15,352.56,352.57,0.0,0.0
1630880134.59986401,101428579,0.18,0.17,0.15,0.15,352.56,352.56,0.0,0.0
1630880134.69982386,101528539,0.16,0.17,0.14,0.14,352.56,352.56,0.0,0.0
1630880134.79978395,101628499,0.11,0.13,0.12,0.12,352.56,352.56,0.0,0.0
1630880134.89974380,101728459,0.1,0.1,0.13,0.11,352.56,352.56,0.0,0.0
1630880134.99970388,101828419,0.1,0.08,0.18,0.13,352.56,352.56,0.0,0.0
1630880135.09966397,101928379,0.14,0.09,0.24,0.19,352.56,352.56,0.0,0.0
1630880135.19962382,102028339,0.18,0.13,0.25,0.25,352.56,352.56,0.0,0.0
1630880135.29958391,102128299,0.19,0.16,0.22,0.25,352.56,352.56,0.0,0.0
1630880135.39954400,102228259,0.19,0.18,0.17,0.21,352.56,352.56,0.0,0.0
1630880135.49950385,102328219,0.17,0.18,0.12,0.15,352.56,352.56,0.0,0.0
1630880135.59946394,102428179,0.13,0.15,0.08,0.09,352.56,352.56,0.0,0.0
1630880135.70025682,102528972,0.09,0.1,0.09,0.05,352.56,352.56,0.0,0.0
1630880135.80021691,102628932,0.07,0.07,0.12,0.07,352.56,352.56,0.0,0.0
1630880135.90017700,102728892,0.08,0.05,0.15,0.11,352.56,352.56,0.0,0.0
1630880136.00013685,102828852,0.1,0.05,0.17,0.14,352.56,352.56,0.0,0.0
1630880136.10009694,102928812,0.16,0.1,0.17,0.17,352.56,352.56,0.0,0.0
1630880136.20005703,103028772,0.2,0.15,0.14,0.16,352.56,352.56,0.0,0.0
1630880136.30001688,103128732,0.21,0.2,0.12,0.14,352.56,352.56,0.0,0.0
1630880136.39997697,103228692,0.23,0.22,0.11,0.12,352.56,352.56,0.0,0.0
1630880136.49993682,103328652,0.22,0.23,0.13,0.12,352.56,352.56,0.0,0.0
1630880136.59989691,103428612,0.23,0.24,0.14,0.11,352.56,352.56,0.0,0.0
1630880136.69985700,103528572,0.24,0.24,0.17,0.13,352.56,352.56,0.0,0.0
1630880136.79981685,103628532,0.23,0.24,0.17,0.14,352.56,352.56,0.0,0.0
1630880136.89977694,103728492,0.2,0.22,0.19,0.15,352.56,352.56,0.0,0.0
1630880136.99973702,103828452,0.18,0.18,0.22,0.18,352.56,352.56,0.0,0.0
1630880137.09969687,103928412,0.18,0.15,0.26,0.22,352.56,352.57,0.0,0.0
1630880137.19965696,104028372,0.19,0.15,0.26,0.24,352.56,352.57,0.0,0.0
1630880137.29961681,104128332,0.21,0.17,0.24,0.25,352.56,352.57,0.0,0.0
1630880137.39957690,104228292,0.22,0.2,0.23,0.23,352.56,352.57,0.0,0.0
1630880137.49953699,104328252,0.23,0.22,0.2,0.21,352.56,352.57,0.0,0.0
1630880137.59949684,104428212,0.24,0.24,0.18,0.18,352.56,352.57,0.0,0.0
1630880137.69945693,104528172,0.23,0.24,0.18,0.17,352.56,352.57,0.0,0.0
1630880137.80024981,104628965,0.2,0.23,0.2,0.17,352.56,352.57,0.0,0.0
1630880137.90020990,104728925,0.18,0.2,0.22,0.19,352.56,352.57,0.0,0.0
1630880138.00016999,104828885,0.16,0.16,0.21,0.19,352.56,352.57,0.0,0.0
1630880138.10012984,104928845,0.16,0.13,0.19,0.2,352.56,352.57,0.0,0.0
1630880138.20008993,105028805,0.21,0.15,0.17,0.18,352.56,352.57,0.0,0.0
1630880138.30005002,105128765,0.27,0.21,0.16,0.16,352.56,352.57,0.0,0.0
1630880138.40000987,105228725,0.3,0.28,0.15,0.15,352.56,352.58,0.0,0.0
1630880138.49996996,105328685,0.3,0.31,0.15,0.14,352.56,352.58,0.0,0.0
1630880138.59992981,105428645,0.26,0.3,0.14,0.13,352.56,352.58,0.0,0.0
1630880138.69988990,105528605,0.23,0.26,0.11,0.12,352.56,352.58,0.0,0.0
1630880138.79984999,105628565,0.22,0.22,0.1,0.09,352.56,352.58,0.0,0.0
1630880138.89980984,105728525,0.24,0.21,0.12,0.09,352.56,352.58,0.0,0.0
1630880138.99976993,105828485,0.28,0.23,0.16,0.12,352.56,352.58,0.0,0.0
1630880139.09973001,105928445,0.29,0.27,0.19,0.16,352.56,352.58,0.0,0.0
1630880139.19968987,106028405,0.26,0.27,0.2,0.19,352.56,352.57,0.0,0.0
1630880139.29964995,106128365,0.25,0.26,0.17,0.2,352.56,352.57,0.0,0.0
1630880139.39960980,106228325,0.24,0.25,0.11,0.15,352.56,352.57,0.0,0.0
1630880139.49956989,106328285,0.23,0.23,0.09,0.1,352.56,352.56,0.0,0.0
1630880139.59952998,106428245,0.23,0.22,0.08,0.05,352.56,352.56,0.0,0.0
1630880139.69948983,106528205,0.23,0.21,0.1,0.05,352.56,352.56,0.0,0.0
1630880139.79944992,106628165,0.23,0.21,0.15,0.08,352.56,352.56,0.0,0.0
1630880139.90024281,106728958,0.24,0.21,0.22,0.16,352.56,352.56,0.0,0.0
1630880140.00020289,106828918,0.25,0.22,0.25,0.23,352.56,352.56,0.0,0.0
1630880140.10016298,106928878,0.24,0.23,0.25,0.25,352.56,352.56,0.0,0.0
1630880140.20012283,107028838,0.22,0.22,0.2,0.22,352.56,352.56,0.0,0.0
1630880140.30008292,107128798,0.19,0.2,0.16,0.18,352.56,352.56,0.0,0.0
1630880140.40004301,107228758,0.18,0.18,0.14,0.14,352.56,352.56,0.0,0.0
1630880140.50000286,107328718,0.16,0.17,0.14,0.13,352.56,352.56,0.0,0.0
1630880140.59996295,107428678,0.12,0.13,0.16,0.13,352.56,352.56,0.0,0.0
1630880140.69992280,107528638,0.13,0.11,0.18,0.15,352.56,352.56,0.0,0.0
1630880140.79988289,107628598,0.16,0.12,0.2,0.18,352.56,352.56,0.0,0.0
1630880140.89984298,107728558,0.16,0.13,0.21,0.2,352.56,352.56,0.0,0.0
1630880140.99980283,107828518,0.14,0.13,0.21,0.2,352.56,352.56,0.0,0.0
1630880141.09976292,107928478,0.12,0.11,0.22,0.22,352.56,352.56,0.0,0.0
1630880141.19972301,108028438,0.1,0.08,0.21,0.21,352.56,352.56,0.0,0.0
1630880141.29968286,108128398,0.12,0.09,0.19,0.19,352.56,352.56,0.0,0.0
1630880141.39964294,108228358,0.12,0.1,0.17,0.16,352.56,352.56,0.0,0.0
1630880141.49960303,108328318,0.1,0.1,0.18,0.16,352.56,352.56,0.0,0.0
1630880141.59956288,108428278,0.15,0.12,0.17,0.16,352.56,352.57,0.0,0.0
1630880141.69952297,108528238,0.19,0.16,0.17,0.16,352.56,352.57,0.0,0.0
1630880141.79948282,108628198,0.2,0.19,0.19,0.17,352.56,352.57,0.0,0.0
1630880141.89944291,108728158,0.19,0.19,0.2,0.19,352.56,352.57,0.0,0.0
1630880142.00023580,108828951,0.17,0.19,0.23,0.21,352.56,352.57,0.0,0.0
1630880142.10019588,108928911,0.15,0.17,0.25,0.24,352.56,352.57,0.0,0.0
1630880142.20015597,109028871,0.12,0.13,0.27,0.26,352.56,352.57,0.0,0.0
1630880142.30011582,109128831,0.13,0.11,0.26,0.27,352.56,352.57,0.0,0.0
1630880142.40007591,109228791,0.16,0.12,0.25,0.26,352.56,352.57,0.0,0.0
1630880142.50003600,109328751,0.2,0.16,0.22,0.24,352.56,352.57,0.0,0.0
1630880142.59999585,109428711,0.25,0.21,0.18,0.2,352.56,352.57,0.0,0.0
1630880142.69995594,109528671,0.28,0.26,0.18,0.17,352.56,352.57,0.0,0.0
1630880142.79991603,109628631,0.28,0.29,0.22,0.18,352.56,352.57,0.0,0.0
1630880142.89987588,109728591,0.26,0.29,0.27,0.23,352.56,352.57,0.0,0.0
1630880142.99983597,109828551,0.24,0.27,0.27,0.26,352.56,352.57,0.0,0.0
1630880143.09979582,109928511,0.23,0.24,0.24,0.26,352.56,352.57,0.0,0.0
1630880143.19975591,110028471,0.22,0.22,0.19,0.22,352.56,352.57,0.0,0.0
1630880143.29971600,110128431,0.24,0.21,0.14,0.17,352.56,352.57,0.0,0.0
1630880143.39967585,110228391,0.25,0.22,0.09,0.1,352.56,352.57,0.0,0.0
1630880143.49963593,110328351,0.24,0.23,0.06,0.05,352.56,352.57,0.0,0.0
1630880143.59959602,110428311,0.23,0.22,0.08,0.03,352.56,352.57,0.0,0.0
1630880143.69955587,110528271,0.22,0.22,0.11,0.06,352.56,352.57,0.0,0.0
1630880143.79951596,110628231,0.2,0.2,0.12,0.1,352.56,352.57,0.0,0.0
1630880143.89947581,110728191,0.17,0.17,0.14,0.13,352.56,352.57,0.0,0.0
1630880144.00026894,110828984,0.15,0.14,0.14,0.14,352.56,352.57,0.0,0.0
1630880144.10022902,110928944,0.13,0.12,0.16,0.15,352.56,352.57,0.0,0.0
1630880144.20018888,111028904,0.12,0.1,0.19,0.17,352.56,352.57,0.0,0.0
1630880144.30014896,111128864,0.13,0.1,0.17,0.18,352.56,352.57,0.0,0.0
1630880144.40010881,111228824,0.15,0.11,0.16,0.17,352.56,352.56,0.0,0.0
1630880144.50006890,111328784,0.17,0.13,0.15,0.15,352.56,352.56,0.0,0.0
1630880144.60002899,111428744,0.18,0.15,0.15,0.13,352.56,352.56,0.0,0.0
1630880144.69998884,111528704,0.15,0.15,0.16,0.14,352.56,352.56,0.0,0.0
1630880144.79994893,111628664,0.12,0.13,0.18,0.16,352.56,352.56,0.0,0.0
1630880144.89990902,111728624,0.13,0.12,0.2,0.19,352.56,352.56,0.0,0.0
1630880144.99986887,111828584,0.15,0.13,0.21,0.21,352.56,352.56,0.0,0.0
1630880145.09982896,111928544,0.16,0.16,0.19,0.21,352.56,352.56,0.0,0.0
1630880145.19978881,112028504,0.15,0.16,0.15,0.18,352.56,352.57,0.0,0.0
1630880145.29974890,112128464,0.15,0.16,0.13,0.14,352.56,352.57,0.0,0.0
1630880145.39970899,112228424,0.17,0.16,0.14,0.12,352.56,352.57,0.0,0.0
1630880145.49966884,112328384,0.19,0.18,0.18,0.14,352.56,352.57,0.0,0.0
1630880145.59962893,112428344,0.21,0.2,0.19,0.16,352.56,352.57,0.0,0.0
1630880145.69958901,112528304,0.21,0.21,0.17,0.17,352.56,352.57,0.0,0.0
1630880145.79954886,112628264,0.19,0.19,0.15,0.15,352.56,352.57,0.0,0.0
1630880145.89950895,112728224,0.15,0.17,0.15,0.13,352.56,352.57,0.0,0.0
1630880145.99946880,112828184,0.13,0.13,0.16,0.13,352.56,352.57,0.0,0.0
1630880146.10026193,112928977,0.13,0.1,0.18,0.13,352.56,352.57,0.0,0.0
1630880146.20022202,113028937,0.15,0.1,0.18,0.15,352.56,352.57,0.0,0.0
1630880146.30018187,113128897,0.18,0.13,0.18,0.15,352.56,352.57,0.0,0.0
1630880146.40014195,113228857,0.2,0.16,0.19,0.16,352.56,352.57,0.0,0.0
1630880146.50010180,113328817,0.21,0.2,0.2,0.18,352.56,352.56,0.0,0.0
1630880146.60006189,113428777,0.18,0.2,0.21,0.2,352.56,352.56,0.0,0.0
1630880146.70002198,113528737,0.15,0.17,0.21,0.21,352.56,352.56,0.0,0.0
1630880146.79998183,113628697,0.11,0.13,0.22,0.2,352.56,352.56,0.0,0.0
1630880146.89994192,113728657,0.1,0.1,0.24,0.22,352.56,352.56,0.0,0.0
1630880146.99990201,113828617,0.13,0.1,0.25,0.24,352.56,352.56,0.0,0.0
1630880147.09986186,113928577,0.19,0.15,0.26,0.25,352.56,352.56,0.0,0.0
1630880147.19982195,114028537,0.23,0.2,0.27,0.26,352.56,352.56,0.0,0.0
1630880147.29978180,114128497,0.22,0.22,0.24,0.26,352.56,352.56,0.0,0.0
1630880147.39974189,114228457,0.25,0.23,0.2,0.23,352.56,352.56,0.0,0.0
1630880147.49970198,114328417,0.26,0.25,0.17,0.19,352.56,352.57,0.0,0.0
1630880147.59966183,114428377,0.26,0.27,0.14,0.15,352.56,352.57,0.0,0.0
1630880147.69962192,114528337,0.28,0.28,0.11,0.11,352.56,352.57,0.0,0.0
1630880147.79958200,114628297,0.26,0.27,0.1,0.08,352.56,352.57,0.0,0.0
1630880147.89954185,114728257,0.24,0.25,0.1,0.07,352.56,352.57,0.0,0.0
1630880147.99950194,114828217,0.19,0.21,0.12,0.08,352.56,352.57,0.0,0.0
1630880148.09946203,114928177,0.16,0.16,0.16,0.12,352.56,352.57,0.0,0.0
1630880148.20025492,115028970,0.14,0.13,0.19,0.16,352.56,352.57,0.0,0.0
1630880148.30021501,115128930,0.16,0.13,0.19,0.2,352.56,352.56,0.0,0.0
1630880148.40017486,115228890,0.17,0.13,0.18,0.2,352.56,352.56,0.0,0.0
1630880148.50013494,115328850,0.22,0.16,0.18,0.2,352.56,352.56,0.0,0.0
1630880148.60009480,115428810,0.26,0.21,0.16,0.18,352.56,352.56,0.0,0.0
1630880148.70005488,115528770,0.27,0.26,0.14,0.15,352.56,352.56,0.0,0.0
1630880148.80001497,115628730,0.24,0.26,0.13,0.12,352.56,352.56,0.0,0.0
1630880148.89997482,115728690,0.2,0.23,0.16,0.12,352.56,352.55,0.0,0.0
1630880148.99993491,115828650,0.2,0.19,0.18,0.15,352.56,352.55,0.0,0.0
1630880149.09989500,115928610,0.23,0.2,0.19,0.17,352.56,352.55,0.0,0.0
1630880149.19985485,116028570,0.23,0.21,0.19,0.18,352.56,352.56,0.0,0.0
1630880149.29981494,116128530,0.21,0.21,0.16,0.18,352.56,352.56,0.0,0.0
1630880149.39977503,116228490,0.22,0.21,0.13,0.15,352.56,352.56,0.0,0.0
1630880149.49973488,116328450,0.21,0.21,0.14,0.12,352.56,352.56,0.0,0.0
1630880149.59969497,116428410,0.19,0.19,0.16,0.12,352.56,352.56,0.0,0.0
1630880149.69965482,116528370,0.16,0.16,0.17,0.15,352.56,352.56,0.0,0.0
1630880149.79961491,116628330,0.18,0.15,0.17,0.16,352.56,352.56,0.0,0.0
1630880149.89957500,116728290,0.21,0.17,0.19,0.17,352.56,352.57,0.0,0.0
1630880149.99953485,116828250,0.2,0.18,0.21,0.19,352.56,352.57,0.0,0.0
1630880150.09949493,116928210,0.21,0.2,0.21,0.2,352.56,352.57,0.0,0.0
1630880150.19945502,117028170,0.22,0.21,0.18,0.19,352.56,352.57,0.0,0.0
1630880150.30024791,117128963,0.23,0.22,0.19,0.18,352.56,352.57,0.0,0.0
1630880150.40020800,117228923,0.23,0.23,0.18,0.16,352.56,352.57,0.0,0.0
1630880150.50016785,117328883,0.24,0.23,0.16,0.15,352.56,352.56,0.0,0.0
1630880150.60012794,117428843,0.24,0.24,0.13,0.11,352.56,352.56,0.0,0.0
1630880150.70008802,117528803,0.22,0.23,0.17,0.11,352.56,352.56,0.0,0.0
1630880150.80004787,117628763,0.21,0.22,0.2,0.14,352.56,352.56,0.0,0.0
1630880150.90000796,117728723,0.19,0.2,0.21,0.17,352.56,352.56,0.0,0.0
1630880150.99996781,117828683,0.17,0.17,0.21,0.2,352.56,352.56,0.0,0.0
1630880151.09992790,117928643,0.15,0.14,0.19,0.2,352.56,352.56,0.0,0.0
1630880151.19988799,118028603,0.15,0.12,0.17,0.19,352.56,352.56,0.0,0.0
1630880151.29984784,118128563,0.16,0.13,0.18,0.18,352.56,352.56,0.0,0.0
1630880151.39980793,118228523,0.18,0.15,0.19,0.18,352.56,352.57,0.0,0.0
1630880151.49976802,118328483,0.2,0.17,0.22,0.21,352.56,352.57,0.0,0.0
1630880151.59972787,118428443,0.22,0.2,0.23,0.23,352.56,352.57,0.0,0.0
1630880151.69968796,118528403,0.22,0.22,0.2,0.22,352.56,352.57,0.0,0.0
1630880151.79964781,118628363,0.19,0.21,0.16,0.18,352.56,352.57,0.0,0.0
1630880151.89960790,118728323,0.17,0.19,0.15,0.15,352.56,352.57,0.0,0.0
1630880151.99956799,118828283,0.13,0.14,0.16,0.15,352.56,352.57,0.0,0.0
1630880152.09952784,118928243,0.13,0.12,0.16,0.15,352.56,352.56,0.0,0.0
1630880152.19948792,119028203,0.12,0.1,0.13,0.13,352.56,352.56,0.0,0.0
1630880152.29944801,119128163,0.08,0.07,0.11,0.11,352.56,352.56,0.0,0.0
1630880152.40024090,119228956,0.05,0.02,0.09,0.07,352.56,352.56,0.0,0.0
1630880152.50020099,119328916,0.07,0.02,0.15,0.08,352.56,352.56,0.0,0.0
1630880152.60016084,119428876,0.13,0.06,0.21,0.15,352.56,352.56,0.0,0.0
1630880152.70012093,119528836,0.2,0.15,0.21,0.2,352.56,352.56,0.0,0.0
1630880152.80008101,119628796,0.21,0.2,0.19,0.2,352.56,352.56,0.0,0.0
1630880152.90004086,119728756,0.2,0.21,0.19,0.18,352.56,352.56,0.0,0.0
1630880153.00000095,119828716,0.18,0.19,0.24,0.21,352.56,352.57,0.0,0.0
1630880153.09996080,119928676,0.18,0.18,0.25,0.24,352.56,352.57,0.0,0.0
1630880153.19992089,120028636,0.19,0.17,0.24,0.25,352.56,352.57,0.0,0.0
1630880153.29988098,120128596,0.18,0.17,0.21,0.24,352.56,352.57,0.0,0.0
1630880153.39984083,120228556,0.16,0.17,0.17,0.2,352.56,352.57,0.0,0.0
1630880153.49980092,120328516,0.16,0.16,0.14,0.16,352.56,352.57,0.0,0.0
1630880153.59976101,120428476,0.18,0.16,0.16,0.13,352.56,352.57,0.0,0.0
1630880153.69972086,120528436,0.22,0.19,0.21,0.15,352.56,352.57,0.0,0.0
1630880153.79968095,120628396,0.26,0.24,0.24,0.19,352.56,352.57,0.0,0.0
1630880153.89964080,120728356,0.24,0.26,0.22,0.22,352.56,352.56,0.0,0.0
1630880153.99960089,120828316,0.21,0.24,0.21,0.2,352.56,352.56,0.0,0.0
1630880154.09956098,120928276,0.19,0.2,0.2,0.2,352.56,352.56,0.0,0.0
1630880154.19952083,121028236,0.21,0.19,0.19,0.19,352.56,352.56,0.0,0.0
1630880154.29948092,121128196,0.2,0.19,0.19,0.18,352.56,352.56,0.0,0.0
1630880154.39944100,121228156,0.17,0.18,0.2,0.18,352.56,352.56,0.0,0.0
1630880154.50023389,121328949,0.15,0.15,0.22,0.19,352.56,352.56,0.0,0.0
1630880154.60019398,121428909,0.14,0.12,0.23,0.21,352.56,352.56,0.0,0.0
1630880154.70015383,121528869,0.16,0.13,0.23,0.22,352.56,352.56,0.0,0.0
1630880154.80011392,121628829,0.2,0.16,0.22,0.22,352.56,352.56,0.0,0.0
1630880154.90007401,121728789,0.25,0.21,0.2,0.2,352.56,352.56,0.0,0.0
1630880155.00003386,121828749,0.28,0.26,0.2,0.18,352.56,352.57,0.0,0.0
1630880155.09999394,121928709,0.26,0.27,0.2,0.18,352.56,352.56,0.0,0.0
1630880155.19995403,122028669,0.26,0.27,0.17,0.16,352.56,352.56,0.0,0.0
1630880155.29991388,122128629,0.22,0.25,0.15,0.14,352.56,352.56,0.0,0.0
1630880155.39987397,122228589,0.18,0.2,0.13,0.12,352.56,352.56,0.0,0.0
1630880155.49983382,122328549,0.16,0.15,0.12,0.1,352.56,352.56,0.0,0.0
1630880155.59979391,122428509,0.19,0.14,0.17,0.11,352.56,352.56,0.0,0.0
1630880155.69975400,122528469,0.24,0.17,0.23,0.17,352.56,352.56,0.0,0.0
1630880155.79971385,122628429,0.27,0.22,0.25,0.22,352.56,352.56,0.0,0.0
1630880155.89967394,122728389,0.27,0.26,0.23,0.24,352.56,352.56,0.0,0.0
1630880155.99963403,122828349,0.25,0.26,0.19,0.22,352.56,352.56,0.0,0.0
1630880156.09959388,122928309,0.19,0.23,0.16,0.17,352.56,352.56,0.0,0.0
1630880156.19955397,123028269,0.12,0.15,0.13,0.13,352.56,352.56,0.0,0.0
1630880156.29951382,123128229,0.12,0.11,0.13,0.11,352.56,352.56,0.0,0.0
1630880156.39947391,123228189,0.15,0.11,0.16,0.13,352.56,352.56,0.0,0.0
1630880156.50026703,123328982,0.18,0.13,0.16,0.14,352.56,352.56,0.0,0.0
1630880156.60022688,123428942,0.19,0.16,0.16,0.15,352.56,352.56,0.0,0.0
1630880156.70018697,123528902,0.22,0.2,0.16,0.15,352.56,352.55,0.0,0.0
1630880156.80014682,123628862,0.27,0.24,0.14,0.14,352.56,352.55,0.0,0.0
1630880156.90010691,123728822,0.26,0.27,0.14,0.14,352.56,352.55,0.0,0.0
1630880157.00006700,123828782,0.21,0.25,0.15,0.13,352.56,352.55,0.0,0.0
1630880157.10002685,123928742,0.16,0.19,0.17,0.15,352.56,352.55,0.0,0.0
1630880157.19998693,124028702,0.12,0.12,0.19,0.17,352.56,352.56,0.0,0.0
1630880157.29994702,124128662,0.12,0.08,0.21,0.19,352.56,352.56,0.0,0.0
1630880157.39990687,124228622,0.14,0.07,0.2,0.21,352.56,352.56,0.0,0.0
1630880157.49986696,124328582,0.16,0.1,0.16,0.2,352.56,352.56,0.0,0.0
1630880157.59982681,124428542,0.16,0.12,0.16,0.17,352.56,352.56,0.0,0.0
1630880157.69978690,124528502,0.19,0.16,0.18,0.16,352.56,352.56,0.0,0.0
1630880157.79974699,124628462,0.2,0.19,0.2,0.18,352.56,352.56,0.0,0.0
1630880157.89970684,124728422,0.23,0.21,0.22,0.2,352.56,352.57,0.0,0.0
1630880157.99966693,124828382,0.27,0.25,0.22,0.21,352.56,352.57,0.0,0.0
1630880158.09962702,124928342,0.28,0.29,0.23,0.23,352.56,352.56,0.0,0.0
1630880158.19958687,125028302,0.26,0.29,0.23,0.23,352.56,352.56,0.0,0.0
1630880158.29954696,125128262,0.23,0.27,0.24,0.23,352.56,352.56,0.0,0.0
1630880158.39950681,125228222,0.21,0.24,0.24,0.24,352.56,352.57,0.0,0.0
1630880158.49946690,125328182,0.18,0.2,0.24,0.24,352.56,352.57,0.0,0.0
1630880158.60026002,125428975,0.15,0.16,0.26,0.25,352.56,352.56,0.0,0.0
1630880158.70021987,125528935,0.13,0.12,0.28,0.27,352.56,352.56,0.0,0.0
1630880158.80017996,125628895,0.15,0.11,0.29,0.28,352.56,352.56,0.0,0.0
1630880158.90013981,125728855,0.19,0.15,0.31,0.3,352.56,352.56,0.0,0.0
1630880159.00009990,125828815,0.22,0.2,0.32,0.31,352.56,352.56,0.0,0.0
1630880159.10005999,125928775,0.23,0.23,0.3,0.31,352.56,352.55,0.0,0.0
1630880159.20001984,126028735,0.22,0.24,0.28,0.29,352.56,352.55,0.0,0.0
1630880159.29997993,126128695,0.22,0.23,0.26,0.27,352.56,352.55,0.0,0.0
1630880159.39994001,126228655,0.22,0.22,0.25,0.25,352.56,352.55,0.0,0.0
1630880159.49989986,126328615,0.22,0.21,0.24,0.23,352.56,352.55,0.0,0.0
1630880159.59985995,126428575,0.2,0.19,0.23,0.21,352.56,352.56,0.0,0.0
1630880159.69981980,126528535,0.17,0.17,0.2,0.19,352.56,352.56,0.0,0.0
1630880159.79977989,126628495,0.11,0.12,0.16,0.16,352.56,352.56,0.0,0.0
1630880159.89973998,126728455,0.1,0.09,0.14,0.12,352.56,352.56,0.0,0.0
1630880159.99969983,126828415,0.14,0.1,0.14,0.11,352.56,352.57,0.0,0.0
1630880160.09965992,126928375,0.16,0.13,0.14,0.11,352.56,352.57,0.0,0.0
1630880160.19962001,127028335,0.18,0.15,0.14,0.11,352.56,352.57,0.0,0.0
1630880160.29957986,127128295,0.18,0.17,0.11,0.12,352.56,352.56,0.0,0.0
1630880160.39953995,127228255,0.15,0.15,0.08,0.09,352.56,352.56,0.0,0.0
1630880160.49949980,127328215,0.13,0.12,0.08,0.07,352.56,352.56,0.0,0.0
1630880160.59945989,127428175,0.14,0.11,0.11,0.08,352.56,352.56,0.0,0.0
1630880160.70025301,127528968,0.15,0.11,0.16,0.13,352.56,352.56,0.0,0.0
1630880160.80021286,127628928,0.14,0.12,0.2,0.17,352.56,352.56,0.0,0.0
1630880160.90017295,127728888,0.13,0.12,0.19,0.21,352.56,352.56,0.0,0.0
1630880161.00013280,127828848,0.13,0.13,0.15,0.18,352.56,352.56,0.0,0.0
1630880161.10009289,127928808,0.14,0.13,0.12,0.15,352.56,352.56,0.0,0.0
1630880161.20005298,128028768,0.15,0.13,0.14,0.12,352.56,352.56,0.0,0.0
1630880161.30001283,128128728,0.17,0.14,0.15,0.13,352.56,352.56,0.0,0.0
1630880161.39997292,128228688,0.18,0.15,0.14,0.13,352.56,352.56,0.0,0.0
1630880161.49993300,128328648,0.17,0.16,0.16,0.14,352.56,352.56,0.0,0.0
1630880161.59989285,128428608,0.18,0.16,0.17,0.14,352.56,352.56,0.0,0.0
1630880161.69985294,128528568,0.22,0.19,0.18,0.16,352.56,352.56,0.0,0.0
1630880161.79981303,128628528,0.24,0.22,0.21,0.19,352.56,352.56,0.0,0.0
1630880161.89977288,128728488,0.27,0.25,0.25,0.22,352.56,352.56,0.0,0.0
1630880161.99973297,128828448,0.31,0.28,0.29,0.26,352.56,352.56,0.0,0.0
1630880162.09969282,128928408,0.33,0.32,0.28,0.28,352.56,352.56,0.0,0.0
1630880162.19965291,129028368,0.29,0.31,0.29,0.28,352.56,352.56,0.0,0.0
1630880162.29961300,129128328,0.24,0.27,0.27,0.28,352.56,352.56,0.0,0.0
1630880162.39957285,129228288,0.23,0.23,0.27,0.26,352.56,352.56,0.0,0.0
1630880162.49953294,129328248,0.22,0.2,0.3,0.27,352.56,352.56,0.0,0.0
1630880162.59949303,129428208,0.22,0.19,0.31,0.3,352.56,352.56,0.0,0.0
1630880162.69945288,129528168,0.22,0.19,0.29,0.29,352.56,352.56,0.0,0.0
1630880162.80024600,129628961,0.24,0.2,0.26,0.26,352.56,352.56,0.0,0.0
1630880162.90020585,129728921,0.26,0.23,0.24,0.24,352.56,352.56,0.0,0.0
1630880163.00016594,129828881,0.26,0.25,0.23,0.21,352.56,352.56,0.0,0.0
1630880163.10012603,129928841,0.22,0.23,0.23,0.2,352.56,352.56,0.0,0.0
1630880163.20008588,130028801,0.17,0.19,0.23,0.2,352.56,352.56,0.0,0.0
1630880163.30004597,130128761,0.19,0.17,0.25,0.22,352.56,352.56,0.0,0.0
1630880163.40000582,130228721,0.21,0.18,0.27,0.24,352.56,352.56,0.0,0.0
1630880163.49996591,130328681,0.2,0.18,0.28,0.27,352.56,352.56,0.0,0.0
1630880163.59992599,130428641,0.2,0.18,0.29,0.28,352.56,352.56,0.0,0.0
1630880163.69988585,130528601,0.2,0.19,0.29,0.29,352.56,352.56,0.0,0.0
1630880163.79984593,130628561,0.19,0.18,0.27,0.28,352.56,352.56,0.0,0.0
1630880163.89980602,130728521,0.17,0.17,0.26,0.26,352.56,352.56,0.0,0.0
1630880163.99976587,130828481,0.17,0.15,0.25,0.24,352.56,352.56,0.0,0.0
1630880164.09972596,130928441,0.17,0.15,0.26,0.24,352.56,352.56,0.0,0.0
1630880164.19968581,131028401,0.19,0.16,0.27,0.25,352.56,352.56,0.0,0.0
1630880164.29964590,131128361,0.2,0.18,0.28,0.27,352.56,352.56,0.0,0.0
1630880164.39960599,131228321,0.19,0.19,0.28,0.28,352.56,352.56,0.0,0.0
1630880164.49956584,131328281,0.17,0.17,0.27,0.27,352.56,352.56,0.0,0.0
1630880164.59952593,131428241,0.14,0.13,0.25,0.24,352.56,352.56,0.0,0.0
1630880164.69948602,131528201,0.14,0.11,0.24,0.22,352.56,352.56,0.0,0.0
1630880164.79944587,131628161,0.17,0.13,0.26,0.23,352.56,352.56,0.0,0.0
1630880164.90023899,131728954,0.19,0.16,0.26,0.24,352.56,352.56,0.0,0.0
1630880165.00019884,131828914,0.2,0.19,0.25,0.24,352.56,352.56,0.0,0.0
1630880165.10015893,131928874,0.2,0.2,0.25,0.24,352.56,352.56,0.0,0.0
1630880165.20011902,132028834,0.19,0.2,0.24,0.23,352.56,352.56,0.0,0.0
1630880165.30007887,132128794,0.18,0.18,0.25,0.23,352.56,352.56,0.0,0.0
1630880165.40003896,132228754,0.16,0.16,0.27,0.24,352.56,352.56,0.0,0.0
1630880165.49999881,132328714,0.17,0.16,0.28,0.26,352.56,352.56,0.0,0.0
1630880165.59995890,132428674,0.18,0.15,0.3,0.28,352.56,352.56,0.0,0.0
1630880165.69991899,132528634,0.21,0.17,0.29,0.29,352.56,352.55,0.0,0.0
1630880165.79987884,132628594,0.22,0.2,0.26,0.27,352.56,352.55,0.0,0.0
1630880165.89983892,132728554,0.21,0.21,0.23,0.24,352.56,352.55,0.0,0.0
1630880165.99979901,132828514,0.2,0.19,0.23,0.21,352.56,352.56,0.0,0.0
1630880166.09975886,132928474,0.09,0.14,0.39,0.29,352.56,352.56,0.0,0.0
1630880166.19971895,133028434,-0.2,-0.07,0.77,0.55,352.56,352.56,0.0,0.0
1630880166.29967880,133128394,-0.61,-0.45,1.36,1.07,352.56,352.56,0.0,0.0
1630880166.39963889,133228354,-1.11,-0.95,2.1,1.81,352.56,352.55,0.0,0.0
1630880166.49959898,133328314,-1.67,-1.55,2.89,2.68,352.56,352.53,0.0,0.0
1630880166.59955883,133428274,-2.2,-2.17,3.62,3.55,352.56,352.51,0.0,0.0
1630880166.69951892,133528234,-2.63,-2.7,4.2,4.29,352.56,352.5,0.0,0.0
1630880166.79947901,133628194,-2.93,-3.1,4.63,4.83,352.56,352.49,0.0,0.0
1630880166.89943886,133728154,-3.14,-3.34,4.97,5.2,352.56,352.49,0.0,0.0
1630880167.00023198,133828947,-3.34,-3.51,5.31,5.49,352.56,352.51,0.0,0.0
1630880167.10019183,133928907,-3.58,-3.67,5.67,5.78,352.56,352.52,0.0,0.0
1630880167.20015192,134028867,-3.85,-3.88,6.02,6.07,352.56,352.53,0.0,0.0
1630880167.30011201,134128827,-4.08,-4.1,6.33,6.37,352.56,352.54,0.0,0.0
1630880167.40007186,134228787,-4.27,-4.3,6.58,6.62,352.56,352.55,0.0,0.0
1630880167.50003195,134328747,-4.42,-4.46,6.78,6.82,352.56,352.56,0.0,0.0
1630880167.59999180,134428707,-4.53,-4.58,6.93,6.98,352.56,352.57,0.0,0.0
1630880167.69995189,134528667,-4.62,-4.67,7.04,7.09,352.56,352.58,0.0,0.0
1630880167.79991198,134628627,-4.72,-4.75,7.15,7.17,352.55,352.58,0.0,0.0
1630880167.89987183,134728587,-4.86,-4.78,7.36,7.35,350.96,352.54,0.0,0.0
1630880167.99983191,134828547,-5.09,-4.63,7.65,7.79,346.66,352.07,0.0,0.0
1630880168.09979200,134928507,-5.51,-4.45,7.92,8.45,340.68,350.47,0.0,0.0
1630880168.19975185,135028467,-6.22,-4.64,8.0,9.03,334.68,347.2,0.0,0.0
1630880168.29971194,135128427,-7.25,-5.38,7.73,9.25,328.68,342.27,0.0,0.0
1630880168.39967203,135228387,-8.5,-6.64,7.02,8.89,322.68,335.93,0.0,0.01
1630880168.49963188,135328347,-9.85,-8.23,5.88,7.87,316.68,328.53,0.0,0.03
1630880168.59959197,135428307,-11.12,-9.9,4.33,6.19,310.68,320.45,0.0,0.04
1630880168.69955182,135528267,-12.15,-11.41,2.52,4.0,304.68,311.98,0.0,0.06
1630880168.79951191,135628227,-12.85,-12.52,0.58,1.5,298.68,303.39,0.0,0.07
1630880168.89947200,135728187,-13.17,-13.11,-1.37,-1.06,292.68,294.88,0.0,0.08
1630880169.00026488,135828980,-13.18,-13.19,-3.25,-3.52,286.68,286.66,0.0,0.09
1630880169.10022497,135928940,-12.93,-12.84,-5.0,-5.7,280.68,278.88,0.0,0.09
1630880169.20018482,136028900,-12.5,-12.2,-6.6,-7.54,274.68,271.65,0.0,0.09
1630880169.30014491,136128860,-11.97,-11.44,-8.05,-9.05,268.68,265.01,0.0,0.09
1630880169.40010500,136228820,-11.34,-10.66,-9.36,-10.27,262.68,258.93,0.0,0.09
1630880169.50006485,136328780,-10.6,-9.9,-10.51,-11.23,256.68,253.34,0.0,0.08
1630880169.60002494,136428740,-9.79,-9.17,-11.53,-12.02,250.68,248.1,0.0,0.08
1630880169.69998503,136528700,-8.86,-8.45,-12.45,-12.7,244.68,243.09,0.0,0.07
1630880169.79994488,136628660,-7.81,-7.66,-13.3,-13.33,238.68,238.15,0.0,0.06
1630880169.89990497,136728620,-6.65,-6.77,-14.07,-13.95,232.68,233.15,0.0,0.06
1630880169.99986482,136828580,-5.37,-5.75,-14.74,-14.56,226.68,227.99,0.0,0.05
1630880170.09982491,136928540,-3.95,-4.53,-15.28,-15.11,220.67,222.61,0.0,0.05
1630880170.19978499,137028500,-2.41,-3.09,-15.7,-15.58,215.05,216.96,0.0,0.05
1630880170.29974484,137128460,-0.79,-1.13,-15.95,-15.92,211.71,211.19,0.0,0.05
1630880170.39970493,137228420,0.82,1.33,-16.04,-16.04,209.99,205.84,0.0,0.05
1630880170.49966502,137328380,2.18,3.82,-15.97,-15.89,209.1,201.51,0.0,0.06
1630880170.59962487,137428340,3.02,5.76,-15.83,-15.55,208.63,198.6,0.0,0.05
1630880170.69958496,137528300,3.25,6.75,-15.78,-15.22,208.35,197.18,0.0,0.05
1630880170.79954481,137628260,2.96,6.74,-15.87,-15.09,208.15,197.09,0.0,0.04
1630880170.89950490,137728220,2.28,5.82,-16.06,-15.19,207.98,198.06,0.0,0.04
1630880170.99946499,137828180,1.41,4.28,-16.3,-15.48,207.8,199.82,0.0,0.04
1630880171.10025787,137928973,0.53,2.46,-16.51,-15.86,207.62,202.05,0.0,0.04
1630880171.20021796,138028933,-0.24,0.65,-16.65,-16.22,207.43,204.46,0.0,0.05
1630880171.30017781,138128893,-0.83,-0.89,-16.71,-16.47,207.25,206.75,0.0,0.06
1630880171.40013790,138228853,-1.21,-2.03,-16.72,-16.61,207.08,208.64,0.0,0.06
1630880171.50009799,138328813,-1.38,-2.7,-16.73,-16.66,206.94,209.98,0.0,0.06
1630880171.60005784,138428773,-1.35,-2.92,-16.72,-16.66,206.82,210.69,0.0,0.05
1630880171.70001793,138528733,-1.18,-2.74,-16.7,-16.63,206.73,210.8,0.0,0.05
1630880171.79997802,138628693,-0.93,-2.29,-16.7,-16.61,206.66,210.39,0.0,0.04
1630880171.89993787,138728653,-0.62,-1.67,-16.72,-16.63,206.62,209.6,0.0,0.03
1630880171.99989796,138828613,-0.31,-0.97,-16.75,-16.66,206.59,208.58,0.0,0.02
1630880172.09985781,138928573,-0.03,-0.29,-16.79,-16.72,206.58,207.49,0.0,0.02
1630880172.19981790,139028533,0.21,0.3,-16.85,-16.79,206.57,206.47,0.0,0.02
1630880172.29977798,139128493,0.41,0.79,-16.9,-16.86,206.57,205.61,0.0,0.01
1630880172.39973783,139228453,0.55,1.14,-16.94,-16.92,206.57,205.0,0.0,0.01
1630880172.49969792,139328413,0.58,1.3,-16.99,-16.97,206.57,204.65,0.0,0.01
1630880172.59965801,139428373,0.52,1.29,-17.02,-17.01,206.57,204.57,0.0,0.01
1630880172.69961786,139528333,0.41,1.11,-17.04,-17.04,206.57,204.71,0.0,0.01
1630880172.79957795,139628293,0.28,0.84,-17.04,-17.05,206.56,205.01,0.0,0.01
1630880172.89953780,139728253,0.17,0.55,-17.04,-17.05,206.55,205.42,0.0,0.01
1630880172.99949789,139828213,0.09,0.28,-17.05,-17.05,206.54,205.87,0.0,0.01
1630880173.09945798,139928173,0.01,0.05,-17.08,-17.06,206.54,206.3,0.0,0.01
1630880173.20025086,140028966,-0.06,-0.13,-17.1,-17.09,206.54,206.66,0.0,0.01
1630880173.30021095,140128926,-0.14,-0.28,-17.11,-17.11,206.54,206.93,0.0,0.01
1630880173.40017080,140228886,-0.18,-0.38,-17.13,-17.13,206.54,207.09,0.0,0.01
1630880173.50013089,140328846,-0.15,-0.4,-17.16,-17.16,206.56,207.15,0.0,0.01
1630880173.60009098,140428806,-0.09,-0.33,-17.21,-17.2,206.57,207.12,0.0,0.01
1630880173.70005083,140528766,-0.03,-0.21,-17.23,-17.24,206.59,207.02,0.0,0.01
1630880173.80001092,140628726,0.05,-0.05,-17.25,-17.27,206.61,206.87,0.0,0.01
1630880173.89997101,140728686,0.12,0.09,-17.27,-17.29,206.64,206.71,0.0,0.01
1630880173.99993086,140828646,0.17,0.22,-17.3,-17.32,206.66,206.56,0.0,0.01
1630880174.09989095,140928606,0.21,0.33,-17.32,-17.34,206.69,206.44,0.0,0.01
1630880174.19985080,141028566,0.23,0.39,-17.33,-17.35,206.72,206.36,0.0,0.0
1630880174.29981089,141128526,0.23,0.41,-17.34,-17.36,206.75,206.32,0.0,0.0
1630880174.39977098,141228486,0.21,0.39,-17.34,-17.35,206.78,206.33,0.0,0.0
1630880174.49973083,141328446,0.21,0.37,-17.35,-17.35,206.81,206.37,0.0,0.0
1630880174.59969091,141428406,0.2,0.33,-17.36,-17.36,206.84,206.45,0.0,0.0
1630880174.69965100,141528366,0.17,0.29,-17.41,-17.39,206.87,206.55,0.0,0.01
1630880174.79961085,141628326,0.13,0.23,-17.47,-17.45,206.89,206.66,0.0,0.01
1630880174.89957094,141728286,0.1,0.16,-17.49,-17.5,206.92,206.76,0.0,0.01
1630880174.99953103,141828246,0.09,0.11,-17.5,-17.53,206.95,206.85,0.0,0.01
1630880175.09949088,141928206,0.11,0.1,-17.51,-17.54,206.98,206.93,0.0,0.01
1630880175.19945097,142028166,0.13,0.11,-17.52,-17.54,207.01,206.99,0.0,0.0
1630880175.30024385,142128959,0.16,0.14,-17.54,-17.55,207.04,207.04,0.0,0.0
1630880175.40020394,142228919,0.18,0.17,-17.57,-17.58,207.08,207.07,0.0,0.0
1630880175.50016403,142328879,0.2,0.21,-17.59,-17.59,207.11,207.08,0.0,0.0
1630880175.60012388,142428839,0.21,0.23,-17.61,-17.62,207.14,207.09,0.0,0.0
1630880175.70008397,142528799,0.23,0.26,-17.62,-17.64,207.18,207.1,0.0,0.0
1630880175.80004382,142628759,0.24,0.28,-17.61,-17.64,207.21,207.11,0.0,0.0
1630880175.90000391,142728719,0.23,0.28,-17.61,-17.62,207.25,207.13,0.0,0.0
1630880175.99996400,142828679,0.23,0.27,-17.62,-17.61,207.28,207.15,0.0,0.0
1630880176.09992385,142928639,0.27,0.29,-17.63,-17.62,207.32,207.17,0.0,0.0
1630880176.19988394,143028599,0.29,0.32,-17.66,-17.65,207.35,207.2,0.0,0.0
1630880176.29984403,143128559,0.27,0.33,-17.68,-17.68,207.38,207.24,0.0,0.0
1630880176.39980388,143228519,0.24,0.31,-17.7,-17.71,207.42,207.28,0.0,0.0
1630880176.49976397,143328479,0.21,0.27,-17.7,-17.72,207.45,207.32,0.0,0.0
1630880176.59972382,143428439,0.22,0.25,-17.73,-17.74,207.48,207.36,0.0,0.0
1630880176.69968390,143528399,0.22,0.25,-17.73,-17.75,207.51,207.4,0.0,0.0
1630880176.79964399,143628359,0.24,0.25,-17.72,-17.74,207.54,207.44,0.0,0.0
1630880176.89960384,143728319,0.25,0.26,-17.72,-17.74,207.57,207.48,0.0,0.0
1630880176.99956393,143828279,0.23,0.27,-17.74,-17.74,207.6,207.52,0.0,0.0
1630880177.09952402,143928239,0.21,0.25,-17.76,-17.76,207.62,207.55,0.0,0.0
1630880177.19948387,144028199,0.19,0.22,-17.78,-17.78,207.65,207.58,0.0,0.0
1630880177.29944396,144128159,0.17,0.19,-17.78,-17.8,207.68,207.6,0.0,0.0
1630880177.40023685,144228952,0.17,0.18,-17.79,-17.82,207.7,207.63,0.0,0.0
1630880177.50019693,144328912,0.18,0.19,-17.81,-17.83,207.73,207.65,0.0,0.0
1630880177.60015702,144428872,0.21,0.21,-17.81,-17.84,207.75,207.68,0.0,0.0
1630880177.70011687,144528832,0.25,0.25,-17.8,-17.83,207.78,207.7,0.0,0.0
1630880177.80007696,144628792,0.25,0.27,-17.77,-17.8,207.8,207.72,0.0,0.0
1630880177.90003681,144728752,0.26,0.28,-17.77,-17.77,207.83,207.74,0.0,0.0
1630880177.99999690,144828712,0.27,0.3,-17.81,-17.79,207.85,207.77,0.0,0.0
1630880178.09995699,144928672,0.28,0.31,-17.85,-17.84,207.88,207.79,0.0,0.0
1630880178.19991684,145028632,0.28,0.31,-17.86,-17.86,207.9,207.81,0.0,0.0
1630880178.29987693,145128592,0.26,0.3,-17.87,-17.87,207.93,207.84,0.0,0.0
1630880178.39983702,145228552,0.26,0.29,-17.9,-17.89,207.95,207.86,0.0,0.0
1630880178.49979687,145328512,0.26,0.28,-17.93,-17.92,207.97,207.89,0.0,0.0
1630880178.59975696,145428472,0.25,0.27,-17.97,-17.96,207.99,207.91,0.0,0.0
1630880178.69971681,145528432,0.23,0.26,-17.99,-17.99,208.01,207.94,0.0,0.0
1630880178.79967690,145628392,0.23,0.24,-17.98,-18.01,208.03,207.96,0.0,0.0
1630880178.89963698,145728352,0.23,0.24,-17.95,-17.99,208.05,207.98,0.0,0.0
1630880178.99959683,145828312,0.25,0.25,-17.93,-17.96,208.07,208.0,0.0,0.0
1630880179.09955692,145928272,0.27,0.27,-17.95,-17.96,208.08,208.02,0.0,0.0
1630880179.19951701,146028232,0.28,0.29,-17.97,-17.98,208.1,208.03,0.0,0.0
1630880179.29947686,146128192,0.31,0.32,-18.01,-18.01,208.12,208.05,0.0,0.0
1630880179.40026999,146228985,0.3,0.32,-18.03,-18.05,208.14,208.06,0.0,0.0
1630880179.50022984,146328945,0.29,0.32,-18.03,-18.07,208.15,208.07,0.0,0.0
1630880179.60018992,146428905,0.29,0.31,-18.03,-18.08,208.17,208.09,0.0,0.0
1630880179.70015001,146528865,0.29,0.31,-18.01,-18.06,208.19,208.1,0.0,0.0
1630880179.80010986,146628825,0.28,0.29,-17.97,-18.01,208.2,208.12,0.0,0.0
1630880179.90006995,146728785,0.29,0.3,-17.96,-17.97,208.22,208.14,0.0,0.0
1630880180.00002980,146828745,0.31,0.31,-17.99,-17.98,208.23,208.15,0.0,0.0
1630880180.09998989,146928705,0.33,0.33,-18.05,-18.02,208.24,208.17,0.0,0.0
1630880180.19994998,147028665,0.36,0.36,-18.08,-18.06,208.26,208.18,0.0,0.0
1630880180.29990983,147128625,0.35,0.37,-18.11,-18.11,208.27,208.2,0.0,0.0
1630880180.39986992,147228585,0.32,0.36,-18.09,-18.12,208.29,208.22,0.0,0.0
1630880180.49983001,147328545,0.31,0.34,-18.08,-18.11,208.3,208.23,0.0,0.0
1630880180.59978986,147428505,0.3,0.31,-18.09,-18.1,208.31,208.25,0.0,0.0
1630880180.69974995,147528465,0.29,0.3,-18.08,-18.1,208.32,208.26,0.0,0.0
1630880180.79970980,147628425,0.29,0.29,-18.07,-18.09,208.33,208.28,0.0,0.0
1630880180.89966989,147728385,0.32,0.32,-18.08,-18.09,208.34,208.29,0.0,0.0
1630880180.99962997,147828345,0.35,0.35,-18.11,-18.11,208.35,208.29,0.0,0.0
1630880181.09958982,147928305,0.36,0.38,-18.14,-18.14,208.36,208.3,0.0,0.0
1630880181.19954991,148028265,0.36,0.39,-18.15,-18.17,208.37,208.31,0.0,0.0
1630880181.29951000,148128225,0.34,0.39,-18.13,-18.18,208.38,208.32,0.0,0.0
1630880181.39946985,148228185,0.32,0.37,-18.1,-18.15,208.39,208.33,0.0,0.0
1630880181.50026298,148328978,0.3,0.35,-18.07,-18.11,208.4,208.33,0.0,0.0
1630880181.60022283,148428938,0.28,0.32,-18.03,-18.07,208.4,208.34,0.0,0.0
1630880181.70018291,148528898,0.28,0.3,-18.02,-18.03,208.41,208.35,0.0,0.0
1630880181.80014300,148628858,0.26,0.27,-18.04,-18.03,208.41,208.36,0.0,0.0
1630880181.90010285,148728818,0.26,0.25,-18.07,-18.05,208.41,208.36,0.0,0.0
1630880182.00006294,148828778,0.27,0.25,-18.09,-18.09,208.42,208.37,0.0,0.0
1630880182.10002303,148928738,0.3,0.28,-18.09,-18.1,208.42,208.37,0.0,0.0
1630880182.19998288,149028698,0.33,0.31,-18.1,-18.11,208.42,208.37,0.0,0.0
1630880182.29994297,149128658,0.36,0.35,-18.1,-18.11,208.43,208.38,0.0,0.0
1630880182.39990282,149228618,0.38,0.38,-18.09,-18.11,208.43,208.38,0.0,0.0
1630880182.49986291,149328578,0.39,0.41,-18.09,-18.1,208.44,208.38,0.0,0.0
1630880182.59982300,149428538,0.37,0.41,-18.1,-18.11,208.44,208.38,0.0,0.0
1630880182.69978285,149528498,0.34,0.38,-18.11,-18.12,208.44,208.38,0.0,0.0
1630880182.79974294,149628458,0.3,0.33,-18.12,-18.13,208.45,208.39,0.0,0.0
1630880182.89970303,149728418,0.29,0.3,-18.14,-18.15,208.45,208.39,0.0,0.0
1630880182.99966288,149828378,0.29,0.29,-18.13,-18.16,208.45,208.4,0.0,0.0
1630880183.09962296,149928338,0.29,0.29,-18.1,-18.14,208.45,208.4,0.0,0.0
1630880183.19958282,150028298,0.29,0.29,-18.08,-18.11,208.45,208.4,0.0,0.0
1630880183.29954290,150128258,0.29,0.29,-18.07,-18.08,208.45,208.4,0.0,0.0
1630880183.39950299,150228218,0.3,0.29,-18.11,-18.09,208.45,208.4,0.0,0.0
1630880183.49946284,150328178,0.31,0.3,-18.14,-18.11,208.45,208.41,0.0,0.0
1630880183.60025597,150428971,0.3,0.3,-18.16,-18.15,208.45,208.41,0.0,0.0
1630880183.70021582,150528931,0.29,0.3,-18.17,-18.18,208.45,208.41,0.0,0.0
1630880183.80017591,150628891,0.31,0.3,-18.16,-18.19,208.45,208.41,0.0,0.0
1630880183.90013599,150728851,0.32,0.31,-18.13,-18.17,208.45,208.41,0.0,0.0
1630880184.00009584,150828811,0.31,0.32,-18.11,-18.14,208.45,208.41,0.0,0.0
1630880184.10005593,150928771,0.29,0.31,-18.08,-18.11,208.45,208.41,0.0,0.0
1630880184.20001602,151028731,0.26,0.28,-18.06,-18.08,208.45,208.4,0.0,0.0
1630880184.29997587,151128691,0.25,0.25,-18.07,-18.07,208.45,208.4,0.0,0.0
1630880184.39993596,151228651,0.28,0.25,-18.09,-18.08,208.45,208.4,0.0,0.0
1630880184.49989581,151328611,0.3,0.28,-18.13,-18.1,208.44,208.4,0.0,0.0
1630880184.59985590,151428571,0.32,0.31,-18.15,-18.14,208.45,208.4,0.0,0.0
1630880184.69981599,151528531,0.35,0.35,-18.16,-18.17,208.45,208.4,0.0,0.0
1630880184.79977584,151628491,0.39,0.38,-18.15,-18.18,208.45,208.4,0.0,0.0
1630880184.89973593,151728451,0.43,0.43,-18.13,-18.16,208.45,208.4,0.0,0.0
1630880184.99969602,151828411,0.43,0.45,-18.11,-18.13,208.45,208.41,0.0,0.0
1630880185.09965587,151928371,0.41,0.44,-18.12,-18.12,208.46,208.41,0.0,0.0
1630880185.19961596,152028331,0.4,0.42,-18.12,-18.13,208.46,208.42,0.0,0.0
1630880185.29957581,152128291,0.38,0.4,-18.12,-18.13,208.46,208.42,0.0,0.0
1630880185.39953589,152228251,0.35,0.37,-18.12,-18.14,208.46,208.43,0.0,0.0
1630880185.49949598,152328211,0.34,0.35,-18.14,-18.14,208.46,208.44,0.0,0.0
1630880185.59945583,152428171,0.34,0.34,-18.16,-18.17,208.46,208.44,0.0,0.0
1630880185.70024896,152528964,0.34,0.33,-18.14,-18.17,208.46,208.44,0.0,0.0
1630880185.80020881,152628924,0.34,0.33,-18.12,-18.15,208.46,208.44,0.0,0.0
1630880185.90016890,152728884,0.36,0.34,-18.12,-18.14,208.46,208.43,0.0,0.0
1630880186.00012898,152828844,0.37,0.36,-18.15,-18.15,208.46,208.43,0.0,0.0
1630880186.10008883,152928804,0.38,0.37,-18.17,-18.17,208.47,208.42,0.0,0.0
1630880186.20004892,153028764,0.39,0.39,-18.16,-18.18,208.47,208.42,0.0,0.0
1630880186.30000901,153128724,0.38,0.4,-18.15,-18.18,208.47,208.42,0.0,0.0
1630880186.39996886,153228684,0.38,0.41,-18.12,-18.17,208.47,208.42,0.0,0.0
1630880186.49992895,153328644,0.37,0.4,-18.09,-18.14,208.47,208.42,0.0,0.0
1630880186.59988880,153428604,0.38,0.39,-18.09,-18.11,208.47,208.42,0.0,0.0
1630880186.69984889,153528564,0.39,0.4,-18.1,-18.1,208.47,208.42,0.0,0.0
1630880186.79980898,153628524,0.41,0.41,-18.12,-18.11,208.48,208.43,0.0,0.0
1630880186.89976883,153728484,0.41,0.41,-18.15,-18.14,208.48,208.43,0.0,0.0
1630880186.99972892,153828444,0.39,0.41,-18.18,-18.17,208.48,208.44,0.0,0.0
1630880187.09968901,153928404,0.38,0.39,-18.22,-18.21,208.49,208.45,0.0,0.0
1630880187.19964886,154028364,0.41,0.39,-18.24,-18.25,208.49,208.46,0.0,0.0
1630880187.29960895,154128324,0.44,0.41,-18.22,-18.26,208.49,208.47,0.0,0.0
1630880187.39956880,154228284,0.43,0.44,-18.19,-18.24,208.5,208.47,0.0,0.0
1630880187.49952888,154328244,0.43,0.45,-18.16,-18.2,208.5,208.48,0.0,0.0
1630880187.59948897,154428204,0.41,0.44,-18.17,-18.18,208.5,208.48,0.0,0.0
1630880187.69944882,154528164,0.38,0.41,-18.18,-18.19,208.5,208.48,0.0,0.0
1630880187.80024195,154628957,0.38,0.38,-18.18,-18.2,208.51,208.49,0.0,0.0
1630880187.90020180,154728917,0.38,0.37,-18.18,-18.2,208.51,208.49,0.0,0.0
1630880188.00016189,154828877,0.38,0.36,-18.18,-18.2,208.51,208.49,0.0,0.0
1630880188.10012197,154928837,0.4,0.37,-18.2,-18.2,208.51,208.49,0.0,0.0
1630880188.20008183,155028797,0.42,0.39,-18.21,-18.21,208.51,208.49,0.0,0.0
1630880188.30004191,155128757,0.45,0.42,-18.22,-18.22,208.51,208.49,0.0,0.0
1630880188.40000200,155228717,0.45,0.45,-18.21,-18.23,208.51,208.48,0.0,0.0
1630880188.49996185,155328677,0.44,0.45,-18.2,-18.22,208.51,208.48,0.0,0.0
1630880188.59992194,155428637,0.43,0.44,-18.17,-18.2,208.51,208.48,0.0,0.0
1630880188.69988203,155528597,0.41,0.43,-18.16,-18.18,208.51,208.48,0.0,0.0
1630880188.79984188,155628557,0.42,0.41,-18.17,-18.17,208.51,208.48,0.0,0.0
1630880188.89980197,155728517,0.41,0.4,-18.18,-18.18,208.51,208.49,0.0,0.0
1630880188.99976182,155828477,0.4,0.39,-18.2,-18.2,208.51,208.49,0.0,0.0
1630880189.09972191,155928437,0.41,0.41,-18.23,-18.22,208.51,208.49,0.0,0.0
1630880189.19968200,156028397,0.42,0.42,-18.21,-18.24,208.51,208.49,0.0,0.0
1630880189.29964185,156128357,0.42,0.43,-18.18,-18.23,208.51,208.49,0.0,0.0
1630880189.39960194,156228317,0.4,0.42,-18.15,-18.19,208.51,208.49,0.0,0.0
1630880189.49956203,156328277,0.39,0.41,-18.16,-18.16,208.51,208.49,0.0,0.0
1630880189.59952188,156428237,0.4,0.4,-18.16,-18.16,208.51,208.49,0.0,0.0
1630880189.69948196,156528197,0.42,0.41,-18.16,-18.16,208.51,208.49,0.0,0.0
1630880189.79944181,156628157,0.44,0.42,-18.18,-18.18,208.51,208.49,0.0,0.0
1630880189.90023494,156728950,0.45,0.44,-18.2,-18.2,208.51,208.49,0.0,0.0
1630880190.00019503,156828910,0.44,0.45,-18.21,-18.22,208.51,208.48,0.0,0.0
1630880190.10015488,156928870,0.42,0.43,-18.21,-18.23,208.51,208.48,0.0,0.0
1630880190.20011497,157028830,0.42,0.41,-18.2,-18.22,208.51,208.48,0.0,0.0
1630880190.30007482,157128790,0.43,0.41,-18.19,-18.21,208.51,208.48,0.0,0.0
1630880190.40003490,157228750,0.43,0.42,-18.18,-18.2,208.51,208.48,0.0,0.0
1630880190.49999499,157328710,0.42,0.42,-18.18,-18.19,208.51,208.48,0.0,0.0
1630880190.59995484,157428670,0.43,0.42,-18.17,-18.18,208.51,208.48,0.0,0.0
1630880190.69991493,157528630,0.46,0.44,-18.16,-18.17,208.51,208.48,0.0,0.0
1630880190.79987502,157628590,0.47,0.47,-18.17,-18.18,208.51,208.48,0.0,0.0
1630880190.89983487,157728550,0.49,0.49,-18.17,-18.19,208.51,208.49,0.0,0.0
1630880190.99979496,157828510,0.51,0.51,-18.18,-18.2,208.51,208.49,0.0,0.0
1630880191.09975481,157928470,0.49,0.51,-18.23,-18.22,208.51,208.49,0.0,0.0
1630880191.19971490,158028430,0.48,0.5,-18.24,-18.26,208.52,208.5,0.0,0.0
1630880191.29967499,158128390,0.48,0.49,-18.21,-18.26,208.52,208.5,0.0,0.0
1630880191.39963484,158228350,0.5,0.49,-18.16,-18.21,208.52,208.5,0.0,0.0
1630880191.49959493,158328310,0.5,0.5,-18.13,-18.16,208.52,208.51,0.0,0.0
1630880191.59955502,158428270,0.48,0.49,-18.13,-18.14,208.52,208.51,0.0,0.0
1630880191.69951487,158528230,0.47,0.48,-18.15,-18.16,208.52,208.51,0.0,0.0
1630880191.79947495,158628190,0.46,0.47,-18.16,-18.17,208.52,208.51,0.0,0.0
1630880191.90026784,158728983,0.48,0.46,-18.16,-18.18,208.52,208.51,0.0,0.0
1630880192.00022793,158828943,0.5,0.47,-18.16,-18.18,208.52,208.51,0.0,0.0
1630880192.10018802,158928903,0.49,0.48,-18.15,-18.16,208.52,208.5,0.0,0.0
1630880192.20014787,159028863,0.48,0.46,-18.18,-18.18,208.52,208.5,0.0,0.0
1630880192.30010796,159128823,0.48,0.47,-18.21,-18.21,208.52,208.5,0.0,0.0
1630880192.40006781,159228783,0.47,0.46,-18.21,-18.23,208.52,208.49,0.0,0.0
1630880192.50002789,159328743,0.49,0.48,-18.21,-18.23,208.52,208.49,0.0,0.0
1630880192.59998798,159428703,0.54,0.51,-18.2,-18.23,208.52,208.5,0.0,0.0
1630880192.69994783,159528663,0.58,0.56,-18.16,-18.2,208.52,208.5,0.0,0.0
1630880192.79990792,159628623,0.55,0.57,-18.1,-18.15,208.52,208.5,0.0,0.0
1630880192.89986801,159728583,0.54,0.56,-18.1,-18.1,208.52,208.51,0.0,0.0
1630880192.99982786,159828543,0.52,0.54,-18.13,-18.1,208.52,208.51,0.0,0.0
1630880193.09978795,159928503,0.5,0.51,-18.15,-18.13,208.52,208.52,0.0,0.0
1630880193.19974780,160028463,0.49,0.49,-18.16,-18.15,208.52,208.52,0.0,0.0
1630880193.29970789,160128423,0.46,0.47,-18.17,-18.17,208.52,208.52,0.0,0.0
1630880193.39966798,160228383,0.43,0.43,-18.18,-18.18,208.52,208.52,0.0,0.0
1630880193.49962783,160328343,0.45,0.42,-18.19,-18.2,208.51,208.51,0.0,0.0
1630880193.59958792,160428303,0.49,0.45,-18.2,-18.21,208.52,208.51,0.0,0.0
1630880193.69954801,160528263,0.51,0.48,-18.17,-18.21,208.51,208.5,0.0,0.0
1630880193.79950786,160628223,0.51,0.5,-18.15,-18.18,208.52,208.5,0.0,0.0
1630880193.89946795,160728183,0.49,0.49,-18.14,-18.16,208.51,208.5,0.0,0.0
1630880194.00026083,160828976,0.47,0.46,-18.17,-18.17,208.51,208.49,0.0,0.0
1630880194.10022092,160928936,0.48,0.45,-18.18,-18.18,208.51,208.49,0.0,0.0
1630880194.20018101,161028896,0.51,0.46,-18.16,-18.19,208.51,208.49,0.0,0.0
1630880194.30014086,161128856,0.56,0.51,-18.15,-18.18,208.51,208.49,0.0,0.0
1630880194.40010095,161228816,0.58,0.56,-18.14,-18.16,208.52,208.49,0.0,0.0
1630880194.50006080,161328776,0.57,0.58,-18.15,-18.16,208.52,208.49,0.0,0.0
1630880194.60002089,161428736,0.55,0.57,-18.15,-18.16,208.52,208.5,0.0,0.0
1630880194.69998097,161528696,0.5,0.53,-18.14,-18.16,208.52,208.5,0.0,0.0
1630880194.79994082,161628656,0.46,0.47,-18.14,-18.15,208.52,208.51,0.0,0.0
1630880194.89990091,161728616,0.47,0.45,-18.15,-18.15,208.52,208.51,0.0,0.0
1630880194.99986100,161828576,0.52,0.48,-18.16,-18.17,208.52,208.51,0.0,0.0
1630880195.09982085,161928536,0.55,0.53,-18.17,-18.17,208.52,208.51,0.0,0.0
1630880195.19978094,162028496,0.53,0.54,-18.19,-18.19,208.52,208.51,0.0,0.0
1630880195.29974103,162128456,0.53,0.54,-18.21,-18.22,208.52,208.51,0.0,0.0
1630880195.39970088,162228416,0.55,0.54,-18.19,-18.23,208.52,208.51,0.0,0.0
1630880195.49966097,162328376,0.55,0.55,-18.16,-18.21,208.52,208.51,0.0,0.0
1630880195.59962082,162428336,0.52,0.55,-18.13,-18.18,208.53,208.51,0.0,0.0
1630880195.69958091,162528296,0.49,0.53,-18.13,-18.15,208.53,208.51,0.0,0.0
1630880195.79954100,162628256,0.49,0.5,-18.17,-18.16,208.53,208.51,0.0,0.0
1630880195.89950085,162728216,0.49,0.49,-18.2,-18.19,208.53,208.51,0.0,0.0
1630880195.99946094,162828176,0.49,0.48,-18.19,-18.21,208.53,208.51,0.0,0.0
1630880196.10025382,162928969,0.49,0.48,-18.18,-18.2,208.53,208.51,0.0,0.0
1630880196.20021391,163028929,0.5,0.49,-18.19,-18.2,208.53,208.51,0.0,0.0
1630880196.30017400,163128889,0.52,0.52,-18.2,-18.21,208.53,208.52,0.0,0.0
1630880196.40013385,163228849,0.54,0.54,-18.21,-18.23,208.54,208.52,0.0,0.0
1630880196.50009394,163328809,0.56,0.56,-18.18,-18.21,208.54,208.52,0.0,0.0
1630880196.60005403,163428769,0.55,0.56,-18.15,-18.19,208.54,208.53,0.0,0.0
1630880196.70001388,163528729,0.54,0.55,-18.12,-18.15,208.54,208.53,0.0,0.0
1630880196.79997396,163628689,0.54,0.54,-18.09,-18.11,208.55,208.53,0.0,0.0
1630880196.89993382,163728649,0.53,0.53,-18.11,-18.1,208.55,208.53,0.0,0.0
1630880196.99989390,163828609,0.54,0.52,-18.14,-18.12,208.55,208.54,0.0,0.0
1630880197.09985399,163928569,0.55,0.53,-18.17,-18.16,208.55,208.54,0.0,0.0
1630880197.19981384,164028529,0.55,0.54,-18.18,-18.19,208.55,208.54,0.0,0.0
1630880197.29977393,164128489,0.55,0.55,-18.18,-18.21,208.55,208.54,0.0,0.0
1630880197.39973402,164228449,0.54,0.54,-18.17,-18.21,208.55,208.54,0.0,0.0
1630880197.49969387,164328409,0.54,0.53,-18.16,-18.19,208.55,208.54,0.0,0.0
1630880197.59965396,164428369,0.54,0.53,-18.17,-18.19,208.55,208.53,0.0,0.0
1630880197.69961381,164528329,0.56,0.54,-18.16,-18.18,208.55,208.53,0.0,0.0
1630880197.79957390,164628289,0.58,0.56,-18.17,-18.18,208.55,208.53,0.0,0.0
1630880197.89953399,164728249,0.59,0.58,-18.18,-18.18,208.55,208.53,0.0,0.0
1630880197.99949384,164828209,0.58,0.59,-18.21,-18.2,208.55,208.53,0.0,0.0
1630880198.09945393,164928169,0.55,0.57,-18.23,-18.23,208.55,208.53,0.0,0.0
1630880198.20024681,165028962,0.54,0.55,-18.23,-18.25,208.55,208.53,0.0,0.0
1630880198.30020690,165128922,0.56,0.55,-18.23,-18.25,208.55,208.53,0.0,0.0
1630880198.40016699,165228882,0.56,0.55,-18.22,-18.25,208.56,208.53,0.0,0.0
1630880198.50012684,165328842,0.56,0.56,-18.23,-18.24,208.56,208.54,0.0,0.0
1630880198.60008693,165428802,0.53,0.55,-18.24,-18.25,208.56,208.54,0.0,0.0
1630880198.70004702,165528762,0.53,0.54,-18.23,-18.25,208.56,208.54,0.0,0.0
1630880198.80000687,165628722,0.54,0.53,-18.22,-18.25,208.56,208.54,0.0,0.0
1630880198.89996696,165728682,0.56,0.54,-18.22,-18.24,208.56,208.55,0.0,0.0
1630880198.99992681,165828642,0.56,0.55,-18.22,-18.24,208.56,208.55,0.0,0.0
1630880199.09988689,165928602,0.56,0.55,-18.2,-18.22,208.57,208.56,0.0,0.0
1630880199.19984698,166028562,0.56,0.55,-18.17,-18.2,208.57,208.56,0.0,0.0
1630880199.29980683,166128522,0.57,0.56,-18.17,-18.19,208.57,208.56,0.0,0.0
1630880199.39976692,166228482,0.58,0.57,-18.18,-18.19,208.57,208.57,0.0,0.0
1630880199.49972701,166328442,0.57,0.56,-18.21,-18.21,208.57,208.57,0.0,0.0
