timestamp,TimeUS,DesRoll,Roll,DesPitch,Pitch,DesYaw,Yaw,ErrRP,ErrYaw
1630622341.30004001,63328825,0.0,0.11,0.0,0.09,352.94,352.95,0.0,0.0
1630622341.40000010,63428785,0.0,0.11,0.0,0.09,352.94,352.95,0.0,0.0
1630622341.49995995,63528745,0.0,0.11,0.0,0.09,352.94,352.95,0.0,0.0
1630622341.59992003,63628705,0.0,0.11,0.0,0.09,352.94,352.95,0.0,0.0
1630622341.69988012,63728665,0.0,0.11,0.0,0.09,352.94,352.95,0.0,0.0
1630622341.79983997,63828625,0.0,0.11,0.0,0.09,352.94,352.95,0.0,0.0
1630622341.89980006,63928585,0.0,0.11,0.0,0.09,352.94,352.95,0.0,0.0
1630622341.99975991,64028545,0.0,0.11,0.0,0.09,352.94,352.95,0.0,0.0
1630622342.09972000,64128505,0.0,0.11,0.0,0.09,352.94,352.95,0.0,0.0
1630622342.19968009,64228465,0.0,0.11,0.0,0.09,352.94,352.95,0.0,0.0
1630622342.29963994,64328425,0.0,0.11,0.0,0.09,352.94,352.95,0.0,0.0
1630622342.39960003,64428385,0.0,0.11,0.0,0.09,352.94,352.95,0.0,0.0
1630622342.49956012,64528345,0.0,0.11,0.0,0.09,352.94,352.95,0.0,0.0
1630622342.59951997,64628305,0.0,0.11,0.0,0.09,352.94,352.95,0.0,0.0
1630622342.69948006,64728265,0.0,0.11,0.0,0.1,352.94,352.95,0.0,0.0
1630622342.79943991,64828225,0.0,0.11,0.0,0.09,352.95,352.96,0.0,0.0
1630622342.89940000,64928185,0.0,0.11,0.0,0.1,352.95,352.96,0.0,0.0
1630622343.00019312,65028978,0.0,0.11,0.0,0.1,352.95,352.96,0.0,0.0
1630622343.10015297,65128938,0.0,0.11,0.0,0.1,352.95,352.96,0.0,0.0
1630622343.20011306,65228898,0.0,0.11,0.0,0.1,352.95,352.96,0.0,0.0
1630622343.30007291,65328858,0.0,0.11,0.0,0.1,352.95,352.96,0.0,0.0
1630622343.40003300,65428818,0.0,0.11,0.0,0.1,352.95,352.96,0.0,0.0
1630622343.49999309,65528778,0.0,0.11,0.0,0.1,352.95,352.96,0.0,0.0
1630622343.59995294,65628738,0.0,0.11,0.0,0.1,352.95,352.96,0.0,0.0
1630622343.69991302,65728698,0.0,0.11,0.0,0.1,352.95,352.96,0.0,0.0
1630622343.79987311,65828658,0.0,0.11,0.0,0.1,352.95,352.96,0.0,0.0
1630622343.89983296,65928618,0.0,0.11,0.0,0.1,352.95,352.96,0.0,0.0
1630622343.99979305,66028578,0.0,0.11,0.0,0.1,352.95,352.96,0.0,0.0
1630622344.09975290,66128538,0.0,0.11,0.0,0.1,352.95,352.96,0.0,0.0
1630622344.19971299,66228498,0.0,0.11,0.0,0.1,352.95,352.96,0.0,0.0
1630622344.29967308,66328458,0.0,0.11,0.0,0.1,352.95,352.96,0.0,0.0
1630622344.39963293,66428418,0.0,0.11,0.0,0.1,352.95,352.96,0.0,0.0
1630622344.49959302,66528378,0.0,0.11,0.0,0.1,352.95,352.96,0.0,0.0
1630622344.59955311,66628338,0.0,0.11,0.0,0.1,352.95,352.96,0.0,0.0
1630622344.69951296,66728298,0.0,0.11,0.0,0.1,352.95,352.96,0.0,0.0
1630622344.79947305,66828258,0.0,0.11,0.0,0.1,352.95,352.96,0.0,0.0
1630622344.89943290,66928218,0.0,0.11,0.0,0.1,352.95,352.96,0.0,0.0
1630622344.99939299,67028178,0.0,0.11,0.0,0.1,352.95,352.96,0.0,0.0
1630622345.10018611,67128971,0.0,0.11,0.0,0.1,352.95,352.96,0.0,0.0
1630622345.20014596,67228931,0.0,0.11,0.0,0.1,352.96,352.97,0.0,0.0
1630622345.30010605,67328891,0.0,0.11,0.0,0.1,352.96,352.97,0.0,0.0
1630622345.40006590,67428851,-0.08,0.11,-0.08,0.1,352.96,352.97,0.0,0.0
1630622345.50002599,67528811,-0.18,0.11,-0.19,0.1,352.96,352.97,0.0,0.0
1630622345.59998608,67628771,-0.24,0.11,-0.26,0.1,352.96,352.97,0.0,0.0
1630622345.69994593,67728731,-0.28,0.11,-0.3,0.1,352.96,352.97,0.0,0.0
1630622345.79990602,67828691,-0.31,0.11,-0.33,0.1,352.96,352.97,0.0,0.0
1630622345.89986610,67928651,-0.34,0.11,-0.35,0.1,352.96,352.97,0.0,0.0
1630622345.99982595,68028611,-0.37,0.11,-0.36,0.1,352.96,352.97,0.0,0.0
1630622346.09978604,68128571,-0.4,0.11,-0.39,0.1,352.96,352.97,0.0,0.0
1630622346.19974589,68228531,-0.41,0.11,-0.41,0.1,352.96,352.97,0.0,0.0
1630622346.29970598,68328491,-0.43,0.12,-0.43,0.1,352.96,352.97,0.0,0.0
1630622346.39966607,68428451,-0.45,0.11,-0.46,0.1,352.96,352.97,0.0,0.0
1630622346.49962592,68528411,-0.48,0.12,-0.49,0.1,352.96,352.97,0.0,0.0
1630622346.59958601,68628371,-0.51,0.12,-0.52,0.1,352.96,352.97,0.0,0.0
1630622346.69954610,68728331,-0.53,0.12,-0.56,0.1,352.96,352.97,0.0,0.0
1630622346.79950595,68828291,-0.56,0.12,-0.59,0.1,352.96,352.97,0.0,0.0
1630622346.89946604,68928251,-0.55,0.12,-0.58,0.1,352.96,352.97,0.0,0.0
1630622346.99942613,69028211,-0.57,-0.07,-0.59,-0.08,352.96,352.97,0.0,0.0
1630622347.09938598,69128171,-0.58,-0.47,-0.6,-0.48,352.96,352.97,0.0,0.0
1630622347.20017910,69228964,-0.5,-0.81,-0.54,-0.84,352.96,352.97,0.0,0.0
1630622347.30013895,69328924,-0.35,-0.93,-0.34,-0.94,352.96,352.97,0.0,0.0
1630622347.40009904,69428884,-0.14,-0.86,-0.08,-0.82,352.96,352.97,0.0,0.0
1630622347.50005913,69528844,0.11,-0.62,0.18,-0.54,352.96,352.96,0.0,0.0
1630622347.60001898,69628804,0.38,-0.29,0.42,-0.21,352.96,352.96,0.0,0.0
1630622347.69997907,69728764,0.57,0.03,0.56,0.07,352.96,352.95,0.0,0.0
1630622347.79993892,69828724,0.65,0.27,0.62,0.25,352.96,352.95,0.0,0.0
1630622347.89989901,69928684,0.62,0.37,0.64,0.35,352.96,352.95,0.0,0.0
1630622347.99985909,70028644,0.55,0.33,0.61,0.37,352.96,352.96,0.0,0.0
1630622348.09981894,70128604,0.49,0.26,0.53,0.31,352.96,352.95,0.0,0.0
1630622348.19977903,70228564,0.49,0.21,0.47,0.23,352.96,352.95,0.0,0.0
1630622348.29973912,70328524,0.53,0.24,0.45,0.18,352.96,352.95,0.0,0.0
1630622348.39969897,70428484,0.56,0.29,0.45,0.17,352.96,352.96,0.0,0.0
1630622348.49965906,70528444,0.56,0.34,0.48,0.2,352.96,352.96,0.0,0.0
1630622348.59961891,70628404,0.56,0.36,0.51,0.27,352.96,352.96,0.0,0.0
1630622348.69957900,70728364,0.54,0.37,0.51,0.32,352.68,352.69,0.0,0.0
1630622348.79953909,70828324,0.51,0.36,0.47,0.33,352.68,352.69,0.0,0.0
1630622348.89949894,70928284,0.49,0.34,0.46,0.32,352.68,352.69,0.0,0.0
1630622348.99945903,71028244,0.46,0.32,0.44,0.31,352.68,352.69,0.0,0.0
1630622349.09941912,71128204,0.41,0.3,0.43,0.31,352.68,352.69,0.0,0.0
1630622349.19937897,71228164,0.35,0.25,0.4,0.3,352.68,352.69,0.0,0.0
1630622349.30017209,71328957,0.32,0.22,0.35,0.27,352.68,352.69,0.0,0.0
1630622349.40013194,71428917,0.32,0.2,0.31,0.23,352.68,352.7,0.0,0.0
1630622349.50009203,71528877,0.32,0.2,0.27,0.19,352.68,352.7,0.0,0.0
1630622349.60005212,71628837,0.31,0.21,0.26,0.16,352.68,352.7,0.0,0.0
1630622349.70001197,71728797,0.31,0.22,0.25,0.16,352.68,352.7,0.0,0.0
1630622349.79997206,71828757,0.31,0.24,0.26,0.17,352.68,352.7,0.0,0.0
1630622349.89993191,71928717,0.27,0.24,0.25,0.19,352.68,352.7,0.0,0.0
1630622349.99989200,72028677,0.2,0.2,0.19,0.17,352.68,352.7,0.0,0.0
1630622350.09985209,72128637,0.14,0.15,0.14,0.13,352.68,352.69,0.0,0.0
1630622350.19981194,72228597,0.11,0.1,0.13,0.1,352.68,352.69,0.0,0.0
1630622350.29977202,72328557,0.09,0.05,0.12,0.08,352.68,352.69,0.0,0.0
1630622350.39973211,72428517,0.09,0.02,0.1,0.07,352.68,352.69,0.0,0.0
1630622350.49969196,72528477,0.1,0.02,0.1,0.06,352.68,352.69,0.0,0.0
1630622350.59965205,72628437,0.1,0.03,0.09,0.04,352.68,352.69,0.0,0.0
1630622350.69961190,72728397,0.05,0.03,0.12,0.05,352.68,352.69,0.0,0.0
1630622350.79957199,72828357,0.0,-0.01,0.16,0.09,352.68,352.69,0.0,0.0
1630622350.89953208,72928317,-0.02,-0.05,0.14,0.12,352.68,352.69,0.0,0.0
1630622350.99949193,73028277,0.02,-0.05,0.12,0.11,352.68,352.69,0.0,0.0
1630622351.09945202,73128237,0.05,-0.02,0.11,0.1,352.68,352.69,0.0,0.0
1630622351.19941211,73228197,0.07,0.01,0.08,0.08,352.68,352.7,0.0,0.0
1630622351.29937196,73328157,0.08,0.05,0.06,0.05,352.68,352.7,0.0,0.0
1630622351.40016508,73428950,0.1,0.08,0.08,0.04,352.68,352.7,0.0,0.0
1630622351.50012493,73528910,0.12,0.1,0.11,0.06,352.68,352.7,0.0,0.0
1630622351.60008502,73628870,0.12,0.12,0.11,0.07,352.68,352.7,0.0,0.0
1630622351.70004511,73728830,0.16,0.14,0.09,0.08,352.68,352.7,0.0,0.0
1630622351.80000496,73828790,0.18,0.17,0.07,0.07,352.68,352.7,0.0,0.0
1630622351.89996505,73928750,0.18,0.19,0.08,0.06,352.68,352.69,0.0,0.0
1630622351.99992490,74028710,0.16,0.18,0.09,0.07,352.68,352.69,0.0,0.0
1630622352.09988499,74128670,0.18,0.16,0.12,0.08,352.68,352.69,0.0,0.0
1630622352.19984508,74228630,0.2,0.18,0.16,0.12,352.68,352.69,0.0,0.0
1630622352.29980493,74328590,0.21,0.2,0.16,0.15,352.68,352.69,0.0,0.0
1630622352.39976501,74428550,0.21,0.21,0.15,0.15,352.68,352.69,0.0,0.0
1630622352.49972510,74528510,0.21,0.2,0.12,0.13,352.68,352.69,0.0,0.0
1630622352.59968495,74628470,0.21,0.2,0.07,0.1,352.68,352.69,0.0,0.0
1630622352.69964504,74728430,0.23,0.21,0.05,0.06,352.68,352.69,0.0,0.0
1630622352.79960489,74828390,0.24,0.22,0.04,0.02,352.68,352.69,0.0,0.0
1630622352.89956498,74928350,0.22,0.22,0.04,0.0,352.68,352.69,0.0,0.0
1630622352.99952507,75028310,0.19,0.19,0.08,0.02,352.68,352.69,0.0,0.0
1630622353.09948492,75128270,0.19,0.18,0.1,0.06,352.68,352.69,0.0,0.0
1630622353.19944501,75228230,0.22,0.18,0.1,0.09,352.68,352.69,0.0,0.0
1630622353.29940510,75328190,0.24,0.21,0.11,0.11,352.68,352.69,0.0,0.0
1630622353.40019798,75428983,0.28,0.24,0.12,0.12,352.68,352.7,0.0,0.0
1630622353.50015807,75528943,0.31,0.29,0.11,0.12,352.68,352.69,0.0,0.0
1630622353.60011792,75628903,0.3,0.31,0.06,0.09,352.68,352.69,0.0,0.0
1630622353.70007801,75728863,0.24,0.28,0.07,0.06,352.68,352.69,0.0,0.0
1630622353.80003810,75828823,0.2,0.22,0.09,0.06,352.68,352.69,0.0,0.0
1630622353.89999795,75928783,0.21,0.2,0.09,0.08,352.68,352.69,0.0,0.0
1630622353.99995804,76028743,0.23,0.19,0.11,0.1,352.68,352.69,0.0,0.0
1630622354.09991813,76128703,0.21,0.19,0.12,0.12,352.68,352.69,0.0,0.0
1630622354.19987798,76228663,0.2,0.18,0.14,0.14,352.68,352.69,0.0,0.0
1630622354.29983807,76328623,0.22,0.18,0.11,0.14,352.68,352.69,0.0,0.0
1630622354.39979792,76428583,0.25,0.2,0.11,0.12,352.68,352.69,0.0,0.0
1630622354.49975801,76528543,0.26,0.22,0.13,0.12,352.68,352.7,0.0,0.0
1630622354.59971809,76628503,0.26,0.24,0.15,0.14,352.68,352.7,0.0,0.0
1630622354.69967794,76728463,0.24,0.24,0.15,0.14,352.68,352.7,0.0,0.0
1630622354.79963803,76828423,0.2,0.22,0.16,0.14,352.68,352.7,0.0,0.0
1630622354.89959812,76928383,0.16,0.18,0.19,0.16,352.68,352.7,0.0,0.0
1630622354.99955797,77028343,0.13,0.14,0.18,0.16,352.68,352.69,0.0,0.0
1630622355.09951806,77128303,0.14,0.12,0.17,0.16,352.68,352.69,0.0,0.0
1630622355.19947791,77228263,0.17,0.13,0.19,0.16,352.68,352.69,0.0,0.0
1630622355.29943800,77328223,0.2,0.16,0.19,0.17,352.68,352.69,0.0,0.0
1630622355.39939809,77428183,0.19,0.18,0.16,0.15,352.68,352.69,0.0,0.0
1630622355.50019097,77528976,0.15,0.15,0.17,0.16,352.68,352.69,0.0,0.0
1630622355.60015106,77628936,0.11,0.11,0.16,0.16,352.68,352.69,0.0,0.0
1630622355.70011091,77728896,0.11,0.09,0.13,0.14,352.68,352.69,0.0,0.0
1630622355.80007100,77828856,0.13,0.11,0.12,0.11,352.68,352.69,0.0,0.0
1630622355.90003109,77928816,0.13,0.12,0.15,0.12,352.68,352.69,0.0,0.0
1630622355.99999094,78028776,0.14,0.14,0.17,0.15,352.68,352.69,0.0,0.0
1630622356.09995103,78128736,0.14,0.15,0.14,0.15,352.68,352.69,0.0,0.0
1630622356.19991112,78228696,0.11,0.14,0.07,0.11,352.68,352.69,0.0,0.0
1630622356.29987097,78328656,0.08,0.11,0.03,0.04,352.68,352.69,0.0,0.0
1630622356.39983106,78428616,0.07,0.07,0.05,0.01,352.68,352.69,0.0,0.0
1630622356.49979091,78528576,0.08,0.07,0.11,0.05,352.68,352.68,0.0,0.0
1630622356.59975100,78628536,0.08,0.07,0.17,0.11,352.68,352.68,0.0,0.0
1630622356.69971108,78728496,0.07,0.08,0.19,0.17,352.68,352.68,0.0,0.0
1630622356.79967093,78828456,0.05,0.06,0.19,0.21,352.68,352.68,0.0,0.0
1630622356.89963102,78928416,0.05,0.04,0.17,0.22,352.68,352.68,0.0,0.0
1630622356.99959111,79028376,0.05,0.02,0.14,0.19,352.68,352.68,0.0,0.0
1630622357.09955096,79128336,0.07,0.03,0.1,0.14,352.68,352.68,0.0,0.0
1630622357.19951105,79228296,0.1,0.06,0.07,0.09,352.68,352.68,0.0,0.0
1630622357.29947090,79328256,0.08,0.08,0.06,0.04,352.68,352.69,0.0,0.0
1630622357.39943099,79428216,0.06,0.07,0.1,0.05,352.68,352.69,0.0,0.0
1630622357.49939108,79528176,0.05,0.05,0.15,0.09,352.68,352.69,0.0,0.0
1630622357.60018396,79628969,0.07,0.06,0.17,0.14,352.68,352.69,0.0,0.0
1630622357.70014405,79728929,0.09,0.08,0.18,0.17,352.68,352.7,0.0,0.0
1630622357.80010390,79828889,0.1,0.1,0.16,0.17,352.68,352.7,0.0,0.0
1630622357.90006399,79928849,0.06,0.09,0.12,0.15,352.68,352.7,0.0,0.0
1630622358.00002408,80028809,0.03,0.05,0.08,0.1,352.68,352.7,0.0,0.0
1630622358.09998393,80128769,0.03,0.01,0.06,0.06,352.68,352.7,0.0,0.0
1630622358.19994402,80228729,0.06,0.02,0.06,0.04,352.68,352.69,0.0,0.0
1630622358.29990411,80328689,0.1,0.06,0.08,0.05,352.68,352.69,0.0,0.0
1630622358.39986396,80428649,0.13,0.1,0.1,0.07,352.68,352.69,0.0,0.0
1630622358.49982405,80528609,0.14,0.14,0.07,0.08,352.68,352.69,0.0,0.0
1630622358.59978390,80628569,0.16,0.16,0.07,0.07,352.68,352.69,0.0,0.0
1630622358.69974399,80728529,0.18,0.18,0.08,0.07,352.68,352.69,0.0,0.0
1630622358.79970407,80828489,0.17,0.19,0.09,0.08,352.68,352.69,0.0,0.0
1630622358.89966393,80928449,0.14,0.17,0.09,0.08,352.68,352.69,0.0,0.0
1630622358.99962401,81028409,0.14,0.14,0.1,0.09,352.68,352.68,0.0,0.0
1630622359.09958410,81128369,0.13,0.12,0.09,0.08,352.68,352.68,0.0,0.0
1630622359.19954395,81228329,0.14,0.11,0.08,0.07,352.68,352.68,0.0,0.0
1630622359.29950404,81328289,0.14,0.11,0.07,0.06,352.68,352.69,0.0,0.0
1630622359.39946389,81428249,0.15,0.12,0.08,0.05,352.68,352.69,0.0,0.0
1630622359.49942398,81528209,0.18,0.16,0.11,0.09,352.68,352.69,0.0,0.0
1630622359.59938407,81628169,0.2,0.19,0.13,0.13,352.68,352.69,0.0,0.0
1630622359.70017695,81728962,0.2,0.21,0.16,0.15,352.68,352.69,0.0,0.0
1630622359.80013704,81828922,0.2,0.22,0.2,0.18,352.68,352.7,0.0,0.0
1630622359.90009689,81928882,0.17,0.2,0.22,0.21,352.68,352.7,0.0,0.0
1630622360.00005698,82028842,0.18,0.18,0.23,0.22,352.68,352.7,0.0,0.0
1630622360.10001707,82128802,0.15,0.16,0.22,0.23,352.68,352.7,0.0,0.0
1630622360.19997692,82228762,0.1,0.12,0.18,0.2,352.68,352.7,0.0,0.0
1630622360.29993701,82328722,0.11,0.1,0.15,0.16,352.68,352.7,0.0,0.0
1630622360.39989710,82428682,0.11,0.1,0.16,0.13,352.68,352.69,0.0,0.0
1630622360.49985695,82528642,0.13,0.11,0.2,0.16,352.68,352.69,0.0,0.0
1630622360.59981704,82628602,0.15,0.13,0.21,0.19,352.68,352.69,0.0,0.0
1630622360.69977713,82728562,0.18,0.15,0.22,0.21,352.68,352.69,0.0,0.0
1630622360.79973698,82828522,0.19,0.17,0.19,0.21,352.68,352.69,0.0,0.0
1630622360.89969707,82928482,0.2,0.19,0.15,0.18,352.68,352.69,0.0,0.0
1630622360.99965692,83028442,0.19,0.19,0.14,0.14,352.68,352.69,0.0,0.0
1630622361.09961700,83128402,0.15,0.16,0.13,0.12,352.68,352.69,0.0,0.0
1630622361.19957709,83228362,0.12,0.11,0.13,0.11,352.68,352.69,0.0,0.0
1630622361.29953694,83328322,0.13,0.09,0.14,0.12,352.68,352.69,0.0,0.0
1630622361.39949703,83428282,0.13,0.09,0.15,0.13,352.68,352.69,0.0,0.0
1630622361.49945712,83528242,0.13,0.09,0.18,0.16,352.68,352.69,0.0,0.0
1630622361.59941697,83628202,0.13,0.11,0.19,0.17,352.68,352.69,0.0,0.0
1630622361.69937706,83728162,0.13,0.12,0.2,0.18,352.68,352.69,0.0,0.0
1630622361.80016994,83828955,0.15,0.13,0.19,0.19,352.68,352.69,0.0,0.0
1630622361.90013003,83928915,0.17,0.14,0.17,0.18,352.68,352.69,0.0,0.0
1630622362.00009012,84028875,0.18,0.16,0.16,0.17,352.68,352.7,0.0,0.0
1630622362.10004997,84128835,0.21,0.19,0.14,0.15,352.68,352.69,0.0,0.0
1630622362.20001006,84228795,0.21,0.21,0.09,0.1,352.68,352.69,0.0,0.0
1630622362.29996991,84328755,0.19,0.21,0.09,0.07,352.68,352.69,0.0,0.0
1630622362.39993000,84428715,0.17,0.19,0.11,0.07,352.68,352.69,0.0,0.0
1630622362.49989009,84528675,0.15,0.17,0.1,0.09,352.68,352.69,0.0,0.0
1630622362.59984994,84628635,0.15,0.15,0.08,0.08,352.68,352.69,0.0,0.0
1630622362.69981003,84728595,0.14,0.14,0.06,0.06,352.68,352.69,0.0,0.0
1630622362.79977012,84828555,0.16,0.14,0.06,0.04,352.68,352.69,0.0,0.0
1630622362.89972997,84928515,0.16,0.15,0.09,0.05,352.68,352.69,0.0,0.0
1630622362.99969006,85028475,0.14,0.14,0.11,0.07,352.68,352.69,0.0,0.0
1630622363.09964991,85128435,0.12,0.11,0.15,0.11,352.68,352.69,0.0,0.0
1630622363.19960999,85228395,0.11,0.1,0.2,0.16,352.68,352.69,0.0,0.0
1630622363.29957008,85328355,0.12,0.11,0.22,0.21,352.68,352.69,0.0,0.0
1630622363.39952993,85428315,0.14,0.11,0.23,0.24,352.68,352.69,0.0,0.0
1630622363.49949002,85528275,0.18,0.15,0.18,0.23,352.68,352.69,0.0,0.0
1630622363.59945011,85628235,0.16,0.16,0.11,0.16,352.68,352.69,0.0,0.0
1630622363.69940996,85728195,0.13,0.14,0.07,0.09,352.68,352.69,0.0,0.0
1630622363.79937005,85828155,0.13,0.12,0.06,0.04,352.68,352.69,0.0,0.0
1630622363.90016294,85928948,0.14,0.12,0.07,0.02,352.68,352.69,0.0,0.0
1630622364.00012302,86028908,0.15,0.13,0.09,0.04,352.68,352.69,0.0,0.0
1630622364.10008311,86128868,0.14,0.14,0.12,0.08,352.68,352.69,0.0,0.0
1630622364.20004296,86228828,0.16,0.15,0.14,0.12,352.68,352.69,0.0,0.0
1630622364.30000305,86328788,0.17,0.17,0.12,0.14,352.68,352.69,0.0,0.0
1630622364.39996290,86428748,0.17,0.17,0.12,0.14,352.68,352.69,0.0,0.0
1630622364.49992299,86528708,0.16,0.17,0.07,0.11,352.68,352.68,0.0,0.0
1630622364.59988308,86628668,0.12,0.15,0.05,0.07,352.68,352.68,0.0,0.0
1630622364.69984293,86728628,0.07,0.1,0.1,0.07,352.68,352.68,0.0,0.0
1630622364.79980302,86828588,0.02,0.04,0.13,0.09,352.68,352.68,0.0,0.0
1630622364.89976311,86928548,0.0,0.0,0.13,0.11,352.68,352.69,0.0,0.0
1630622364.99972296,87028508,0.03,0.0,0.12,0.11,352.68,352.69,0.0,0.0
1630622365.09968305,87128468,0.08,0.02,0.13,0.12,352.68,352.68,0.0,0.0
1630622365.19964290,87228428,0.13,0.09,0.15,0.13,352.68,352.68,0.0,0.0
1630622365.29960299,87328388,0.11,0.12,0.13,0.13,352.68,352.68,0.0,0.0
1630622365.39956307,87428348,0.11,0.13,0.09,0.11,352.68,352.68,0.0,0.0
1630622365.49952292,87528308,0.1,0.12,0.06,0.08,352.68,352.68,0.0,0.0
1630622365.59948301,87628268,0.1,0.1,0.05,0.05,352.68,352.69,0.0,0.0
1630622365.69944310,87728228,0.11,0.1,0.06,0.04,352.68,352.69,0.0,0.0
1630622365.79940295,87828188,0.12,0.11,0.09,0.06,352.68,352.69,0.0,0.0
1630622365.90019608,87928981,0.08,0.1,0.12,0.08,352.68,352.69,0.0,0.0
1630622366.00015593,88028941,0.04,0.06,0.13,0.1,352.68,352.69,0.0,0.0
1630622366.10011601,88128901,0.05,0.02,0.14,0.12,352.68,352.69,0.0,0.0
1630622366.20007610,88228861,0.08,0.03,0.15,0.14,352.68,352.7,0.0,0.0
1630622366.30003595,88328821,0.1,0.05,0.15,0.16,352.68,352.7,0.0,0.0
1630622366.39999604,88428781,0.11,0.08,0.13,0.16,352.68,352.7,0.0,0.0
1630622366.49995589,88528741,0.11,0.1,0.11,0.13,352.68,352.7,0.0,0.0
1630622366.59991598,88628701,0.09,0.1,0.11,0.12,352.68,352.71,0.0,0.0
1630622366.69987607,88728661,0.11,0.1,0.08,0.09,352.68,352.7,0.0,0.0
1630622366.79983592,88828621,0.13,0.11,0.08,0.07,352.68,352.7,0.0,0.0
1630622366.89979601,88928581,0.15,0.11,0.12,0.08,352.68,352.7,0.0,0.0
1630622366.99975610,89028541,0.19,0.14,0.16,0.11,352.68,352.69,0.0,0.0
1630622367.09971595,89128501,0.23,0.2,0.18,0.15,352.68,352.69,0.0,0.0
1630622367.19967604,89228461,0.24,0.23,0.18,0.17,352.68,352.69,0.0,0.0
1630622367.29963613,89328421,0.23,0.24,0.17,0.18,352.68,352.69,0.0,0.0
1630622367.39959598,89428381,0.21,0.23,0.16,0.17,352.68,352.69,0.0,0.0
1630622367.49955606,89528341,0.21,0.22,0.16,0.16,352.68,352.68,0.0,0.0
1630622367.59951591,89628301,0.23,0.22,0.14,0.15,352.68,352.68,0.0,0.0
1630622367.69947600,89728261,0.21,0.21,0.15,0.14,352.68,352.68,0.0,0.0
1630622367.79943609,89828221,0.19,0.18,0.15,0.14,352.68,352.68,0.0,0.0
1630622367.89939594,89928181,0.2,0.18,0.16,0.14,352.68,352.69,0.0,0.0
1630622368.00018907,90028974,0.23,0.2,0.16,0.15,352.68,352.69,0.0,0.0
1630622368.10014892,90128934,0.24,0.23,0.16,0.15,352.68,352.69,0.0,0.0
1630622368.20010900,90228894,0.24,0.24,0.17,0.15,352.68,352.69,0.0,0.0
1630622368.30006909,90328854,0.25,0.26,0.18,0.16,352.68,352.69,0.0,0.0
1630622368.40002894,90428814,0.21,0.23,0.19,0.17,352.68,352.69,0.0,0.0
1630622368.49998903,90528774,0.19,0.2,0.19,0.18,352.68,352.69,0.0,0.0
1630622368.59994912,90628734,0.18,0.18,0.17,0.16,352.68,352.69,0.0,0.0
1630622368.69990897,90728694,0.16,0.16,0.14,0.14,352.68,352.69,0.0,0.0
1630622368.79986906,90828654,0.19,0.16,0.12,0.11,352.68,352.69,0.0,0.0
1630622368.89982891,90928614,0.22,0.19,0.12,0.1,352.68,352.69,0.0,0.0
1630622368.99978900,91028574,0.2,0.21,0.14,0.1,352.68,352.69,0.0,0.0
1630622369.09974909,91128534,0.14,0.18,0.16,0.12,352.68,352.69,0.0,0.0
1630622369.19970894,91228494,0.1,0.12,0.18,0.15,352.68,352.69,0.0,0.0
1630622369.29966903,91328454,0.1,0.08,0.19,0.18,352.68,352.69,0.0,0.0
1630622369.39962912,91428414,0.1,0.07,0.16,0.17,352.68,352.68,0.0,0.0
1630622369.49958897,91528374,0.1,0.07,0.14,0.15,352.68,352.68,0.0,0.0
1630622369.59954906,91628334,0.11,0.08,0.12,0.13,352.68,352.68,0.0,0.0
1630622369.69950891,91728294,0.11,0.1,0.14,0.13,352.68,352.68,0.0,0.0
1630622369.79946899,91828254,0.13,0.11,0.14,0.14,352.68,352.68,0.0,0.0
1630622369.89942908,91928214,0.18,0.15,0.12,0.13,352.68,352.68,0.0,0.0
1630622369.99938893,92028174,0.2,0.19,0.1,0.11,352.68,352.68,0.0,0.0
1630622370.10018206,92128967,0.19,0.2,0.11,0.1,352.68,352.69,0.0,0.0
1630622370.20014191,92228927,0.18,0.19,0.13,0.11,352.68,352.69,0.0,0.0
1630622370.30010200,92328887,0.19,0.19,0.17,0.14,352.68,352.69,0.0,0.0
1630622370.40006208,92428847,0.19,0.19,0.18,0.16,352.68,352.7,0.0,0.0
1630622370.50002193,92528807,0.19,0.18,0.16,0.16,352.68,352.7,0.0,0.0
1630622370.59998202,92628767,0.19,0.18,0.17,0.17,352.68,352.7,0.0,0.0
1630622370.69994211,92728727,0.19,0.18,0.18,0.18,352.68,352.7,0.0,0.0
1630622370.79990196,92828687,0.16,0.17,0.13,0.15,352.68,352.7,0.0,0.0
1630622370.89986205,92928647,0.16,0.16,0.09,0.11,352.68,352.69,0.0,0.0
1630622370.99982190,93028607,0.17,0.15,0.1,0.09,352.68,352.69,0.0,0.0
1630622371.09978199,93128567,0.15,0.14,0.1,0.08,352.68,352.69,0.0,0.0
1630622371.19974208,93228527,0.14,0.13,0.13,0.09,352.68,352.69,0.0,0.0
1630622371.29970193,93328487,0.14,0.13,0.14,0.13,352.68,352.69,0.0,0.0
1630622371.39966202,93428447,0.17,0.14,0.14,0.13,352.68,352.69,0.0,0.0
1630622371.49962211,93528407,0.2,0.17,0.14,0.14,352.68,352.69,0.0,0.0
1630622371.59958196,93628367,0.17,0.18,0.13,0.13,352.68,352.69,0.0,0.0
1630622371.69954205,93728327,0.15,0.16,0.13,0.12,352.68,352.69,0.0,0.0
1630622371.79950190,93828287,0.14,0.14,0.14,0.13,352.68,352.68,0.0,0.0
1630622371.89946198,93928247,0.14,0.13,0.15,0.14,352.68,352.68,0.0,0.0
1630622371.99942207,94028207,0.15,0.14,0.16,0.15,352.68,352.68,0.0,0.0
1630622372.09938192,94128167,0.16,0.15,0.17,0.17,352.68,352.68,0.0,0.0
1630622372.20017505,94228960,0.18,0.16,0.17,0.19,352.68,352.69,0.0,0.0
1630622372.30013490,94328920,0.22,0.19,0.17,0.18,352.68,352.69,0.0,0.0
1630622372.40009499,94428880,0.23,0.21,0.17,0.17,352.68,352.69,0.0,0.0
1630622372.50005507,94528840,0.21,0.23,0.17,0.16,352.68,352.69,0.0,0.0
1630622372.60001493,94628800,0.2,0.21,0.17,0.16,352.68,352.68,0.0,0.0
1630622372.69997501,94728760,0.2,0.21,0.15,0.15,352.68,352.68,0.0,0.0
1630622372.79993510,94828720,0.22,0.2,0.12,0.13,352.68,352.68,0.0,0.0
1630622372.89989495,94928680,0.23,0.21,0.1,0.1,352.68,352.68,0.0,0.0
1630622372.99985504,95028640,0.21,0.2,0.09,0.07,352.68,352.68,0.0,0.0
1630622373.09981489,95128600,0.19,0.19,0.1,0.07,352.68,352.68,0.0,0.0
1630622373.19977498,95228560,0.18,0.18,0.09,0.07,352.68,352.68,0.0,0.0
1630622373.29973507,95328520,0.19,0.17,0.1,0.08,352.68,352.69,0.0,0.0
1630622373.39969492,95428480,0.22,0.19,0.12,0.1,352.68,352.69,0.0,0.0
1630622373.49965501,95528440,0.2,0.18,0.16,0.14,352.68,352.69,0.0,0.0
1630622373.59961510,95628400,0.17,0.16,0.2,0.18,352.68,352.69,0.0,0.0
1630622373.69957495,95728360,0.15,0.14,0.22,0.21,352.68,352.69,0.0,0.0
1630622373.79953504,95828320,0.13,0.12,0.23,0.22,352.68,352.69,0.0,0.0
1630622373.89949512,95928280,0.12,0.11,0.21,0.21,352.68,352.69,0.0,0.0
1630622373.99945498,96028240,0.14,0.11,0.17,0.17,352.68,352.69,0.0,0.0
1630622374.09941506,96128200,0.15,0.15,0.15,0.14,352.68,352.69,0.0,0.0
1630622374.19937491,96228160,0.14,0.15,0.18,0.14,352.68,352.69,0.0,0.0
1630622374.30016804,96328953,0.15,0.15,0.19,0.17,352.68,352.69,0.0,0.0
1630622374.40012813,96428913,0.17,0.15,0.21,0.19,352.68,352.69,0.0,0.0
1630622374.50008798,96528873,0.19,0.17,0.23,0.23,352.68,352.69,0.0,0.0
1630622374.60004807,96628833,0.21,0.19,0.21,0.23,352.68,352.69,0.0,0.0
1630622374.70000792,96728793,0.21,0.21,0.18,0.21,352.68,352.69,0.0,0.0
1630622374.79996800,96828753,0.19,0.22,0.14,0.18,352.68,352.69,0.0,0.0
1630622374.89992809,96928713,0.15,0.2,0.14,0.14,352.68,352.69,0.0,0.0
1630622374.99988794,97028673,0.1,0.14,0.13,0.12,352.68,352.69,0.0,0.0
1630622375.09984803,97128633,0.07,0.08,0.14,0.11,352.68,352.69,0.0,0.0
1630622375.19980812,97228593,0.08,0.04,0.14,0.11,352.68,352.69,0.0,0.0
1630622375.29976797,97328553,0.1,0.05,0.17,0.12,352.68,352.69,0.0,0.0
1630622375.39972806,97428513,0.1,0.06,0.19,0.15,352.68,352.69,0.0,0.0
1630622375.49968791,97528473,0.1,0.07,0.19,0.17,352.68,352.68,0.0,0.0
1630622375.59964800,97628433,0.12,0.08,0.2,0.19,352.68,352.68,0.0,0.0
1630622375.69960809,97728393,0.13,0.09,0.2,0.2,352.68,352.68,0.0,0.0
1630622375.79956794,97828353,0.13,0.1,0.18,0.18,352.68,352.68,0.0,0.0
1630622375.89952803,97928313,0.13,0.1,0.14,0.16,352.68,352.68,0.0,0.0
1630622375.99948812,98028273,0.16,0.12,0.1,0.11,352.68,352.68,0.0,0.0
1630622376.09944797,98128233,0.17,0.15,0.1,0.09,352.68,352.68,0.0,0.0
1630622376.19940805,98228193,0.15,0.15,0.12,0.1,352.68,352.68,0.0,0.0
1630622376.30020094,98328986,0.14,0.14,0.13,0.11,352.68,352.69,0.0,0.0
1630622376.40016103,98428946,0.14,0.13,0.16,0.13,352.68,352.69,0.0,0.0
1630622376.50012112,98528906,0.13,0.12,0.18,0.17,352.68,352.69,0.0,0.0
1630622376.60008097,98628866,0.14,0.12,0.17,0.18,352.68,352.69,0.0,0.0
1630622376.70004106,98728826,0.14,0.12,0.16,0.18,352.68,352.68,0.0,0.0
1630622376.80000091,98828786,0.12,0.12,0.14,0.15,352.68,352.68,0.0,0.0
1630622376.89996099,98928746,0.13,0.12,0.13,0.13,352.68,352.68,0.0,0.0
1630622376.99992108,99028706,0.15,0.13,0.11,0.11,352.68,352.68,0.0,0.0
1630622377.09988093,99128666,0.14,0.14,0.1,0.09,352.68,352.68,0.0,0.0
1630622377.19984102,99228626,0.15,0.13,0.11,0.07,352.68,352.68,0.0,0.0
1630622377.29980111,99328586,0.15,0.14,0.14,0.1,352.68,352.68,0.0,0.0
1630622377.39976096,99428546,0.15,0.15,0.17,0.13,352.68,352.68,0.0,0.0
1630622377.49972105,99528506,0.17,0.16,0.15,0.15,352.68,352.69,0.0,0.0
1630622377.59968090,99628466,0.18,0.18,0.14,0.14,352.68,352.69,0.0,0.0
1630622377.69964099,99728426,0.19,0.19,0.15,0.15,352.68,352.69,0.0,0.0
1630622377.79960108,99828386,0.2,0.2,0.18,0.15,352.68,352.69,0.0,0.0
1630622377.89956093,99928346,0.19,0.2,0.19,0.17,352.68,352.69,0.0,0.0
1630622377.99952102,100028306,0.15,0.17,0.17,0.16,352.68,352.69,0.0,0.0
1630622378.09948111,100128266,0.12,0.13,0.16,0.15,352.68,352.69,0.0,0.0
1630622378.19944096,100228226,0.12,0.09,0.15,0.14,352.68,352.69,0.0,0.0
1630622378.29940104,100328186,0.14,0.09,0.15,0.13,352.68,352.68,0.0,0.0
1630622378.40019393,100428979,0.15,0.11,0.17,0.13,352.68,352.68,0.0,0.0
1630622378.50015402,100528939,0.16,0.14,0.21,0.17,352.68,352.68,0.0,0.0
1630622378.60011411,100628899,0.15,0.14,0.24,0.22,352.68,352.68,0.0,0.0
1630622378.70007396,100728859,0.13,0.13,0.22,0.23,352.68,352.68,0.0,0.0
1630622378.80003405,100828819,0.14,0.12,0.17,0.19,352.68,352.68,0.0,0.0
1630622378.89999390,100928779,0.16,0.15,0.16,0.15,352.68,352.68,0.0,0.0
1630622378.99995399,101028739,0.15,0.16,0.15,0.13,352.68,352.68,0.0,0.0
1630622379.09991407,101128699,0.12,0.14,0.17,0.13,352.68,352.68,0.0,0.0
1630622379.19987392,101228659,0.13,0.12,0.19,0.15,352.68,352.69,0.0,0.0
1630622379.29983401,101328619,0.16,0.13,0.18,0.16,352.68,352.69,0.0,0.0
1630622379.39979410,101428579,0.17,0.15,0.17,0.15,352.68,352.69,0.0,0.0
1630622379.49975395,101528539,0.14,0.15,0.16,0.15,352.68,352.69,0.0,0.0
1630622379.59971404,101628499,0.1,0.12,0.14,0.14,352.68,352.68,0.0,0.0
1630622379.69967389,101728459,0.1,0.09,0.15,0.14,352.68,352.68,0.0,0.0
1630622379.79963398,101828419,0.11,0.08,0.18,0.15,352.68,352.68,0.0,0.0
1630622379.89959407,101928379,0.15,0.1,0.24,0.21,352.68,352.68,0.0,0.0
1630622379.99955392,102028339,0.19,0.15,0.24,0.24,352.68,352.69,0.0,0.0
1630622380.09951401,102128299,0.2,0.19,0.21,0.24,352.68,352.69,0.0,0.0
1630622380.19947410,102228259,0.19,0.19,0.16,0.19,352.68,352.69,0.0,0.0
1630622380.29943395,102328219,0.18,0.19,0.12,0.14,352.68,352.69,0.0,0.0
1630622380.39939404,102428179,0.14,0.16,0.08,0.08,352.68,352.69,0.0,0.0
1630622380.50018692,102528972,0.1,0.12,0.09,0.05,352.68,352.69,0.0,0.0
1630622380.60014701,102628932,0.08,0.07,0.13,0.07,352.68,352.69,0.0,0.0
1630622380.70010710,102728892,0.08,0.05,0.15,0.11,352.68,352.69,0.0,0.0
1630622380.80006695,102828852,0.11,0.05,0.17,0.15,352.68,352.69,0.0,0.0
1630622380.90002704,102928812,0.16,0.1,0.17,0.17,352.68,352.69,0.0,0.0
1630622380.99998713,103028772,0.2,0.16,0.14,0.16,352.68,352.69,0.0,0.0
1630622381.09994698,103128732,0.22,0.2,0.12,0.14,352.68,352.69,0.0,0.0
1630622381.19990706,103228692,0.23,0.23,0.11,0.11,352.68,352.7,0.0,0.0
1630622381.29986691,103328652,0.22,0.24,0.13,0.1,352.68,352.7,0.0,0.0
1630622381.39982700,103428612,0.22,0.23,0.14,0.12,352.68,352.7,0.0,0.0
1630622381.49978709,103528572,0.23,0.23,0.17,0.15,352.68,352.7,0.0,0.0
1630622381.59974694,103628532,0.22,0.23,0.16,0.16,352.68,352.69,0.0,0.0
1630622381.69970703,103728492,0.19,0.21,0.18,0.17,352.68,352.69,0.0,0.0
1630622381.79966712,103828452,0.18,0.18,0.21,0.19,352.68,352.69,0.0,0.0
1630622381.89962697,103928412,0.18,0.17,0.23,0.23,352.68,352.69,0.0,0.0
1630622381.99958706,104028372,0.18,0.17,0.23,0.24,352.68,352.69,0.0,0.0
1630622382.09954691,104128332,0.19,0.17,0.21,0.23,352.68,352.68,0.0,0.0
1630622382.19950700,104228292,0.19,0.18,0.2,0.2,352.68,352.68,0.0,0.0
1630622382.29946709,104328252,0.2,0.19,0.17,0.18,352.68,352.68,0.0,0.0
1630622382.39942694,104428212,0.2,0.19,0.16,0.16,352.68,352.68,0.0,0.0
1630622382.49938703,104528172,0.2,0.19,0.16,0.15,352.68,352.68,0.0,0.0
1630622382.60017991,104628965,0.18,0.17,0.19,0.16,352.68,352.68,0.0,0.0
1630622382.70014000,104728925,0.17,0.16,0.21,0.19,352.68,352.68,0.0,0.0
1630622382.80010009,104828885,0.15,0.14,0.19,0.19,352.68,352.68,0.0,0.0
1630622382.90005994,104928845,0.15,0.12,0.17,0.19,352.68,352.68,0.0,0.0
1630622383.00002003,105028805,0.2,0.15,0.15,0.16,352.68,352.68,0.0,0.0
1630622383.09998012,105128765,0.25,0.21,0.15,0.14,352.68,352.68,0.0,0.0
1630622383.19993997,105228725,0.28,0.27,0.15,0.14,352.68,352.68,0.0,0.0
1630622383.29990005,105328685,0.27,0.29,0.15,0.14,352.68,352.68,0.0,0.0
1630622383.39985991,105428645,0.23,0.26,0.15,0.13,352.68,352.68,0.0,0.0
1630622383.49981999,105528605,0.2,0.21,0.13,0.14,352.68,352.68,0.0,0.0
1630622383.59978008,105628565,0.2,0.19,0.12,0.11,352.68,352.68,0.0,0.0
1630622383.69973993,105728525,0.22,0.2,0.15,0.13,352.68,352.68,0.0,0.0
1630622383.79970002,105828485,0.26,0.23,0.18,0.15,352.68,352.68,0.0,0.0
1630622383.89966011,105928445,0.26,0.25,0.21,0.19,352.68,352.68,0.0,0.0
1630622383.99961996,106028405,0.23,0.24,0.23,0.22,352.68,352.68,0.0,0.0
1630622384.09958005,106128365,0.22,0.22,0.2,0.22,352.68,352.68,0.0,0.0
1630622384.19953990,106228325,0.21,0.2,0.14,0.17,352.68,352.68,0.0,0.0
1630622384.29949999,106328285,0.21,0.19,0.12,0.11,352.68,352.68,0.0,0.0
1630622384.39946008,106428245,0.22,0.2,0.11,0.08,352.68,352.68,0.0,0.0
1630622384.49941993,106528205,0.22,0.21,0.13,0.1,352.68,352.68,0.0,0.0
1630622384.59938002,106628165,0.21,0.21,0.17,0.13,352.68,352.68,0.0,0.0
1630622384.70017290,106728958,0.21,0.21,0.23,0.19,352.68,352.69,0.0,0.0
1630622384.80013299,106828918,0.21,0.21,0.26,0.25,352.68,352.69,0.0,0.0
1630622384.90009308,106928878,0.21,0.2,0.24,0.28,352.68,352.69,0.0,0.0
1630622385.00005293,107028838,0.19,0.19,0.18,0.25,352.68,352.69,0.0,0.0
1630622385.10001302,107128798,0.17,0.17,0.14,0.19,352.68,352.7,0.0,0.0
1630622385.19997311,107228758,0.16,0.15,0.1,0.13,352.68,352.7,0.0,0.0
1630622385.29993296,107328718,0.15,0.14,0.1,0.09,352.68,352.7,0.0,0.0
1630622385.39989305,107428678,0.12,0.11,0.13,0.09,352.68,352.7,0.0,0.0
1630622385.49985290,107528638,0.12,0.1,0.15,0.11,352.68,352.69,0.0,0.0
1630622385.59981298,107628598,0.15,0.12,0.18,0.14,352.68,352.69,0.0,0.0
1630622385.69977307,107728558,0.15,0.13,0.2,0.17,352.68,352.69,0.0,0.0
1630622385.79973292,107828518,0.14,0.13,0.2,0.18,352.68,352.69,0.0,0.0
1630622385.89969301,107928478,0.12,0.11,0.21,0.2,352.68,352.68,0.0,0.0
1630622385.99965310,108028438,0.1,0.09,0.2,0.2,352.68,352.68,0.0,0.0
1630622386.09961295,108128398,0.12,0.09,0.18,0.18,352.68,352.68,0.0,0.0
1630622386.19957304,108228358,0.13,0.1,0.16,0.15,352.68,352.68,0.0,0.0
1630622386.29953313,108328318,0.12,0.11,0.16,0.14,352.68,352.68,0.0,0.0
1630622386.39949298,108428278,0.16,0.13,0.15,0.13,352.68,352.68,0.0,0.0
1630622386.49945307,108528238,0.2,0.17,0.16,0.13,352.68,352.68,0.0,0.0
1630622386.59941292,108628198,0.21,0.21,0.18,0.15,352.68,352.68,0.0,0.0
1630622386.69937301,108728158,0.2,0.21,0.19,0.17,352.68,352.68,0.0,0.0
1630622386.80016589,108828951,0.19,0.2,0.22,0.2,352.68,352.68,0.0,0.0
1630622386.90012598,108928911,0.16,0.18,0.24,0.23,352.68,352.68,0.0,0.0
1630622387.00008607,109028871,0.14,0.14,0.26,0.25,352.68,352.69,0.0,0.0
1630622387.10004592,109128831,0.15,0.13,0.25,0.26,352.68,352.69,0.0,0.0
1630622387.20000601,109228791,0.17,0.15,0.26,0.26,352.68,352.69,0.0,0.0
1630622387.29996610,109328751,0.17,0.16,0.27,0.26,352.68,352.68,0.0,0.0
1630622387.39992595,109428711,0.21,0.18,0.25,0.25,352.68,352.68,0.0,0.0
1630622387.49988604,109528671,0.24,0.21,0.24,0.24,352.68,352.68,0.0,0.0
1630622387.59984612,109628631,0.26,0.24,0.26,0.24,352.68,352.68,0.0,0.0
1630622387.69980597,109728591,0.25,0.26,0.29,0.27,352.68,352.68,0.0,0.0
1630622387.79976606,109828551,0.25,0.25,0.28,0.27,352.68,352.68,0.0,0.0
1630622387.89972591,109928511,0.25,0.25,0.24,0.25,352.68,352.68,0.0,0.0
1630622387.99968600,110028471,0.24,0.24,0.2,0.21,352.68,352.68,0.0,0.0
1630622388.09964609,110128431,0.25,0.24,0.17,0.16,352.68,352.68,0.0,0.0
1630622388.19960594,110228391,0.26,0.24,0.12,0.12,352.68,352.68,0.0,0.0
1630622388.29956603,110328351,0.25,0.24,0.1,0.08,352.68,352.68,0.0,0.0
1630622388.39952612,110428311,0.24,0.23,0.11,0.07,352.68,352.68,0.0,0.0
1630622388.49948597,110528271,0.24,0.22,0.12,0.08,352.68,352.68,0.0,0.0
1630622388.59944606,110628231,0.23,0.21,0.12,0.1,352.68,352.68,0.0,0.0
1630622388.69940591,110728191,0.22,0.21,0.12,0.11,352.68,352.69,0.0,0.0
1630622388.80019903,110828984,0.2,0.19,0.13,0.12,352.68,352.69,0.0,0.0
1630622388.90015912,110928944,0.18,0.17,0.14,0.13,352.68,352.69,0.0,0.0
1630622389.00011897,111028904,0.17,0.15,0.17,0.15,352.68,352.69,0.0,0.0
1630622389.10007906,111128864,0.17,0.15,0.16,0.16,352.68,352.69,0.0,0.0
1630622389.20003891,111228824,0.18,0.15,0.14,0.15,352.68,352.69,0.0,0.0
1630622389.29999900,111328784,0.18,0.17,0.13,0.13,352.68,352.69,0.0,0.0
1630622389.39995909,111428744,0.18,0.17,0.13,0.12,352.68,352.68,0.0,0.0
1630622389.49991894,111528704,0.14,0.15,0.14,0.12,352.68,352.68,0.0,0.0
1630622389.59987903,111628664,0.11,0.11,0.15,0.13,352.68,352.68,0.0,0.0
1630622389.69983912,111728624,0.11,0.1,0.16,0.15,352.68,352.68,0.0,0.0
1630622389.79979897,111828584,0.12,0.1,0.18,0.17,352.68,352.68,0.0,0.0
1630622389.89975905,111928544,0.13,0.12,0.16,0.19,352.68,352.68,0.0,0.0
1630622389.99971890,112028504,0.12,0.12,0.13,0.16,352.68,352.68,0.0,0.0
1630622390.09967899,112128464,0.12,0.11,0.11,0.12,352.68,352.68,0.0,0.0
1630622390.19963908,112228424,0.14,0.12,0.12,0.1,352.68,352.68,0.0,0.0
1630622390.29959893,112328384,0.16,0.14,0.15,0.11,352.68,352.68,0.0,0.0
1630622390.39955902,112428344,0.18,0.16,0.16,0.13,352.68,352.69,0.0,0.0
1630622390.49951911,112528304,0.18,0.17,0.15,0.15,352.68,352.69,0.0,0.0
1630622390.59947896,112628264,0.17,0.17,0.14,0.14,352.68,352.69,0.0,0.0
1630622390.69943905,112728224,0.14,0.16,0.14,0.13,352.68,352.69,0.0,0.0
1630622390.79939890,112828184,0.13,0.13,0.15,0.13,352.68,352.69,0.0,0.0
1630622390.90019202,112928977,0.13,0.11,0.15,0.13,352.68,352.68,0.0,0.0
1630622391.00015211,113028937,0.14,0.11,0.16,0.14,352.68,352.68,0.0,0.0
1630622391.10011196,113128897,0.15,0.12,0.15,0.14,352.68,352.68,0.0,0.0
1630622391.20007205,113228857,0.15,0.14,0.15,0.15,352.68,352.68,0.0,0.0
1630622391.30003190,113328817,0.08,0.11,0.25,0.19,352.68,352.68,0.0,0.0
1630622391.39999199,113428777,-0.14,-0.03,0.56,0.39,352.68,352.68,0.0,0.0
1630622391.49995208,113528737,-0.5,-0.33,1.08,0.83,352.68,352.67,0.0,0.0
1630622391.59991193,113628697,-0.97,-0.8,1.76,1.48,352.68,352.67,0.0,0.0
1630622391.69987202,113728657,-1.5,-1.36,2.55,2.3,352.68,352.66,0.0,0.0
1630622391.79983211,113828617,-1.99,-1.95,3.33,3.19,352.68,352.64,0.0,0.0
1630622391.89979196,113928577,-2.38,-2.46,3.98,4.0,352.68,352.63,0.0,0.0
1630622391.99975204,114028537,-2.69,-2.83,4.48,4.63,352.68,352.63,0.0,0.0
1630622392.09971189,114128497,-2.95,-3.11,4.84,5.08,352.68,352.63,0.0,0.0
1630622392.19967198,114228457,-3.17,-3.31,5.14,5.37,352.68,352.64,0.0,0.0
1630622392.29963207,114328417,-3.4,-3.49,5.47,5.62,352.68,352.66,0.0,0.0
1630622392.39959192,114428377,-3.66,-3.7,5.81,5.88,352.68,352.67,0.0,0.0
1630622392.49955201,114528337,-3.91,-3.93,6.15,6.18,352.68,352.68,0.0,0.0
1630622392.59951210,114628297,-4.13,-4.16,6.44,6.46,352.68,352.68,0.0,0.0
1630622392.69947195,114728257,-4.31,-4.35,6.65,6.7,352.68,352.69,0.0,0.0
1630622392.79943204,114828217,-4.47,-4.51,6.81,6.87,352.68,352.69,0.0,0.0
1630622392.89939213,114928177,-4.6,-4.64,6.96,7.01,352.68,352.7,0.0,0.0
1630622393.00018501,115028970,-4.71,-4.76,7.1,7.13,352.68,352.7,0.0,0.0
1630622393.10014510,115128930,-4.83,-4.84,7.26,7.25,352.29,352.7,0.0,0.0
1630622393.20010495,115228890,-5.0,-4.79,7.49,7.54,349.48,352.54,0.0,0.0
1630622393.30006504,115328850,-5.26,-4.57,7.77,8.09,344.1,351.66,0.0,0.0
1630622393.40002489,115428810,-5.74,-4.46,7.95,8.72,338.1,349.35,0.0,0.0
1630622393.49998498,115528770,-6.55,-4.83,7.88,9.15,332.1,345.32,0.0,0.0
1630622393.59994507,115628730,-7.72,-5.8,7.42,9.11,326.1,339.72,0.0,0.01
1630622393.69990492,115728690,-9.06,-7.25,6.55,8.46,320.1,332.87,0.0,0.02
1630622393.79986501,115828650,-10.4,-8.94,5.25,7.16,314.1,325.12,0.0,0.03
1630622393.89982510,115928610,-11.54,-10.55,3.6,5.29,308.1,316.83,0.0,0.05
1630622393.99978495,116028570,-12.41,-11.88,1.75,2.99,302.1,308.27,0.0,0.06
1630622394.09974504,116128530,-12.98,-12.78,-0.19,0.47,296.1,299.68,0.0,0.08
1630622394.19970512,116228490,-13.17,-13.16,-2.12,-2.05,290.1,291.29,0.0,0.08
1630622394.29966497,116328450,-13.09,-13.07,-3.92,-4.38,284.1,283.26,0.0,0.09
1630622394.39962506,116428410,-12.81,-12.62,-5.59,-6.41,278.1,275.73,0.0,0.09
1630622394.49958491,116528370,-12.37,-11.97,-7.15,-8.11,272.1,268.77,0.0,0.09
1630622394.59954500,116628330,-11.76,-11.21,-8.56,-9.52,266.1,262.38,0.0,0.09
1630622394.69950509,116728290,-11.04,-10.39,-9.79,-10.63,260.1,256.52,0.0,0.08
1630622394.79946494,116828250,-10.24,-9.6,-10.87,-11.51,254.1,251.09,0.0,0.08
1630622394.89942503,116928210,-9.35,-8.83,-11.84,-12.23,248.1,245.95,0.0,0.07
1630622394.99938512,117028170,-8.38,-8.06,-12.74,-12.89,242.1,240.97,0.0,0.06
1630622395.10017800,117128963,-7.29,-7.24,-13.52,-13.5,236.1,236.0,0.0,0.06
1630622395.20013809,117228923,-6.1,-6.31,-14.23,-14.09,230.1,230.94,0.0,0.05
1630622395.30009794,117328883,-4.77,-5.23,-14.87,-14.67,224.1,225.68,0.0,0.05
1630622395.40005803,117428843,-3.3,-3.93,-15.4,-15.22,218.1,220.19,0.0,0.05
1630622395.50001812,117528803,-1.73,-2.33,-15.72,-15.65,213.34,214.45,0.0,0.05
1630622395.59997797,117628763,-0.1,-0.12,-15.89,-15.91,210.83,208.79,0.0,0.05
1630622395.69993806,117728723,1.4,2.39,-15.91,-15.9,209.53,203.83,0.0,0.05
1630622395.79989791,117828683,2.53,4.66,-15.85,-15.68,208.86,200.09,0.0,0.05
1630622395.89985800,117928643,3.1,6.19,-15.82,-15.39,208.49,197.83,0.0,0.05
1630622395.99981809,118028603,3.1,6.75,-15.85,-15.2,208.25,197.01,0.0,0.04
1630622396.09977794,118128563,2.62,6.33,-15.97,-15.17,208.06,197.42,0.0,0.04
1630622396.19973803,118228523,1.85,5.13,-16.14,-15.33,207.89,198.77,0.0,0.04
1630622396.29969811,118328483,0.98,3.46,-16.34,-15.63,207.71,200.77,0.0,0.04
1630622396.39965796,118428443,0.17,1.64,-16.52,-15.98,207.53,203.11,0.0,0.05
1630622396.49961805,118528403,-0.51,-0.04,-16.65,-16.3,207.34,205.5,0.0,0.05
1630622396.59957790,118628363,-1.01,-1.42,-16.73,-16.53,207.17,207.63,0.0,0.06
1630622396.69953799,118728323,-1.31,-2.36,-16.73,-16.65,207.02,209.29,0.0,0.06
1630622396.79949808,118828283,-1.42,-2.86,-16.7,-16.66,206.89,210.36,0.0,0.06
1630622396.89945793,118928243,-1.35,-2.93,-16.68,-16.63,206.78,210.81,0.0,0.05
1630622396.99941802,119028203,-1.17,-2.66,-16.69,-16.61,206.7,210.68,0.0,0.05
1630622397.09937811,119128163,-0.94,-2.16,-16.73,-16.63,206.64,210.09,0.0,0.04
1630622397.20017099,119228956,-0.65,-1.54,-16.79,-16.69,206.6,209.19,0.0,0.03
1630622397.30013108,119328916,-0.33,-0.85,-16.8,-16.74,206.58,208.12,0.0,0.02
1630622397.40009093,119428876,0.0,-0.15,-16.81,-16.77,206.57,207.04,0.0,0.02
1630622397.50005102,119528836,0.26,0.46,-16.87,-16.82,206.56,206.07,0.0,0.01
1630622397.60001111,119628796,0.43,0.92,-16.92,-16.88,206.56,205.31,0.0,0.01
1630622397.69997096,119728756,0.5,1.18,-16.95,-16.93,206.57,204.81,0.0,0.01
1630622397.79993105,119828716,0.49,1.26,-16.93,-16.94,206.56,204.57,0.0,0.01
1630622397.89989090,119928676,0.44,1.18,-16.93,-16.93,206.56,204.59,0.0,0.01
1630622397.99985099,120028636,0.35,0.99,-16.96,-16.94,206.56,204.81,0.0,0.01
1630622398.09981108,120128596,0.22,0.72,-17.01,-16.97,206.55,205.17,0.0,0.01
1630622398.19977093,120228556,0.07,0.41,-17.08,-17.04,206.55,205.6,0.0,0.01
1630622398.29973102,120328516,-0.04,0.1,-17.13,-17.11,206.54,206.05,0.0,0.02
1630622398.39969110,120428476,-0.11,-0.13,-17.15,-17.15,206.54,206.46,0.0,0.02
1630622398.49965096,120528436,-0.13,-0.28,-17.15,-17.18,206.54,206.79,0.0,0.02
1630622398.59961104,120628396,-0.12,-0.34,-17.16,-17.18,206.55,207.02,0.0,0.02
1630622398.69957089,120728356,-0.12,-0.35,-17.2,-17.21,206.56,207.14,0.0,0.02
1630622398.79953098,120828316,-0.11,-0.32,-17.23,-17.23,206.57,207.16,0.0,0.01
1630622398.89949107,120928276,-0.07,-0.25,-17.25,-17.25,206.59,207.1,0.0,0.01
1630622398.99945092,121028236,0.0,-0.14,-17.27,-17.27,206.62,206.98,0.0,0.01
1630622399.09941101,121128196,0.04,-0.01,-17.3,-17.3,206.64,206.82,0.0,0.01
1630622399.19937110,121228156,0.07,0.09,-17.3,-17.32,206.67,206.66,0.0,0.01
1630622399.30016398,121328949,0.1,0.17,-17.31,-17.33,206.7,206.52,0.0,0.01
1630622399.40012407,121428909,0.12,0.24,-17.33,-17.34,206.73,206.42,0.0,0.01
1630622399.50008392,121528869,0.16,0.3,-17.35,-17.35,206.76,206.35,0.0,0.01
1630622399.60004401,121628829,0.19,0.35,-17.38,-17.36,206.79,206.33,0.0,0.01
1630622399.70000410,121728789,0.21,0.37,-17.42,-17.39,206.82,206.36,0.0,0.01
1630622399.79996395,121828749,0.21,0.36,-17.45,-17.43,206.85,206.42,0.0,0.01
1630622399.89992404,121928709,0.17,0.32,-17.49,-17.47,206.88,206.51,0.0,0.01
1630622399.99988413,122028669,0.14,0.26,-17.53,-17.53,206.91,206.62,0.0,0.01
1630622400.09984398,122128629,0.1,0.2,-17.56,-17.57,206.94,206.74,0.0,0.01
1630622400.19980407,122228589,0.05,0.12,-17.58,-17.6,206.97,206.84,0.0,0.01
1630622400.29976392,122328549,0.04,0.06,-17.59,-17.62,206.99,206.94,0.0,0.01
1630622400.39972401,122428509,0.06,0.04,-17.57,-17.61,207.02,207.01,0.0,0.01
1630622400.49968410,122528469,0.09,0.05,-17.55,-17.58,207.05,207.06,0.0,0.01
1630622400.59964395,122628429,0.12,0.08,-17.56,-17.57,207.08,207.1,0.0,0.01
1630622400.69960403,122728389,0.12,0.11,-17.61,-17.59,207.11,207.12,0.0,0.01
1630622400.79956412,122828349,0.12,0.13,-17.65,-17.64,207.15,207.13,0.0,0.01
1630622400.89952397,122928309,0.1,0.13,-17.69,-17.69,207.18,207.13,0.0,0.01
1630622400.99948406,123028269,0.06,0.1,-17.71,-17.72,207.21,207.12,0.0,0.0
1630622401.09944391,123128229,0.09,0.1,-17.72,-17.74,207.23,207.13,0.0,0.0
1630622401.19940400,123228189,0.13,0.14,-17.72,-17.75,207.26,207.13,0.0,0.0
1630622401.30019712,123328982,0.15,0.18,-17.74,-17.76,207.29,207.14,0.0,0.0
1630622401.40015697,123428942,0.17,0.22,-17.75,-17.77,207.32,207.16,0.0,0.0
1630622401.50011706,123528902,0.19,0.24,-17.76,-17.77,207.35,207.19,0.0,0.0
1630622401.60007691,123628862,0.23,0.28,-17.78,-17.79,207.38,207.23,0.0,0.0
1630622401.70003700,123728822,0.23,0.3,-17.8,-17.81,207.41,207.26,0.0,0.0
1630622401.79999709,123828782,0.19,0.27,-17.8,-17.82,207.44,207.31,0.0,0.0
1630622401.89995694,123928742,0.15,0.21,-17.8,-17.82,207.47,207.35,0.0,0.0
1630622401.99991703,124028702,0.12,0.16,-17.81,-17.82,207.5,207.4,0.0,0.0
1630622402.09987712,124128662,0.12,0.13,-17.8,-17.82,207.52,207.44,0.0,0.0
1630622402.19983697,124228622,0.13,0.12,-17.82,-17.82,207.55,207.48,0.0,0.0
1630622402.29979706,124328582,0.14,0.14,-17.86,-17.84,207.57,207.51,0.0,0.0
1630622402.39975691,124428542,0.14,0.14,-17.88,-17.87,207.6,207.54,0.0,0.0
1630622402.49971700,124528502,0.16,0.16,-17.87,-17.88,207.62,207.56,0.0,0.0
1630622402.59967709,124628462,0.17,0.18,-17.87,-17.88,207.65,207.58,0.0,0.0
1630622402.69963694,124728422,0.2,0.2,-17.86,-17.88,207.67,207.6,0.0,0.0
1630622402.79959702,124828382,0.25,0.25,-17.87,-17.88,207.7,207.62,0.0,0.0
1630622402.89955711,124928342,0.27,0.3,-17.87,-17.88,207.73,207.64,0.0,0.0
1630622402.99951696,125028302,0.26,0.31,-17.88,-17.88,207.76,207.66,0.0,0.0
1630622403.09947705,125128262,0.24,0.3,-17.9,-17.9,207.78,207.68,0.0,0.0
1630622403.19943690,125228222,0.23,0.28,-17.92,-17.92,207.81,207.7,0.0,0.0
1630622403.29939699,125328182,0.21,0.26,-17.93,-17.94,207.83,207.73,0.0,0.0
1630622403.40019011,125428975,0.19,0.23,-17.93,-17.94,207.85,207.76,0.0,0.0
1630622403.50014997,125528935,0.17,0.2,-17.92,-17.95,207.87,207.79,0.0,0.0
1630622403.60011005,125628895,0.18,0.18,-17.91,-17.94,207.89,207.82,0.0,0.0
1630622403.70006990,125728855,0.22,0.21,-17.9,-17.94,207.91,207.84,0.0,0.0
1630622403.80002999,125828815,0.23,0.24,-17.9,-17.92,207.93,207.86,0.0,0.0
1630622403.89999008,125928775,0.24,0.26,-17.92,-17.92,207.95,207.88,0.0,0.0
1630622403.99994993,126028735,0.24,0.27,-17.95,-17.95,207.96,207.9,0.0,0.0
1630622404.09991002,126128695,0.24,0.27,-17.97,-17.97,207.98,207.92,0.0,0.0
1630622404.19987011,126228655,0.24,0.27,-17.98,-17.99,208.0,207.93,0.0,0.0
1630622404.29982996,126328615,0.23,0.26,-17.99,-18.0,208.01,207.95,0.0,0.0
1630622404.39979005,126428575,0.22,0.25,-18.0,-18.02,208.03,207.96,0.0,0.0
1630622404.49974990,126528535,0.19,0.23,-18.02,-18.03,208.04,207.97,0.0,0.0
1630622404.59970999,126628495,0.15,0.19,-18.06,-18.05,208.05,207.98,0.0,0.0
1630622404.69967008,126728455,0.14,0.17,-18.09,-18.09,208.06,208.0,0.0,0.0
1630622404.79962993,126828415,0.17,0.17,-18.1,-18.11,208.07,208.01,0.0,0.0
1630622404.89959002,126928375,0.19,0.19,-18.1,-18.12,208.08,208.02,0.0,0.0
1630622404.99955010,127028335,0.2,0.2,-18.11,-18.13,208.1,208.02,0.0,0.0
1630622405.09950995,127128295,0.2,0.22,-18.13,-18.14,208.11,208.03,0.0,0.0
1630622405.19947004,127228255,0.17,0.21,-18.14,-18.16,208.12,208.04,0.0,0.0
1630622405.29942989,127328215,0.16,0.18,-18.14,-18.16,208.12,208.05,0.0,0.0
1630622405.39938998,127428175,0.17,0.17,-18.11,-18.14,208.13,208.06,0.0,0.0
1630622405.50018311,127528968,0.18,0.18,-18.07,-18.1,208.14,208.08,0.0,0.0
1630622405.60014296,127628928,0.16,0.18,-18.05,-18.06,208.15,208.09,0.0,0.0
1630622405.70010304,127728888,0.16,0.18,-18.06,-18.05,208.16,208.09,0.0,0.0
1630622405.80006289,127828848,0.15,0.17,-18.1,-18.07,208.16,208.1,0.0,0.0
1630622405.90002298,127928808,0.16,0.17,-18.13,-18.11,208.17,208.11,0.0,0.0
1630622405.99998307,128028768,0.17,0.18,-18.13,-18.13,208.18,208.11,0.0,0.0
1630622406.09994292,128128728,0.18,0.19,-18.13,-18.14,208.18,208.12,0.0,0.0
1630622406.19990301,128228688,0.18,0.2,-18.15,-18.16,208.19,208.13,0.0,0.0
1630622406.29986310,128328648,0.17,0.2,-18.14,-18.16,208.2,208.13,0.0,0.0
1630622406.39982295,128428608,0.18,0.19,-18.15,-18.16,208.21,208.14,0.0,0.0
1630622406.49978304,128528568,0.2,0.2,-18.14,-18.17,208.21,208.15,0.0,0.0
1630622406.59974313,128628528,0.22,0.21,-18.12,-18.16,208.22,208.15,0.0,0.0
1630622406.69970298,128728488,0.24,0.23,-18.09,-18.14,208.23,208.16,0.0,0.0
1630622406.79966307,128828448,0.29,0.27,-18.06,-18.1,208.24,208.17,0.0,0.0
1630622406.89962292,128928408,0.3,0.31,-18.06,-18.07,208.25,208.18,0.0,0.0
1630622406.99958301,129028368,0.28,0.32,-18.06,-18.06,208.26,208.19,0.0,0.0
1630622407.09954309,129128328,0.25,0.3,-18.07,-18.06,208.27,208.2,0.0,0.0
1630622407.19950294,129228288,0.24,0.28,-18.09,-18.08,208.28,208.21,0.0,0.0
1630622407.29946303,129328248,0.23,0.26,-18.07,-18.08,208.28,208.22,0.0,0.0
1630622407.39942312,129428208,0.22,0.23,-18.07,-18.07,208.29,208.24,0.0,0.0
1630622407.49938297,129528168,0.21,0.21,-18.1,-18.08,208.29,208.25,0.0,0.0
1630622407.60017610,129628961,0.23,0.22,-18.13,-18.11,208.3,208.26,0.0,0.0
1630622407.70013595,129728921,0.25,0.24,-18.15,-18.15,208.31,208.26,0.0,0.0
1630622407.80009604,129828881,0.24,0.24,-18.16,-18.18,208.31,208.27,0.0,0.0
1630622407.90005612,129928841,0.21,0.23,-18.17,-18.19,208.32,208.27,0.0,0.0
1630622408.00001597,130028801,0.18,0.21,-18.16,-18.19,208.32,208.27,0.0,0.0
1630622408.09997606,130128761,0.2,0.2,-18.16,-18.18,208.32,208.28,0.0,0.0
1630622408.19993591,130228721,0.23,0.22,-18.15,-18.17,208.33,208.28,0.0,0.0
1630622408.29989600,130328681,0.23,0.24,-18.16,-18.17,208.33,208.28,0.0,0.0
1630622408.39985609,130428641,0.23,0.25,-18.16,-18.17,208.34,208.29,0.0,0.0
1630622408.49981594,130528601,0.23,0.26,-18.17,-18.18,208.34,208.29,0.0,0.0
1630622408.59977603,130628561,0.21,0.25,-18.19,-18.19,208.34,208.29,0.0,0.0
1630622408.69973612,130728521,0.19,0.23,-18.19,-18.2,208.34,208.3,0.0,0.0
1630622408.79969597,130828481,0.18,0.2,-18.2,-18.22,208.35,208.3,0.0,0.0
1630622408.89965606,130928441,0.18,0.19,-18.2,-18.22,208.35,208.31,0.0,0.0
1630622408.99961591,131028401,0.2,0.19,-18.19,-18.22,208.35,208.31,0.0,0.0
1630622409.09957600,131128361,0.21,0.21,-18.17,-18.2,208.35,208.31,0.0,0.0
1630622409.19953609,131228321,0.21,0.22,-18.17,-18.18,208.36,208.32,0.0,0.0
1630622409.29949594,131328281,0.2,0.22,-18.17,-18.18,208.36,208.32,0.0,0.0
1630622409.39945602,131428241,0.16,0.19,-18.18,-18.18,208.36,208.32,0.0,0.0
1630622409.49941611,131528201,0.17,0.18,-18.18,-18.18,208.36,208.32,0.0,0.0
1630622409.59937596,131628161,0.2,0.19,-18.16,-18.17,208.37,208.33,0.0,0.0
1630622409.70016909,131728954,0.22,0.21,-18.15,-18.16,208.37,208.33,0.0,0.0
1630622409.80012894,131828914,0.24,0.22,-18.14,-18.15,208.37,208.33,0.0,0.0
1630622409.90008903,131928874,0.25,0.24,-18.14,-18.14,208.37,208.33,0.0,0.0
1630622410.00004911,132028834,0.25,0.25,-18.15,-18.15,208.38,208.34,0.0,0.0
1630622410.10000896,132128794,0.25,0.26,-18.15,-18.16,208.38,208.34,0.0,0.0
1630622410.19996905,132228754,0.24,0.26,-18.13,-18.16,208.38,208.35,0.0,0.0
1630622410.29992890,132328714,0.26,0.26,-18.12,-18.13,208.39,208.35,0.0,0.0
1630622410.39988899,132428674,0.26,0.26,-18.11,-18.12,208.39,208.35,0.0,0.0
1630622410.49984908,132528634,0.29,0.28,-18.1,-18.11,208.39,208.36,0.0,0.0
1630622410.59980893,132628594,0.3,0.31,-18.12,-18.12,208.4,208.36,0.0,0.0
1630622410.69976902,132728554,0.28,0.3,-18.16,-18.16,208.4,208.36,0.0,0.0
1630622410.79972911,132828514,0.27,0.3,-18.19,-18.19,208.4,208.37,0.0,0.0
1630622410.89968896,132928474,0.29,0.3,-18.21,-18.22,208.41,208.37,0.0,0.0
1630622410.99964905,133028434,0.27,0.29,-18.22,-18.23,208.41,208.37,0.0,0.0
1630622411.09960890,133128394,0.29,0.28,-18.21,-18.24,208.41,208.38,0.0,0.0
1630622411.19956899,133228354,0.31,0.3,-18.18,-18.22,208.41,208.38,0.0,0.0
1630622411.29952908,133328314,0.3,0.32,-18.18,-18.19,208.42,208.38,0.0,0.0
1630622411.39948893,133428274,0.29,0.31,-18.18,-18.18,208.42,208.39,0.0,0.0
1630622411.49944901,133528234,0.26,0.29,-18.17,-18.17,208.42,208.39,0.0,0.0
1630622411.59940910,133628194,0.25,0.26,-18.17,-18.17,208.42,208.39,0.0,0.0
1630622411.69936895,133728154,0.29,0.26,-18.17,-18.17,208.42,208.39,0.0,0.0
1630622411.80016208,133828947,0.31,0.29,-18.15,-18.16,208.42,208.39,0.0,0.0
1630622411.90012193,133928907,0.32,0.32,-18.13,-18.14,208.42,208.39,0.0,0.0
1630622412.00008202,134028867,0.31,0.32,-18.15,-18.16,208.42,208.39,0.0,0.0
1630622412.10004210,134128827,0.32,0.32,-18.18,-18.19,208.42,208.39,0.0,0.0
1630622412.20000196,134228787,0.33,0.33,-18.19,-18.22,208.42,208.39,0.0,0.0
1630622412.29996204,134328747,0.34,0.33,-18.17,-18.22,208.42,208.39,0.0,0.0
1630622412.39992189,134428707,0.34,0.34,-18.16,-18.21,208.42,208.39,0.0,0.0
1630622412.49988198,134528667,0.35,0.35,-18.18,-18.2,208.42,208.39,0.0,0.0
1630622412.59984207,134628627,0.37,0.37,-18.22,-18.23,208.42,208.39,0.0,0.0
1630622412.69980192,134728587,0.38,0.38,-18.23,-18.25,208.42,208.39,0.0,0.0
1630622412.79976201,134828547,0.38,0.39,-18.21,-18.26,208.42,208.39,0.0,0.0
1630622412.89972210,134928507,0.35,0.37,-18.19,-18.23,208.42,208.39,0.0,0.0
1630622412.99968195,135028467,0.32,0.33,-18.19,-18.21,208.42,208.39,0.0,0.0
1630622413.09964204,135128427,0.31,0.3,-18.2,-18.2,208.42,208.39,0.0,0.0
1630622413.19960213,135228387,0.32,0.29,-18.2,-18.2,208.42,208.39,0.0,0.0
1630622413.29956198,135328347,0.32,0.31,-18.19,-18.18,208.41,208.39,0.0,0.0
1630622413.39952207,135428307,0.3,0.31,-18.21,-18.19,208.41,208.39,0.0,0.0
1630622413.49948192,135528267,0.28,0.3,-18.24,-18.21,208.41,208.39,0.0,0.0
1630622413.59944201,135628227,0.27,0.28,-18.26,-18.24,208.41,208.39,0.0,0.0
1630622413.69940209,135728187,0.28,0.27,-18.27,-18.28,208.41,208.38,0.0,0.0
1630622413.80019498,135828980,0.29,0.27,-18.28,-18.31,208.4,208.38,0.0,0.0
1630622413.90015507,135928940,0.31,0.28,-18.27,-18.32,208.4,208.38,0.0,0.0
1630622414.00011492,136028900,0.33,0.31,-18.25,-18.29,208.4,208.37,0.0,0.0
1630622414.10007501,136128860,0.34,0.34,-18.24,-18.27,208.4,208.37,0.0,0.0
1630622414.20003510,136228820,0.32,0.34,-18.23,-18.25,208.4,208.37,0.0,0.0
1630622414.29999495,136328780,0.3,0.32,-18.23,-18.24,208.4,208.37,0.0,0.0
1630622414.39995503,136428740,0.27,0.29,-18.22,-18.23,208.39,208.37,0.0,0.0
1630622414.49991512,136528700,0.27,0.27,-18.23,-18.23,208.39,208.37,0.0,0.0
1630622414.59987497,136628660,0.3,0.27,-18.26,-18.25,208.39,208.37,0.0,0.0
1630622414.69983506,136728620,0.32,0.3,-18.28,-18.28,208.39,208.37,0.0,0.0
1630622414.79979491,136828580,0.33,0.31,-18.29,-18.31,208.39,208.37,0.0,0.0
1630622414.89975500,136928540,0.33,0.33,-18.28,-18.31,208.39,208.37,0.0,0.0
1630622414.99971509,137028500,0.34,0.34,-18.28,-18.3,208.39,208.36,0.0,0.0
1630622415.09967494,137128460,0.32,0.33,-18.27,-18.29,208.39,208.36,0.0,0.0
1630622415.19963503,137228420,0.33,0.32,-18.28,-18.28,208.39,208.36,0.0,0.0
1630622415.29959512,137328380,0.36,0.34,-18.26,-18.27,208.39,208.36,0.0,0.0
1630622415.39955497,137428340,0.36,0.36,-18.2,-18.24,208.39,208.36,0.0,0.0
1630622415.49951506,137528300,0.35,0.36,-18.18,-18.19,208.39,208.37,0.0,0.0
1630622415.59947491,137628260,0.35,0.36,-18.18,-18.18,208.39,208.37,0.0,0.0
1630622415.69943500,137728220,0.35,0.36,-18.2,-18.19,208.39,208.37,0.0,0.0
1630622415.79939508,137828180,0.34,0.34,-18.21,-18.21,208.39,208.37,0.0,0.0
1630622415.90018797,137928973,0.34,0.33,-18.23,-18.23,208.39,208.37,0.0,0.0
1630622416.00014806,138028933,0.33,0.32,-18.22,-18.24,208.39,208.37,0.0,0.0
1630622416.10010791,138128893,0.32,0.32,-18.2,-18.21,208.39,208.37,0.0,0.0
1630622416.20006800,138228853,0.31,0.31,-18.2,-18.2,208.39,208.37,0.0,0.0
1630622416.30002809,138328813,0.31,0.3,-18.23,-18.21,208.39,208.37,0.0,0.0
1630622416.39998794,138428773,0.33,0.3,-18.25,-18.24,208.39,208.37,0.0,0.0
1630622416.49994802,138528733,0.36,0.34,-18.25,-18.26,208.39,208.37,0.0,0.0
1630622416.59990811,138628693,0.38,0.37,-18.24,-18.26,208.39,208.37,0.0,0.0
1630622416.69986796,138728653,0.4,0.4,-18.22,-18.26,208.39,208.37,0.0,0.0
1630622416.79982805,138828613,0.4,0.41,-18.19,-18.23,208.4,208.37,0.0,0.0
1630622416.89978790,138928573,0.39,0.41,-18.17,-18.2,208.4,208.37,0.0,0.0
1630622416.99974799,139028533,0.38,0.4,-18.17,-18.18,208.4,208.38,0.0,0.0
1630622417.09970808,139128493,0.39,0.4,-18.19,-18.2,208.4,208.38,0.0,0.0
1630622417.19966793,139228453,0.41,0.41,-18.21,-18.22,208.41,208.39,0.0,0.0
1630622417.29962802,139328413,0.4,0.4,-18.23,-18.24,208.41,208.39,0.0,0.0
1630622417.39958811,139428373,0.37,0.38,-18.25,-18.27,208.41,208.4,0.0,0.0
1630622417.49954796,139528333,0.35,0.36,-18.25,-18.28,208.41,208.4,0.0,0.0
1630622417.59950805,139628293,0.35,0.33,-18.22,-18.26,208.41,208.4,0.0,0.0
1630622417.69946790,139728253,0.38,0.34,-18.19,-18.24,208.41,208.4,0.0,0.0
1630622417.79942799,139828213,0.43,0.38,-18.17,-18.21,208.41,208.4,0.0,0.0
1630622417.89938807,139928173,0.44,0.41,-18.17,-18.19,208.41,208.4,0.0,0.0
1630622418.00018096,140028966,0.43,0.43,-18.16,-18.17,208.42,208.4,0.0,0.0
1630622418.10014105,140128926,0.39,0.41,-18.15,-18.16,208.42,208.4,0.0,0.0
1630622418.20010090,140228886,0.34,0.36,-18.15,-18.15,208.42,208.4,0.0,0.0
1630622418.30006099,140328846,0.34,0.33,-18.17,-18.17,208.41,208.41,0.0,0.0
1630622418.40002108,140428806,0.35,0.33,-18.2,-18.2,208.41,208.41,0.0,0.0
1630622418.49998093,140528766,0.36,0.35,-18.2,-18.22,208.41,208.41,0.0,0.0
1630622418.59994102,140628726,0.38,0.36,-18.2,-18.22,208.41,208.41,0.0,0.0
1630622418.69990110,140728686,0.39,0.38,-18.21,-18.22,208.41,208.41,0.0,0.0
1630622418.79986095,140828646,0.39,0.39,-18.22,-18.22,208.41,208.41,0.0,0.0
1630622418.89982104,140928606,0.39,0.4,-18.21,-18.22,208.41,208.4,0.0,0.0
1630622418.99978089,141028566,0.4,0.41,-18.21,-18.22,208.41,208.4,0.0,0.0
1630622419.09974098,141128526,0.39,0.41,-18.2,-18.21,208.41,208.39,0.0,0.0
1630622419.19970107,141228486,0.37,0.39,-18.18,-18.2,208.41,208.39,0.0,0.0
1630622419.29966092,141328446,0.38,0.38,-18.16,-18.18,208.4,208.39,0.0,0.0
1630622419.39962101,141428406,0.38,0.38,-18.15,-18.17,208.4,208.38,0.0,0.0
1630622419.49958110,141528366,0.38,0.39,-18.18,-18.17,208.4,208.38,0.0,0.0
1630622419.59954095,141628326,0.36,0.38,-18.21,-18.2,208.4,208.38,0.0,0.0
1630622419.69950104,141728286,0.35,0.36,-18.22,-18.23,208.4,208.38,0.0,0.0
1630622419.79946113,141828246,0.35,0.35,-18.22,-18.23,208.4,208.39,0.0,0.0
1630622419.89942098,141928206,0.37,0.36,-18.21,-18.23,208.4,208.39,0.0,0.0
1630622419.99938107,142028166,0.39,0.38,-18.21,-18.23,208.4,208.39,0.0,0.0
1630622420.10017395,142128959,0.41,0.4,-18.21,-18.22,208.4,208.39,0.0,0.0
1630622420.20013404,142228919,0.43,0.42,-18.22,-18.23,208.4,208.39,0.0,0.0
1630622420.30009413,142328879,0.44,0.43,-18.21,-18.24,208.4,208.39,0.0,0.0
1630622420.40005398,142428839,0.44,0.44,-18.22,-18.24,208.41,208.39,0.0,0.0
1630622420.50001407,142528799,0.45,0.45,-18.21,-18.23,208.41,208.39,0.0,0.0
1630622420.59997392,142628759,0.45,0.46,-18.18,-18.22,208.41,208.39,0.0,0.0
1630622420.69993401,142728719,0.44,0.45,-18.16,-18.19,208.41,208.4,0.0,0.0
1630622420.79989409,142828679,0.43,0.43,-18.15,-18.17,208.42,208.4,0.0,0.0
1630622420.89985394,142928639,0.46,0.44,-18.15,-18.16,208.42,208.4,0.0,0.0
1630622420.99981403,143028599,0.48,0.46,-18.16,-18.16,208.42,208.4,0.0,0.0
1630622421.09977412,143128559,0.46,0.47,-18.17,-18.17,208.42,208.4,0.0,0.0
1630622421.19973397,143228519,0.43,0.45,-18.18,-18.18,208.42,208.41,0.0,0.0
1630622421.29969406,143328479,0.41,0.43,-18.17,-18.18,208.42,208.41,0.0,0.0
1630622421.39965391,143428439,0.41,0.42,-18.19,-18.2,208.42,208.41,0.0,0.0
1630622421.49961400,143528399,0.42,0.42,-18.18,-18.2,208.42,208.41,0.0,0.0
1630622421.59957409,143628359,0.43,0.42,-18.17,-18.19,208.43,208.41,0.0,0.0
1630622421.69953394,143728319,0.46,0.43,-18.16,-18.17,208.43,208.42,0.0,0.0
1630622421.79949403,143828279,0.44,0.44,-18.15,-18.16,208.43,208.42,0.0,0.0
1630622421.89945412,143928239,0.41,0.42,-18.16,-18.16,208.43,208.42,0.0,0.0
1630622421.99941397,144028199,0.39,0.39,-18.17,-18.17,208.43,208.42,0.0,0.0
1630622422.09937406,144128159,0.37,0.36,-18.16,-18.17,208.43,208.43,0.0,0.0
1630622422.20016694,144228952,0.38,0.36,-18.16,-18.17,208.43,208.43,0.0,0.0
1630622422.30012703,144328912,0.39,0.37,-18.17,-18.18,208.43,208.43,0.0,0.0
1630622422.40008712,144428872,0.42,0.39,-18.17,-18.19,208.43,208.42,0.0,0.0
1630622422.50004697,144528832,0.45,0.43,-18.15,-18.18,208.43,208.42,0.0,0.0
1630622422.60000706,144628792,0.44,0.45,-18.11,-18.15,208.44,208.42,0.0,0.0
1630622422.69996691,144728752,0.45,0.45,-18.1,-18.12,208.44,208.42,0.0,0.0
1630622422.79992700,144828712,0.46,0.46,-18.12,-18.12,208.44,208.42,0.0,0.0
1630622422.89988708,144928672,0.47,0.47,-18.15,-18.14,208.44,208.42,0.0,0.0
1630622422.99984694,145028632,0.47,0.47,-18.14,-18.15,208.45,208.43,0.0,0.0
1630622423.09980702,145128592,0.46,0.46,-18.15,-18.16,208.45,208.43,0.0,0.0
1630622423.19976711,145228552,0.45,0.45,-18.17,-18.18,208.45,208.44,0.0,0.0
1630622423.29972696,145328512,0.45,0.45,-18.19,-18.2,208.45,208.44,0.0,0.0
1630622423.39968705,145428472,0.44,0.44,-18.23,-18.24,208.46,208.45,0.0,0.0
1630622423.49964690,145528432,0.42,0.42,-18.24,-18.26,208.46,208.45,0.0,0.0
1630622423.59960699,145628392,0.42,0.41,-18.22,-18.25,208.46,208.45,0.0,0.0
1630622423.69956708,145728352,0.43,0.41,-18.18,-18.22,208.46,208.45,0.0,0.0
