timestamp,TimeUS,DesRoll,Roll,DesPitch,Pitch,DesYaw,Yaw,ErrRP,ErrYaw
1630618866.20000005,41228502,0.0,0.09,0.0,0.08,352.89,352.9,0.0,0.0
1630618866.29995990,41328462,0.0,0.1,0.0,0.08,352.89,352.9,0.0,0.0
1630618866.39991999,41428422,0.0,0.1,0.0,0.08,352.89,352.9,0.0,0.0
1630618866.49988008,41528382,0.0,0.1,0.0,0.08,352.89,352.9,0.0,0.0
1630618866.59983993,41628342,0.0,0.1,0.0,0.08,352.89,352.9,0.0,0.0
1630618866.69980001,41728302,0.0,0.1,0.0,0.08,352.88,352.89,0.0,0.0
1630618866.79976010,41828262,0.0,0.1,0.0,0.08,352.88,352.89,0.0,0.0
1630618866.89971995,41928222,0.0,0.1,0.0,0.08,352.88,352.89,0.0,0.0
1630618866.99968004,42028182,0.0,0.1,0.0,0.08,352.88,352.89,0.0,0.0
1630618867.10047293,42128975,0.0,0.1,0.0,0.08,352.88,352.89,0.0,0.0
1630618867.20043302,42228935,0.0,0.1,0.0,0.08,352.88,352.89,0.0,0.0
1630618867.30039310,42328895,0.0,0.1,0.0,0.09,352.88,352.89,0.0,0.0
1630618867.40035295,42428855,0.0,0.1,0.0,0.09,352.88,352.89,0.0,0.0
1630618867.50031304,42528815,0.0,0.1,0.0,0.09,352.88,352.89,0.0,0.0
1630618867.60027289,42628775,0.0,0.1,0.0,0.08,352.88,352.89,0.0,0.0
1630618867.70023298,42728735,0.0,0.1,0.0,0.09,352.88,352.89,0.0,0.0
1630618867.80019307,42828695,0.0,0.1,0.0,0.08,352.88,352.89,0.0,0.0
1630618867.90015292,42928655,0.0,0.1,0.0,0.08,352.88,352.89,0.0,0.0
1630618868.00011301,43028615,0.0,0.1,0.0,0.08,352.87,352.88,0.0,0.0
1630618868.10007310,43128575,0.0,0.1,0.0,0.08,352.87,352.88,0.0,0.0
1630618868.20003295,43228535,0.0,0.1,0.0,0.08,352.87,352.88,0.0,0.0
1630618868.29999304,43328495,0.0,0.1,0.0,0.08,352.87,352.88,0.0,0.0
1630618868.39995313,43428455,0.0,0.1,0.0,0.08,352.87,352.88,0.0,0.0
1630618868.49991298,43528415,0.0,0.1,0.0,0.08,352.87,352.88,0.0,0.0
1630618868.59987307,43628375,0.0,0.1,0.0,0.08,352.87,352.88,0.0,0.0
1630618868.69983292,43728335,0.0,0.1,0.0,0.08,352.87,352.88,0.0,0.0
1630618868.79979300,43828295,0.0,0.1,0.0,0.08,352.87,352.88,0.0,0.0
1630618868.89975309,43928255,0.0,0.1,0.0,0.08,352.87,352.88,0.0,0.0
1630618868.99971294,44028215,0.0,0.1,0.0,0.08,352.87,352.88,0.0,0.0
1630618869.09967303,44128175,0.0,0.1,0.0,0.08,352.87,352.88,0.0,0.0
1630618869.20046592,44228968,0.0,0.09,0.0,0.08,352.87,352.88,0.0,0.0
1630618869.30042601,44328928,0.0,0.09,0.0,0.08,352.87,352.88,0.0,0.0
1630618869.40038610,44428888,0.0,0.09,0.0,0.07,352.87,352.88,0.0,0.0
1630618869.50034595,44528848,0.0,0.09,0.0,0.07,352.87,352.88,0.0,0.0
1630618869.60030603,44628808,0.0,0.09,0.0,0.07,352.87,352.88,0.0,0.0
1630618869.70026612,44728768,0.0,0.09,0.0,0.07,352.87,352.88,0.0,0.0
1630618869.80022597,44828728,0.0,0.09,0.0,0.07,352.87,352.88,0.0,0.0
1630618869.90018606,44928688,-0.09,0.09,-0.09,0.07,352.87,352.88,0.0,0.0
1630618870.00014591,45028648,-0.07,0.09,-0.07,0.07,352.87,352.88,0.0,0.0
1630618870.10010600,45128608,-0.11,0.09,-0.11,0.07,352.87,352.88,0.0,0.0
1630618870.20006609,45228568,-0.17,0.09,-0.17,0.07,352.87,352.88,0.0,0.0
1630618870.30002594,45328528,-0.21,0.09,-0.2,0.07,352.87,352.88,0.0,0.0
1630618870.39998603,45428488,-0.24,0.09,-0.23,0.07,352.87,352.88,0.0,0.0
1630618870.49994612,45528448,-0.26,0.09,-0.24,0.07,352.87,352.88,0.0,0.0
1630618870.59990597,45628408,-0.28,0.08,-0.26,0.07,352.87,352.88,0.0,0.0
1630618870.69986606,45728368,-0.3,0.08,-0.29,0.07,352.87,352.88,0.0,0.0
1630618870.79982591,45828328,-0.31,0.08,-0.3,0.07,352.87,352.88,0.0,0.0
1630618870.89978600,45928288,-0.34,0.08,-0.31,0.07,352.87,352.88,0.0,0.0
1630618870.99974608,46028248,-0.38,0.08,-0.32,0.07,352.87,352.88,0.0,0.0
1630618871.09970593,46128208,-0.38,0.08,-0.3,0.07,352.87,352.88,0.0,0.0
1630618871.19966602,46228168,-0.4,0.08,-0.31,0.07,352.87,352.88,0.0,0.0
1630618871.30045891,46328961,-0.43,0.08,-0.35,0.07,352.87,352.88,0.0,0.0
1630618871.40041900,46428921,-0.44,0.08,-0.38,0.06,352.87,352.88,0.0,0.0
1630618871.50037909,46528881,-0.43,-0.11,-0.39,-0.11,352.87,352.88,0.0,0.0
1630618871.60033894,46628841,-0.38,-0.39,-0.39,-0.37,352.87,352.88,0.0,0.0
1630618871.70029902,46728801,-0.29,-0.57,-0.35,-0.58,352.87,352.88,0.0,0.0
1630618871.80025911,46828761,-0.18,-0.62,-0.25,-0.64,352.87,352.88,0.0,0.0
1630618871.90021896,46928721,-0.03,-0.54,-0.09,-0.57,352.87,352.88,0.0,0.0
1630618872.00017905,47028681,0.17,-0.35,0.11,-0.38,352.87,352.88,0.0,0.0
1630618872.10013890,47128641,0.33,-0.12,0.27,-0.13,352.87,352.88,0.0,0.0
1630618872.20009899,47228601,0.44,0.08,0.38,0.06,352.87,352.88,0.0,0.0
1630618872.30005908,47328561,0.49,0.22,0.44,0.21,352.87,352.88,0.0,0.0
1630618872.40001893,47428521,0.52,0.3,0.41,0.26,352.87,352.88,0.0,0.0
1630618872.49997902,47528481,0.53,0.34,0.34,0.22,352.87,352.88,0.0,0.0
1630618872.59993911,47628441,0.48,0.32,0.31,0.16,352.87,352.88,0.0,0.0
1630618872.69989896,47728401,0.43,0.27,0.3,0.12,352.87,352.88,0.0,0.0
1630618872.79985905,47828361,0.38,0.21,0.32,0.12,352.87,352.88,0.0,0.0
1630618872.89981890,47928321,0.4,0.19,0.31,0.13,352.87,352.88,0.0,0.0
1630618872.99977899,48028281,0.43,0.22,0.29,0.14,352.87,352.88,0.0,0.0
1630618873.09973907,48128241,0.44,0.25,0.29,0.15,352.87,352.88,0.0,0.0
1630618873.19969893,48228201,0.43,0.28,0.28,0.16,352.8,352.8,0.0,0.0
1630618873.29965901,48328161,0.38,0.27,0.27,0.16,352.8,352.8,0.0,0.0
1630618873.40045190,48428954,0.32,0.23,0.27,0.17,352.8,352.8,0.0,0.0
1630618873.50041199,48528914,0.28,0.19,0.27,0.18,352.8,352.8,0.0,0.0
1630618873.60037208,48628874,0.23,0.16,0.26,0.18,352.8,352.8,0.0,0.0
1630618873.70033193,48728834,0.2,0.12,0.24,0.18,352.8,352.8,0.0,0.0
1630618873.80029202,48828794,0.18,0.1,0.2,0.15,352.8,352.8,0.0,0.0
1630618873.90025210,48928754,0.19,0.09,0.15,0.11,352.8,352.8,0.0,0.0
1630618874.00021195,49028714,0.21,0.11,0.12,0.07,352.8,352.8,0.0,0.0
1630618874.10017204,49128674,0.22,0.14,0.11,0.04,352.8,352.8,0.0,0.0
1630618874.20013213,49228634,0.23,0.16,0.12,0.03,352.8,352.81,0.0,0.0
1630618874.30009198,49328594,0.2,0.17,0.11,0.04,352.8,352.81,0.0,0.0
1630618874.40005207,49428554,0.15,0.15,0.08,0.05,352.8,352.81,0.0,0.0
1630618874.50001192,49528514,0.12,0.11,0.03,0.02,352.8,352.81,0.0,0.0
1630618874.59997201,49628474,0.08,0.07,0.0,-0.01,352.8,352.81,0.0,0.0
1630618874.69993210,49728434,0.05,0.03,-0.01,-0.05,352.8,352.81,0.0,0.0
1630618874.79989195,49828394,0.01,-0.01,0.04,-0.03,352.8,352.81,0.0,0.0
1630618874.89985204,49928354,0.01,-0.02,0.11,0.03,352.8,352.8,0.0,0.0
1630618874.99981213,50028314,0.02,-0.02,0.14,0.1,352.8,352.8,0.0,0.0
1630618875.09977198,50128274,0.05,0.0,0.1,0.13,352.8,352.8,0.0,0.0
1630618875.19973207,50228234,0.05,0.02,0.05,0.09,352.8,352.8,0.0,0.0
1630618875.29969192,50328194,0.07,0.04,0.0,0.03,352.8,352.8,0.0,0.0
1630618875.39965200,50428154,0.07,0.05,-0.06,-0.05,352.8,352.8,0.0,0.0
1630618875.50044513,50528947,0.08,0.06,-0.1,-0.11,352.8,352.8,0.0,0.0
1630618875.60040498,50628907,0.07,0.06,-0.08,-0.13,352.8,352.8,0.0,0.0
1630618875.70036507,50728867,0.06,0.06,-0.03,-0.1,352.8,352.8,0.0,0.0
1630618875.80032492,50828827,0.07,0.05,0.05,-0.02,352.8,352.8,0.0,0.0
1630618875.90028501,50928787,0.11,0.08,0.12,0.06,352.8,352.8,0.0,0.0
1630618876.00024509,51028747,0.14,0.11,0.13,0.13,352.8,352.8,0.0,0.0
1630618876.10020494,51128707,0.15,0.14,0.09,0.13,352.8,352.8,0.0,0.0
1630618876.20016503,51228667,0.17,0.17,0.06,0.1,352.8,352.79,0.0,0.0
1630618876.30012512,51328627,0.2,0.2,0.04,0.07,352.8,352.79,0.0,0.0
1630618876.40008497,51428587,0.19,0.21,0.06,0.06,352.8,352.79,0.0,0.0
1630618876.50004506,51528547,0.14,0.18,0.09,0.07,352.8,352.79,0.0,0.0
1630618876.60000491,51628507,0.11,0.12,0.09,0.09,352.8,352.79,0.0,0.0
1630618876.69996500,51728467,0.08,0.07,0.08,0.09,352.8,352.79,0.0,0.0
1630618876.79992509,51828427,0.06,0.04,0.07,0.07,352.8,352.79,0.0,0.0
1630618876.89988494,51928387,0.06,0.03,0.07,0.06,352.8,352.8,0.0,0.0
1630618876.99984503,52028347,0.06,0.03,0.1,0.07,352.8,352.8,0.0,0.0
1630618877.09980512,52128307,0.06,0.04,0.11,0.08,352.8,352.81,0.0,0.0
1630618877.19976497,52228267,0.04,0.03,0.1,0.09,352.8,352.81,0.0,0.0
1630618877.29972506,52328227,0.06,0.03,0.11,0.1,352.8,352.81,0.0,0.0
1630618877.39968491,52428187,0.09,0.05,0.11,0.11,352.8,352.82,0.0,0.0
1630618877.50047803,52528980,0.11,0.07,0.11,0.12,352.8,352.82,0.0,0.0
1630618877.60043812,52628940,0.1,0.08,0.09,0.1,352.8,352.82,0.0,0.0
1630618877.70039797,52728900,0.08,0.08,0.09,0.08,352.8,352.82,0.0,0.0
1630618877.80035806,52828860,0.1,0.09,0.11,0.08,352.8,352.82,0.0,0.0
1630618877.90031791,52928820,0.09,0.09,0.17,0.12,352.8,352.81,0.0,0.0
1630618878.00027800,53028780,0.07,0.07,0.2,0.17,352.8,352.81,0.0,0.0
1630618878.10023808,53128740,0.08,0.07,0.18,0.19,352.8,352.81,0.0,0.0
1630618878.20019794,53228700,0.07,0.07,0.15,0.18,352.8,352.8,0.0,0.0
1630618878.30015802,53328660,0.06,0.06,0.11,0.14,352.8,352.8,0.0,0.0
1630618878.40011811,53428620,0.05,0.05,0.09,0.09,352.8,352.8,0.0,0.0
1630618878.50007796,53528580,0.06,0.05,0.11,0.07,352.8,352.8,0.0,0.0
1630618878.60003805,53628540,0.07,0.05,0.15,0.11,352.8,352.8,0.0,0.0
1630618878.69999790,53728500,0.1,0.07,0.17,0.15,352.8,352.81,0.0,0.0
1630618878.79995799,53828460,0.13,0.1,0.2,0.18,352.8,352.81,0.0,0.0
1630618878.89991808,53928420,0.15,0.14,0.18,0.19,352.8,352.81,0.0,0.0
1630618878.99987793,54028380,0.15,0.15,0.15,0.17,352.8,352.81,0.0,0.0
1630618879.09983802,54128340,0.1,0.14,0.1,0.13,352.8,352.81,0.0,0.0
1630618879.19979811,54228300,0.05,0.08,0.06,0.08,352.8,352.81,0.0,0.0
1630618879.29975796,54328260,0.01,0.02,0.03,0.03,352.8,352.81,0.0,0.0
1630618879.39971805,54428220,0.02,0.0,0.05,0.02,352.8,352.81,0.0,0.0
1630618879.49967790,54528180,0.05,0.0,0.09,0.04,352.8,352.81,0.0,0.0
1630618879.60047102,54628973,0.06,0.03,0.1,0.07,352.8,352.81,0.0,0.0
1630618879.70043111,54728933,0.07,0.06,0.06,0.07,352.8,352.81,0.0,0.0
1630618879.80039096,54828893,0.11,0.1,0.04,0.04,352.8,352.81,0.0,0.0
1630618879.90035105,54928853,0.11,0.12,0.02,0.01,352.8,352.81,0.0,0.0
1630618880.00031090,55028813,0.09,0.13,0.0,0.0,352.8,352.81,0.0,0.0
1630618880.10027099,55128773,0.04,0.09,0.0,0.0,352.8,352.81,0.0,0.0
1630618880.20023108,55228733,0.0,0.04,-0.01,-0.01,352.8,352.81,0.0,0.0
1630618880.30019093,55328693,0.0,0.0,0.01,0.0,352.8,352.81,0.0,0.0
1630618880.40015101,55428653,0.02,0.0,0.07,0.05,352.8,352.81,0.0,0.0
1630618880.50011110,55528613,0.06,0.03,0.08,0.08,352.8,352.8,0.0,0.0
1630618880.60007095,55628573,0.08,0.06,0.07,0.08,352.8,352.8,0.0,0.0
1630618880.70003104,55728533,0.07,0.08,0.04,0.07,352.8,352.79,0.0,0.0
1630618880.79999113,55828493,0.05,0.06,0.03,0.04,352.8,352.79,0.0,0.0
1630618880.89995098,55928453,0.06,0.05,0.04,0.02,352.8,352.79,0.0,0.0
1630618880.99991107,56028413,0.08,0.07,0.04,0.02,352.8,352.79,0.0,0.0
1630618881.09987092,56128373,0.09,0.08,0.05,0.02,352.8,352.79,0.0,0.0
1630618881.19983101,56228333,0.09,0.08,0.04,0.02,352.8,352.8,0.0,0.0
1630618881.29979110,56328293,0.08,0.08,0.03,0.02,352.8,352.8,0.0,0.0
1630618881.39975095,56428253,0.06,0.06,0.05,0.04,352.8,352.8,0.0,0.0
1630618881.49971104,56528213,0.07,0.05,0.06,0.06,352.8,352.81,0.0,0.0
1630618881.59967113,56628173,0.1,0.06,0.05,0.06,352.8,352.81,0.0,0.0
1630618881.70046401,56728966,0.12,0.09,0.04,0.05,352.8,352.81,0.0,0.0
1630618881.80042410,56828926,0.12,0.11,0.03,0.04,352.8,352.81,0.0,0.0
1630618881.90038395,56928886,0.1,0.12,0.03,0.04,352.8,352.81,0.0,0.0
1630618882.00034404,57028846,0.09,0.1,0.04,0.04,352.8,352.81,0.0,0.0
1630618882.10030413,57128806,0.07,0.09,0.07,0.05,352.8,352.81,0.0,0.0
1630618882.20026398,57228766,0.06,0.07,0.08,0.06,352.8,352.81,0.0,0.0
1630618882.30022407,57328726,0.06,0.06,0.11,0.08,352.8,352.81,0.0,0.0
1630618882.40018392,57428686,0.06,0.05,0.14,0.12,352.8,352.81,0.0,0.0
1630618882.50014400,57528646,0.04,0.05,0.16,0.15,352.8,352.8,0.0,0.0
1630618882.60010409,57628606,0.04,0.03,0.14,0.17,352.8,352.8,0.0,0.0
1630618882.70006394,57728566,0.08,0.04,0.15,0.16,352.8,352.8,0.0,0.0
1630618882.80002403,57828526,0.1,0.08,0.15,0.16,352.8,352.8,0.0,0.0
1630618882.89998412,57928486,0.1,0.09,0.14,0.15,352.8,352.8,0.0,0.0
1630618882.99994397,58028446,0.09,0.1,0.11,0.12,352.8,352.8,0.0,0.0
1630618883.09990406,58128406,0.06,0.07,0.08,0.08,352.8,352.8,0.0,0.0
1630618883.19986391,58228366,0.04,0.05,0.06,0.05,352.8,352.81,0.0,0.0
1630618883.29982400,58328326,0.02,0.02,0.06,0.04,352.8,352.81,0.0,0.0
1630618883.39978409,58428286,0.04,0.02,0.07,0.04,352.8,352.81,0.0,0.0
1630618883.49974394,58528246,0.05,0.03,0.07,0.06,352.8,352.81,0.0,0.0
1630618883.59970403,58628206,0.05,0.04,0.07,0.06,352.8,352.8,0.0,0.0
1630618883.69966412,58728166,0.07,0.05,0.09,0.08,352.8,352.8,0.0,0.0
1630618883.80045700,58828959,0.06,0.06,0.08,0.09,352.8,352.8,0.0,0.0
1630618883.90041709,58928919,0.07,0.07,0.05,0.08,352.8,352.8,0.0,0.0
1630618884.00037694,59028879,0.1,0.08,0.01,0.04,352.8,352.8,0.0,0.0
1630618884.10033703,59128839,0.12,0.1,0.0,0.01,352.8,352.8,0.0,0.0
1630618884.20029712,59228799,0.13,0.12,-0.02,-0.02,352.8,352.8,0.0,0.0
1630618884.30025697,59328759,0.15,0.13,0.0,-0.03,352.8,352.8,0.0,0.0
1630618884.40021706,59428719,0.16,0.15,0.04,0.0,352.8,352.8,0.0,0.0
1630618884.50017691,59528679,0.14,0.15,0.04,0.01,352.8,352.8,0.0,0.0
1630618884.60013700,59628639,0.13,0.14,0.05,0.03,352.8,352.8,0.0,0.0
1630618884.70009708,59728599,0.09,0.11,0.04,0.04,352.8,352.8,0.0,0.0
1630618884.80005693,59828559,0.07,0.06,0.04,0.03,352.8,352.8,0.0,0.0
1630618884.90001702,59928519,0.07,0.04,0.03,0.03,352.8,352.8,0.0,0.0
1630618884.99997711,60028479,0.1,0.06,0.01,0.02,352.8,352.8,0.0,0.0
1630618885.09993696,60128439,0.1,0.08,0.0,0.0,352.8,352.8,0.0,0.0
1630618885.19989705,60228399,0.1,0.08,0.02,0.0,352.8,352.81,0.0,0.0
1630618885.29985690,60328359,0.09,0.08,0.07,0.03,352.8,352.81,0.0,0.0
1630618885.39981699,60428319,0.09,0.08,0.11,0.08,352.8,352.81,0.0,0.0
1630618885.49977708,60528279,0.08,0.09,0.12,0.12,352.8,352.81,0.0,0.0
1630618885.59973693,60628239,0.07,0.08,0.11,0.13,352.8,352.81,0.0,0.0
1630618885.69969702,60728199,0.08,0.08,0.09,0.12,352.8,352.81,0.0,0.0
1630618885.79965711,60828159,0.11,0.09,0.1,0.11,352.8,352.8,0.0,0.0
1630618885.90044999,60928952,0.11,0.11,0.07,0.09,352.8,352.8,0.0,0.0
1630618886.00041008,61028912,0.09,0.1,0.06,0.07,352.8,352.8,0.0,0.0
1630618886.10036993,61128872,0.06,0.07,0.07,0.06,352.8,352.8,0.0,0.0
1630618886.20033002,61228832,0.08,0.07,0.09,0.07,352.8,352.8,0.0,0.0
1630618886.30029011,61328792,0.11,0.09,0.1,0.09,352.8,352.8,0.0,0.0
1630618886.40024996,61428752,0.12,0.12,0.11,0.09,352.8,352.8,0.0,0.0
1630618886.50021005,61528712,0.11,0.12,0.1,0.09,352.8,352.8,0.0,0.0
1630618886.60016990,61628672,0.11,0.11,0.1,0.09,352.8,352.8,0.0,0.0
1630618886.70012999,61728632,0.12,0.12,0.11,0.09,352.8,352.8,0.0,0.0
1630618886.80009007,61828592,0.12,0.12,0.14,0.11,352.8,352.8,0.0,0.0
1630618886.90004992,61928552,0.14,0.13,0.12,0.12,352.8,352.8,0.0,0.0
1630618887.00001001,62028512,0.14,0.14,0.06,0.09,352.8,352.8,0.0,0.0
1630618887.09997010,62128472,0.1,0.13,0.04,0.04,352.8,352.8,0.0,0.0
1630618887.19992995,62228432,0.1,0.11,0.05,0.03,352.8,352.8,0.0,0.0
1630618887.29989004,62328392,0.13,0.11,0.08,0.04,352.8,352.8,0.0,0.0
1630618887.39985013,62428352,0.14,0.12,0.1,0.07,352.8,352.8,0.0,0.0
1630618887.49980998,62528312,0.15,0.13,0.12,0.1,352.8,352.8,0.0,0.0
1630618887.59977007,62628272,0.12,0.13,0.11,0.12,352.8,352.8,0.0,0.0
1630618887.69972992,62728232,0.09,0.1,0.08,0.1,352.8,352.8,0.0,0.0
1630618887.79969001,62828192,0.08,0.07,0.06,0.06,352.8,352.81,0.0,0.0
1630618887.90048313,62928985,0.09,0.07,0.06,0.05,352.8,352.81,0.0,0.0
1630618888.00044298,63028945,0.09,0.07,0.07,0.05,352.8,352.81,0.0,0.0
1630618888.10040307,63128905,0.07,0.08,0.09,0.07,352.8,352.81,0.0,0.0
1630618888.20036292,63228865,0.07,0.08,0.11,0.09,352.8,352.81,0.0,0.0
1630618888.30032301,63328825,0.04,0.06,0.15,0.13,352.8,352.81,0.0,0.0
1630618888.40028310,63428785,0.04,0.04,0.2,0.19,352.8,352.81,0.0,0.0
1630618888.50024295,63528745,0.06,0.05,0.2,0.22,352.8,352.81,0.0,0.0
1630618888.60020304,63628705,0.08,0.05,0.19,0.21,352.8,352.81,0.0,0.0
1630618888.70016313,63728665,0.1,0.07,0.18,0.2,352.8,352.81,0.0,0.0
1630618888.80012298,63828625,0.11,0.09,0.17,0.18,352.8,352.81,0.0,0.0
1630618888.90008307,63928585,0.12,0.11,0.15,0.15,352.8,352.81,0.0,0.0
1630618889.00004292,64028545,0.11,0.11,0.13,0.13,352.8,352.81,0.0,0.0
1630618889.10000300,64128505,0.1,0.1,0.15,0.12,352.8,352.8,0.0,0.0
1630618889.19996309,64228465,0.08,0.08,0.15,0.13,352.8,352.8,0.0,0.0
1630618889.29992294,64328425,0.07,0.07,0.11,0.11,352.8,352.8,0.0,0.0
1630618889.39988303,64428385,0.07,0.06,0.1,0.09,352.8,352.8,0.0,0.0
1630618889.49984312,64528345,0.08,0.06,0.09,0.07,352.8,352.8,0.0,0.0
1630618889.59980297,64628305,0.11,0.08,0.09,0.07,352.8,352.8,0.0,0.0
1630618889.69976306,64728265,0.13,0.11,0.09,0.08,352.8,352.8,0.0,0.0
1630618889.79972291,64828225,0.13,0.13,0.08,0.08,352.8,352.8,0.0,0.0
1630618889.89968300,64928185,0.15,0.13,0.06,0.07,352.8,352.81,0.0,0.0
1630618890.00047612,65028978,0.15,0.13,0.07,0.06,352.8,352.81,0.0,0.0
1630618890.10043597,65128938,0.16,0.14,0.07,0.07,352.8,352.8,0.0,0.0
1630618890.20039606,65228898,0.19,0.16,0.08,0.07,352.8,352.81,0.0,0.0
1630618890.30035591,65328858,0.16,0.17,0.08,0.08,352.8,352.81,0.0,0.0
1630618890.40031600,65428818,0.11,0.13,0.11,0.1,352.8,352.81,0.0,0.0
1630618890.50027609,65528778,0.07,0.08,0.14,0.13,352.8,352.8,0.0,0.0
1630618890.60023594,65628738,0.06,0.05,0.15,0.15,352.8,352.8,0.0,0.0
1630618890.70019603,65728698,0.07,0.05,0.11,0.13,352.8,352.8,0.0,0.0
1630618890.80015612,65828658,0.07,0.05,0.09,0.1,352.8,352.8,0.0,0.0
1630618890.90011597,65928618,0.07,0.06,0.08,0.08,352.8,352.8,0.0,0.0
1630618891.00007606,66028578,0.08,0.06,0.05,0.06,352.8,352.8,0.0,0.0
1630618891.10003591,66128538,0.07,0.06,0.03,0.03,352.8,352.8,0.0,0.0
1630618891.19999599,66228498,0.05,0.04,0.02,0.01,352.8,352.8,0.0,0.0
1630618891.29995608,66328458,0.04,0.02,0.04,0.02,352.8,352.8,0.0,0.0
1630618891.39991593,66428418,0.06,0.02,0.07,0.03,352.8,352.8,0.0,0.0
1630618891.49987602,66528378,0.06,0.04,0.09,0.05,352.8,352.8,0.0,0.0
1630618891.59983611,66628338,0.07,0.05,0.11,0.08,352.8,352.8,0.0,0.0
1630618891.69979596,66728298,0.07,0.06,0.11,0.1,352.8,352.8,0.0,0.0
1630618891.79975605,66828258,0.08,0.07,0.11,0.1,352.8,352.8,0.0,0.0
1630618891.89971590,66928218,0.08,0.08,0.08,0.09,352.8,352.8,0.0,0.0
1630618891.99967599,67028178,0.07,0.08,0.05,0.06,352.8,352.8,0.0,0.0
1630618892.10046911,67128971,0.05,0.07,0.05,0.03,352.8,352.81,0.0,0.0
1630618892.20042896,67228931,0.06,0.06,0.08,0.05,352.8,352.81,0.0,0.0
1630618892.30038905,67328891,0.12,0.09,0.11,0.08,352.8,352.81,0.0,0.0
1630618892.40034890,67428851,0.17,0.14,0.13,0.12,352.8,352.81,0.0,0.0
1630618892.50030899,67528811,0.21,0.19,0.12,0.13,352.8,352.81,0.0,0.0
1630618892.60026908,67628771,0.19,0.21,0.12,0.13,352.8,352.81,0.0,0.0
1630618892.70022893,67728731,0.19,0.21,0.12,0.13,352.8,352.81,0.0,0.0
1630618892.80018902,67828691,0.18,0.2,0.11,0.12,352.8,352.8,0.0,0.0
1630618892.90014911,67928651,0.16,0.19,0.09,0.09,352.8,352.8,0.0,0.0
1630618893.00010896,68028611,0.13,0.16,0.11,0.09,352.8,352.8,0.0,0.0
1630618893.10006905,68128571,0.09,0.12,0.12,0.1,352.8,352.8,0.0,0.0
1630618893.20002890,68228531,0.09,0.08,0.13,0.11,352.8,352.81,0.0,0.0
1630618893.29998899,68328491,0.12,0.08,0.15,0.14,352.8,352.81,0.0,0.0
1630618893.39994907,68428451,0.16,0.1,0.15,0.15,352.8,352.81,0.0,0.0
1630618893.49990892,68528411,0.18,0.14,0.14,0.16,352.8,352.81,0.0,0.0
1630618893.59986901,68628371,0.19,0.17,0.13,0.14,352.8,352.82,0.0,0.0
1630618893.69982910,68728331,0.18,0.18,0.1,0.11,352.8,352.81,0.0,0.0
1630618893.79978895,68828291,0.14,0.15,0.06,0.07,352.8,352.81,0.0,0.0
1630618893.89974904,68928251,0.14,0.13,0.06,0.05,352.8,352.81,0.0,0.0
1630618893.99970913,69028211,0.14,0.12,0.09,0.07,352.8,352.81,0.0,0.0
1630618894.09966898,69128171,0.14,0.13,0.11,0.09,352.8,352.8,0.0,0.0
1630618894.20046210,69228964,0.15,0.14,0.12,0.11,352.8,352.8,0.0,0.0
1630618894.30042195,69328924,0.14,0.15,0.15,0.13,352.8,352.8,0.0,0.0
1630618894.40038204,69428884,0.1,0.13,0.16,0.16,352.8,352.8,0.0,0.0
1630618894.50034213,69528844,0.08,0.09,0.14,0.16,352.8,352.8,0.0,0.0
1630618894.60030198,69628804,0.1,0.08,0.13,0.15,352.8,352.8,0.0,0.0
1630618894.70026207,69728764,0.13,0.09,0.11,0.13,352.8,352.8,0.0,0.0
1630618894.80022192,69828724,0.14,0.1,0.1,0.11,352.8,352.8,0.0,0.0
1630618894.90018201,69928684,0.13,0.11,0.13,0.12,352.8,352.8,0.0,0.0
1630618895.00014210,70028644,0.1,0.09,0.13,0.13,352.8,352.8,0.0,0.0
1630618895.10010195,70128604,0.1,0.08,0.1,0.11,352.8,352.8,0.0,0.0
1630618895.20006204,70228564,0.12,0.1,0.07,0.07,352.8,352.8,0.0,0.0
1630618895.30002213,70328524,0.17,0.14,0.07,0.05,352.8,352.8,0.0,0.0
1630618895.39998198,70428484,0.18,0.18,0.06,0.04,352.8,352.8,0.0,0.0
1630618895.49994206,70528444,0.16,0.18,0.06,0.04,352.8,352.81,0.0,0.0
1630618895.59990191,70628404,0.14,0.16,0.09,0.05,352.8,352.81,0.0,0.0
1630618895.69986200,70728364,0.12,0.14,0.07,0.07,352.8,352.81,0.0,0.0
1630618895.79982209,70828324,0.1,0.1,0.05,0.05,352.8,352.81,0.0,0.0
1630618895.89978194,70928284,0.09,0.09,0.06,0.05,352.8,352.81,0.0,0.0
1630618895.99974203,71028244,0.08,0.07,0.08,0.06,352.8,352.81,0.0,0.0
1630618896.09970212,71128204,0.05,0.06,0.11,0.09,352.8,352.81,0.0,0.0
1630618896.19966197,71228164,0.03,0.03,0.11,0.11,352.8,352.8,0.0,0.0
1630618896.30045509,71328957,0.03,0.02,0.09,0.1,352.8,352.8,0.0,0.0
1630618896.40041494,71428917,0.05,0.02,0.08,0.08,352.8,352.8,0.0,0.0
1630618896.50037503,71528877,0.08,0.04,0.07,0.06,352.8,352.8,0.0,0.0
1630618896.60033512,71628837,0.09,0.07,0.09,0.06,352.8,352.8,0.0,0.0
1630618896.70029497,71728797,0.12,0.1,0.1,0.08,352.8,352.8,0.0,0.0
1630618896.80025506,71828757,0.15,0.13,0.14,0.11,352.8,352.8,0.0,0.0
1630618896.90021491,71928717,0.13,0.15,0.15,0.14,352.8,352.8,0.0,0.0
1630618897.00017500,72028677,0.08,0.12,0.1,0.13,352.8,352.8,0.0,0.0
1630618897.10013509,72128637,0.05,0.07,0.07,0.09,352.8,352.8,0.0,0.0
1630618897.20009494,72228597,0.03,0.03,0.07,0.06,352.8,352.8,0.0,0.0
1630618897.30005503,72328557,0.03,0.01,0.08,0.06,352.8,352.8,0.0,0.0
1630618897.40001512,72428517,0.05,0.02,0.08,0.07,352.8,352.8,0.0,0.0
1630618897.49997497,72528477,0.07,0.06,0.09,0.08,352.8,352.8,0.0,0.0
1630618897.59993505,72628437,0.06,0.07,0.08,0.09,352.8,352.8,0.0,0.0
1630618897.69989491,72728397,0.01,0.05,0.1,0.09,352.8,352.8,0.0,0.0
1630618897.79985499,72828357,-0.03,0.0,0.13,0.12,352.8,352.8,0.0,0.0
1630618897.89981508,72928317,-0.05,-0.06,0.11,0.12,352.8,352.8,0.0,0.0
1630618897.99977493,73028277,0.0,-0.06,0.08,0.09,352.8,352.81,0.0,0.0
1630618898.09973502,73128237,0.04,-0.02,0.08,0.08,352.8,352.81,0.0,0.0
1630618898.19969511,73228197,0.07,0.02,0.06,0.06,352.8,352.81,0.0,0.0
1630618898.29965496,73328157,0.08,0.07,0.05,0.04,352.8,352.81,0.0,0.0
1630618898.40044808,73428950,0.11,0.09,0.08,0.04,352.8,352.81,0.0,0.0
1630618898.50040793,73528910,0.13,0.12,0.1,0.07,352.8,352.81,0.0,0.0
1630618898.60036802,73628870,0.12,0.13,0.09,0.09,352.8,352.81,0.0,0.0
1630618898.70032811,73728830,0.16,0.16,0.07,0.09,352.8,352.81,0.0,0.0
1630618898.80028796,73828790,0.19,0.19,0.04,0.06,352.8,352.8,0.0,0.0
1630618898.90024805,73928750,0.18,0.2,0.04,0.05,352.8,352.8,0.0,0.0
1630618899.00020790,74028710,0.15,0.18,0.05,0.04,352.8,352.8,0.0,0.0
1630618899.10016799,74128670,0.16,0.15,0.07,0.05,352.8,352.8,0.0,0.0
1630618899.20012808,74228630,0.18,0.16,0.12,0.08,352.8,352.8,0.0,0.0
1630618899.30008793,74328590,0.2,0.18,0.12,0.1,352.8,352.79,0.0,0.0
1630618899.40004802,74428550,0.2,0.2,0.11,0.11,352.8,352.79,0.0,0.0
1630618899.50000811,74528510,0.2,0.21,0.08,0.1,352.8,352.79,0.0,0.0
1630618899.59996796,74628470,0.2,0.21,0.03,0.06,352.8,352.8,0.0,0.0
1630618899.69992805,74728430,0.21,0.21,0.01,0.02,352.8,352.8,0.0,0.0
1630618899.79988790,74828390,0.21,0.21,0.0,0.0,352.8,352.8,0.0,0.0
1630618899.89984798,74928350,0.17,0.19,0.0,-0.01,352.8,352.8,0.0,0.0
1630618899.99980807,75028310,0.13,0.14,0.02,-0.01,352.8,352.8,0.0,0.0
1630618900.09976792,75128270,0.13,0.12,0.03,0.01,352.8,352.8,0.0,0.0
1630618900.19972801,75228230,0.16,0.13,0.03,0.01,352.8,352.8,0.0,0.0
1630618900.29968810,75328190,0.18,0.15,0.04,0.02,352.8,352.8,0.0,0.0
1630618900.40048099,75428983,0.22,0.18,0.06,0.05,352.8,352.8,0.0,0.0
1630618900.50044107,75528943,0.25,0.22,0.06,0.06,352.8,352.8,0.0,0.0
1630618900.60040092,75628903,0.24,0.24,0.02,0.04,352.8,352.8,0.0,0.0
1630618900.70036101,75728863,0.19,0.21,0.02,0.02,352.8,352.79,0.0,0.0
1630618900.80032110,75828823,0.15,0.18,0.04,0.02,352.8,352.79,0.0,0.0
1630618900.90028095,75928783,0.16,0.16,0.05,0.02,352.8,352.79,0.0,0.0
1630618901.00024104,76028743,0.18,0.16,0.06,0.04,352.8,352.79,0.0,0.0
1630618901.10020113,76128703,0.16,0.16,0.08,0.06,352.8,352.79,0.0,0.0
1630618901.20016098,76228663,0.15,0.14,0.1,0.09,352.8,352.79,0.0,0.0
1630618901.30012107,76328623,0.16,0.14,0.09,0.09,352.8,352.79,0.0,0.0
1630618901.40008092,76428583,0.19,0.16,0.09,0.08,352.8,352.8,0.0,0.0
1630618901.50004101,76528543,0.19,0.18,0.12,0.1,352.8,352.8,0.0,0.0
1630618901.60000110,76628503,0.2,0.19,0.14,0.13,352.8,352.8,0.0,0.0
1630618901.69996095,76728463,0.18,0.18,0.13,0.13,352.8,352.81,0.0,0.0
1630618901.79992104,76828423,0.14,0.15,0.13,0.13,352.8,352.81,0.0,0.0
1630618901.89988112,76928383,0.11,0.11,0.15,0.13,352.8,352.81,0.0,0.0
1630618901.99984097,77028343,0.1,0.08,0.14,0.12,352.8,352.81,0.0,0.0
1630618902.09980106,77128303,0.12,0.08,0.13,0.12,352.8,352.81,0.0,0.0
1630618902.19976091,77228263,0.17,0.12,0.15,0.13,352.8,352.81,0.0,0.0
1630618902.29972100,77328223,0.21,0.18,0.15,0.15,352.8,352.8,0.0,0.0
1630618902.39968109,77428183,0.2,0.2,0.12,0.13,352.8,352.8,0.0,0.0
1630618902.50047398,77528976,0.16,0.18,0.13,0.12,352.8,352.8,0.0,0.0
1630618902.60043406,77628936,0.12,0.13,0.11,0.11,352.8,352.8,0.0,0.0
1630618902.70039392,77728896,0.11,0.1,0.08,0.09,352.8,352.8,0.0,0.0
1630618902.80035400,77828856,0.14,0.1,0.08,0.06,352.8,352.8,0.0,0.0
1630618902.90031409,77928816,0.15,0.12,0.12,0.08,352.8,352.8,0.0,0.0
1630618903.00027394,78028776,0.17,0.14,0.14,0.12,352.8,352.8,0.0,0.0
1630618903.10023403,78128736,0.18,0.16,0.11,0.13,352.8,352.8,0.0,0.0
1630618903.20019412,78228696,0.16,0.17,0.04,0.09,352.8,352.81,0.0,0.0
1630618903.30015397,78328656,0.13,0.16,0.0,0.03,352.8,352.81,0.0,0.0
1630618903.40011406,78428616,0.12,0.14,0.01,0.0,352.8,352.81,0.0,0.0
1630618903.50007391,78528576,0.12,0.12,0.07,0.02,352.8,352.81,0.0,0.0
1630618903.60003400,78628536,0.12,0.1,0.11,0.08,352.8,352.81,0.0,0.0
1630618903.69999409,78728496,0.11,0.09,0.14,0.13,352.8,352.81,0.0,0.0
1630618903.79995394,78828456,0.08,0.08,0.15,0.15,352.8,352.8,0.0,0.0
1630618903.89991403,78928416,0.08,0.08,0.13,0.15,352.8,352.8,0.0,0.0
1630618903.99987411,79028376,0.07,0.07,0.12,0.12,352.8,352.8,0.0,0.0
1630618904.09983397,79128336,0.08,0.07,0.11,0.1,352.8,352.8,0.0,0.0
1630618904.19979405,79228296,0.09,0.08,0.08,0.08,352.8,352.8,0.0,0.0
1630618904.29975390,79328256,0.06,0.06,0.08,0.07,352.8,352.8,0.0,0.0
1630618904.39971399,79428216,0.03,0.03,0.12,0.09,352.8,352.79,0.0,0.0
1630618904.49967408,79528176,0.03,0.01,0.16,0.13,352.8,352.79,0.0,0.0
1630618904.60046697,79628969,0.05,0.03,0.17,0.16,352.8,352.8,0.0,0.0
1630618904.70042706,79728929,0.08,0.06,0.17,0.17,352.8,352.8,0.0,0.0
1630618904.80038691,79828889,0.08,0.09,0.15,0.18,352.8,352.8,0.0,0.0
1630618904.90034699,79928849,0.04,0.08,0.12,0.16,352.8,352.8,0.0,0.0
1630618905.00030708,80028809,0.0,0.03,0.09,0.11,352.8,352.8,0.0,0.0
1630618905.10026693,80128769,0.0,0.0,0.08,0.08,352.8,352.8,0.0,0.0
1630618905.20022702,80228729,0.03,0.0,0.09,0.06,352.8,352.8,0.0,0.0
1630618905.30018711,80328689,0.07,0.03,0.12,0.08,352.8,352.8,0.0,0.0
1630618905.40014696,80428649,0.11,0.08,0.14,0.11,352.8,352.8,0.0,0.0
1630618905.50010705,80528609,0.14,0.12,0.11,0.11,352.8,352.8,0.0,0.0
1630618905.60006690,80628569,0.15,0.15,0.11,0.11,352.8,352.8,0.0,0.0
1630618905.70002699,80728529,0.18,0.17,0.12,0.11,352.8,352.8,0.0,0.0
1630618905.79998708,80828489,0.16,0.17,0.13,0.12,352.8,352.8,0.0,0.0
1630618905.89994693,80928449,0.15,0.16,0.14,0.13,352.8,352.8,0.0,0.0
1630618905.99990702,81028409,0.14,0.14,0.15,0.14,352.8,352.8,0.0,0.0
1630618906.09986711,81128369,0.15,0.14,0.13,0.14,352.8,352.8,0.0,0.0
1630618906.19982696,81228329,0.14,0.13,0.12,0.13,352.8,352.8,0.0,0.0
1630618906.29978704,81328289,0.13,0.14,0.09,0.11,352.8,352.8,0.0,0.0
1630618906.39974689,81428249,0.13,0.14,0.09,0.09,352.8,352.8,0.0,0.0
1630618906.49970698,81528209,0.15,0.14,0.11,0.09,352.8,352.81,0.0,0.0
1630618906.59966707,81628169,0.16,0.14,0.12,0.1,352.8,352.81,0.0,0.0
1630618906.70045996,81728962,0.16,0.14,0.15,0.13,352.8,352.81,0.0,0.0
1630618906.80042005,81828922,0.16,0.15,0.19,0.17,352.8,352.81,0.0,0.0
1630618906.90037990,81928882,0.15,0.14,0.21,0.21,352.8,352.81,0.0,0.0
1630618907.00033998,82028842,0.16,0.14,0.22,0.24,352.8,352.81,0.0,0.0
1630618907.10030007,82128802,0.13,0.14,0.2,0.24,352.8,352.8,0.0,0.0
1630618907.20025992,82228762,0.08,0.09,0.14,0.19,352.8,352.8,0.0,0.0
1630618907.30022001,82328722,0.07,0.06,0.1,0.13,352.8,352.8,0.0,0.0
1630618907.40018010,82428682,0.07,0.04,0.1,0.09,352.8,352.8,0.0,0.0
1630618907.50013995,82528642,0.09,0.04,0.14,0.1,352.8,352.8,0.0,0.0
1630618907.60010004,82628602,0.11,0.06,0.15,0.11,352.8,352.8,0.0,0.0
1630618907.70006013,82728562,0.14,0.11,0.17,0.14,352.8,352.8,0.0,0.0
1630618907.80001998,82828522,0.16,0.15,0.15,0.15,352.8,352.8,0.0,0.0
1630618907.89998007,82928482,0.16,0.17,0.12,0.13,352.8,352.8,0.0,0.0
1630618907.99993992,83028442,0.15,0.18,0.11,0.12,352.8,352.8,0.0,0.0
1630618908.09990001,83128402,0.1,0.14,0.1,0.1,352.8,352.8,0.0,0.0
1630618908.19986010,83228362,0.07,0.09,0.1,0.09,352.8,352.8,0.0,0.0
1630618908.29981995,83328322,0.07,0.07,0.11,0.09,352.8,352.8,0.0,0.0
1630618908.39978004,83428282,0.08,0.07,0.12,0.1,352.8,352.8,0.0,0.0
1630618908.49974012,83528242,0.08,0.06,0.15,0.12,352.8,352.81,0.0,0.0
1630618908.59969997,83628202,0.09,0.08,0.17,0.14,352.8,352.81,0.0,0.0
1630618908.69966006,83728162,0.1,0.09,0.18,0.16,352.8,352.81,0.0,0.0
1630618908.80045295,83828955,0.14,0.11,0.18,0.18,352.8,352.81,0.0,0.0
1630618908.90041304,83928915,0.16,0.13,0.16,0.18,352.8,352.8,0.0,0.0
1630618909.00037313,84028875,0.18,0.16,0.15,0.16,352.8,352.8,0.0,0.0
1630618909.10033298,84128835,0.21,0.19,0.13,0.14,352.8,352.8,0.0,0.0
1630618909.20029306,84228795,0.22,0.23,0.09,0.1,352.8,352.8,0.0,0.0
1630618909.30025291,84328755,0.19,0.23,0.08,0.08,352.8,352.8,0.0,0.0
1630618909.40021300,84428715,0.17,0.2,0.1,0.08,352.8,352.8,0.0,0.0
1630618909.50017309,84528675,0.15,0.16,0.1,0.08,352.8,352.8,0.0,0.0
1630618909.60013294,84628635,0.14,0.14,0.07,0.07,352.8,352.8,0.0,0.0
1630618909.70009303,84728595,0.14,0.12,0.05,0.05,352.8,352.8,0.0,0.0
1630618909.80005312,84828555,0.16,0.13,0.05,0.03,352.8,352.8,0.0,0.0
1630618909.90001297,84928515,0.17,0.14,0.08,0.04,352.8,352.8,0.0,0.0
1630618909.99997306,85028475,0.15,0.15,0.1,0.06,352.8,352.79,0.0,0.0
1630618910.09993291,85128435,0.13,0.14,0.14,0.1,352.8,352.79,0.0,0.0
1630618910.19989300,85228395,0.11,0.12,0.18,0.15,352.8,352.79,0.0,0.0
1630618910.29985309,85328355,0.11,0.1,0.21,0.2,352.8,352.79,0.0,0.0
1630618910.39981294,85428315,0.13,0.1,0.21,0.23,352.8,352.79,0.0,0.0
1630618910.49977303,85528275,0.16,0.13,0.16,0.21,352.8,352.79,0.0,0.0
1630618910.59973311,85628235,0.15,0.14,0.09,0.14,352.8,352.8,0.0,0.0
1630618910.69969296,85728195,0.13,0.14,0.05,0.07,352.8,352.8,0.0,0.0
1630618910.79965305,85828155,0.13,0.13,0.04,0.02,352.8,352.8,0.0,0.0
1630618910.90044594,85928948,0.14,0.13,0.05,0.01,352.8,352.8,0.0,0.0
1630618911.00040603,86028908,0.14,0.13,0.08,0.04,352.8,352.81,0.0,0.0
1630618911.10036612,86128868,0.13,0.13,0.12,0.08,352.8,352.81,0.0,0.0
1630618911.20032597,86228828,0.15,0.13,0.14,0.12,352.8,352.81,0.0,0.0
1630618911.30028605,86328788,0.17,0.15,0.13,0.14,352.8,352.81,0.0,0.0
1630618911.40024590,86428748,0.17,0.16,0.13,0.14,352.8,352.8,0.0,0.0
1630618911.50020599,86528708,0.18,0.18,0.09,0.12,352.8,352.8,0.0,0.0
1630618911.60016608,86628668,0.16,0.17,0.08,0.09,352.8,352.8,0.0,0.0
1630618911.70012593,86728628,0.14,0.15,0.1,0.09,352.8,352.8,0.0,0.0
1630618911.80008602,86828588,0.12,0.12,0.12,0.1,352.8,352.8,0.0,0.0
1630618911.90004611,86928548,0.1,0.09,0.13,0.11,352.8,352.8,0.0,0.0
1630618912.00000596,87028508,0.1,0.08,0.13,0.12,352.8,352.8,0.0,0.0
1630618912.09996605,87128468,0.13,0.1,0.15,0.14,352.8,352.8,0.0,0.0
1630618912.19992590,87228428,0.15,0.13,0.17,0.16,352.8,352.8,0.0,0.0
1630618912.29988599,87328388,0.13,0.13,0.16,0.16,352.8,352.8,0.0,0.0
1630618912.39984608,87428348,0.13,0.13,0.13,0.15,352.8,352.8,0.0,0.0
1630618912.49980593,87528308,0.12,0.13,0.1,0.12,352.8,352.8,0.0,0.0
1630618912.59976602,87628268,0.12,0.13,0.09,0.09,352.8,352.8,0.0,0.0
1630618912.69972610,87728228,0.13,0.13,0.1,0.08,352.8,352.8,0.0,0.0
1630618912.79968596,87828188,0.13,0.13,0.12,0.09,352.8,352.8,0.0,0.0
1630618912.90047908,87928981,0.09,0.11,0.13,0.11,352.8,352.8,0.0,0.0
1630618913.00043893,88028941,0.06,0.07,0.14,0.13,352.8,352.8,0.0,0.0
1630618913.10039902,88128901,0.05,0.04,0.14,0.14,352.8,352.8,0.0,0.0
1630618913.20035911,88228861,0.07,0.04,0.15,0.14,352.8,352.8,0.0,0.0
1630618913.30031896,88328821,0.08,0.06,0.15,0.14,352.8,352.8,0.0,0.0
1630618913.40027905,88428781,0.08,0.06,0.13,0.13,352.8,352.8,0.0,0.0
1630618913.50023890,88528741,0.08,0.07,0.12,0.12,352.8,352.8,0.0,0.0
1630618913.60019898,88628701,0.06,0.05,0.12,0.12,352.8,352.8,0.0,0.0
1630618913.70015907,88728661,0.06,0.05,0.11,0.11,352.8,352.8,0.0,0.0
1630618913.80011892,88828621,0.08,0.06,0.1,0.09,352.8,352.8,0.0,0.0
1630618913.90007901,88928581,0.09,0.07,0.13,0.09,352.8,352.8,0.0,0.0
1630618914.00003910,89028541,0.13,0.1,0.16,0.13,352.8,352.8,0.0,0.0
1630618914.09999895,89128501,0.16,0.14,0.17,0.16,352.8,352.8,0.0,0.0
1630618914.19995904,89228461,0.17,0.16,0.17,0.17,352.8,352.8,0.0,0.0
1630618914.29991913,89328421,0.16,0.17,0.16,0.17,352.8,352.8,0.0,0.0
1630618914.39987898,89428381,0.15,0.15,0.15,0.15,352.8,352.8,0.0,0.0
1630618914.49983907,89528341,0.16,0.14,0.15,0.14,352.8,352.8,0.0,0.0
1630618914.59979892,89628301,0.18,0.16,0.13,0.12,352.8,352.8,0.0,0.0
1630618914.69975901,89728261,0.17,0.17,0.15,0.13,352.8,352.8,0.0,0.0
1630618914.79971910,89828221,0.16,0.16,0.16,0.14,352.8,352.81,0.0,0.0
1630618914.89967895,89928181,0.17,0.16,0.17,0.16,352.8,352.81,0.0,0.0
1630618915.00047207,90028974,0.19,0.18,0.17,0.17,352.8,352.81,0.0,0.0
1630618915.10043192,90128934,0.2,0.2,0.17,0.17,352.8,352.81,0.0,0.0
1630618915.20039201,90228894,0.21,0.2,0.17,0.17,352.8,352.8,0.0,0.0
1630618915.30035210,90328854,0.22,0.21,0.18,0.17,352.8,352.8,0.0,0.0
1630618915.40031195,90428814,0.2,0.21,0.18,0.18,352.8,352.8,0.0,0.0
1630618915.50027204,90528774,0.19,0.19,0.19,0.19,352.8,352.8,0.0,0.0
1630618915.60023212,90628734,0.18,0.18,0.17,0.17,352.8,352.8,0.0,0.0
1630618915.70019197,90728694,0.17,0.16,0.15,0.15,352.8,352.8,0.0,0.0
1630618915.80015206,90828654,0.19,0.17,0.13,0.13,352.8,352.8,0.0,0.0
1630618915.90011191,90928614,0.22,0.19,0.13,0.11,352.8,352.8,0.0,0.0
1630618916.00007200,91028574,0.21,0.21,0.15,0.12,352.8,352.8,0.0,0.0
1630618916.10003209,91128534,0.16,0.19,0.16,0.13,352.8,352.8,0.0,0.0
1630618916.19999194,91228494,0.13,0.14,0.19,0.15,352.8,352.8,0.0,0.0
1630618916.29995203,91328454,0.13,0.11,0.18,0.17,352.8,352.8,0.0,0.0
1630618916.39991212,91428414,0.12,0.1,0.16,0.17,352.8,352.8,0.0,0.0
1630618916.49987197,91528374,0.12,0.1,0.13,0.15,352.8,352.8,0.0,0.0
1630618916.59983206,91628334,0.13,0.1,0.12,0.12,352.8,352.8,0.0,0.0
1630618916.69979191,91728294,0.13,0.11,0.13,0.12,352.8,352.8,0.0,0.0
1630618916.79975200,91828254,0.14,0.11,0.13,0.13,352.8,352.8,0.0,0.0
1630618916.89971209,91928214,0.19,0.15,0.1,0.11,352.8,352.8,0.0,0.0
1630618916.99967194,92028174,0.21,0.2,0.09,0.09,352.8,352.8,0.0,0.0
1630618917.10046506,92128967,0.2,0.21,0.1,0.08,352.8,352.8,0.0,0.0
1630618917.20042491,92228927,0.18,0.2,0.12,0.1,352.8,352.8,0.0,0.0
1630618917.30038500,92328887,0.19,0.19,0.15,0.14,352.8,352.8,0.0,0.0
1630618917.40034509,92428847,0.19,0.18,0.15,0.16,352.8,352.81,0.0,0.0
1630618917.50030494,92528807,0.19,0.18,0.14,0.16,352.8,352.81,0.0,0.0
1630618917.60026503,92628767,0.19,0.18,0.14,0.14,352.8,352.81,0.0,0.0
1630618917.70022511,92728727,0.19,0.18,0.15,0.15,352.8,352.81,0.0,0.0
1630618917.80018497,92828687,0.17,0.17,0.11,0.13,352.8,352.81,0.0,0.0
1630618917.90014505,92928647,0.17,0.16,0.08,0.09,352.8,352.8,0.0,0.0
1630618918.00010490,93028607,0.17,0.16,0.08,0.07,352.8,352.8,0.0,0.0
1630618918.10006499,93128567,0.16,0.16,0.08,0.06,352.8,352.8,0.0,0.0
1630618918.20002508,93228527,0.15,0.14,0.11,0.08,352.8,352.8,0.0,0.0
1630618918.29998493,93328487,0.15,0.13,0.13,0.11,352.8,352.8,0.0,0.0
1630618918.39994502,93428447,0.17,0.13,0.13,0.13,352.8,352.8,0.0,0.0
1630618918.49990511,93528407,0.19,0.16,0.12,0.13,352.8,352.8,0.0,0.0
1630618918.59986496,93628367,0.18,0.18,0.12,0.12,352.8,352.8,0.0,0.0
1630618918.69982505,93728327,0.16,0.17,0.12,0.1,352.8,352.8,0.0,0.0
1630618918.79978490,93828287,0.15,0.16,0.13,0.1,352.8,352.8,0.0,0.0
1630618918.89974499,93928247,0.06,0.11,0.27,0.17,352.8,352.8,0.0,0.0
1630618918.99970508,94028207,-0.17,-0.05,0.63,0.43,352.8,352.81,0.0,0.0
1630618919.09966493,94128167,-0.56,-0.38,1.2,0.92,352.8,352.81,0.0,0.0
1630618919.20045805,94228960,-1.03,-0.86,1.9,1.63,352.8,352.8,0.0,0.0
1630618919.30041790,94328920,-1.54,-1.41,2.68,2.47,352.8,352.79,0.0,0.0
1630618919.40037799,94428880,-2.04,-1.99,3.43,3.34,352.8,352.77,0.0,0.0
1630618919.50033808,94528840,-2.47,-2.51,4.03,4.1,352.8,352.75,0.0,0.0
1630618919.60029793,94628800,-2.8,-2.93,4.48,4.67,352.8,352.74,0.0,0.0
1630618919.70025802,94728760,-3.04,-3.21,4.82,5.06,352.8,352.74,0.0,0.0
1630618919.80021811,94828720,-3.26,-3.41,5.13,5.33,352.8,352.75,0.0,0.0
1630618919.90017796,94928680,-3.49,-3.59,5.46,5.58,352.8,352.77,0.0,0.0
1630618920.00013804,95028640,-3.76,-3.8,5.83,5.85,352.8,352.78,0.0,0.0
1630618920.10009789,95128600,-4.02,-4.04,6.19,6.19,352.8,352.79,0.0,0.0
1630618920.20005798,95228560,-4.23,-4.27,6.47,6.49,352.8,352.79,0.0,0.0
1630618920.30001807,95328520,-4.37,-4.44,6.69,6.73,352.8,352.8,0.0,0.0
1630618920.39997792,95428480,-4.45,-4.53,6.85,6.92,352.8,352.81,0.0,0.0
1630618920.49993801,95528440,-4.56,-4.6,7.02,7.06,352.8,352.82,0.0,0.0
1630618920.59989810,95628400,-4.68,-4.68,7.18,7.2,352.8,352.83,0.0,0.0
1630618920.69985795,95728360,-4.82,-4.77,7.37,7.37,352.06,352.82,0.0,0.0
1630618920.79981804,95828320,-5.03,-4.72,7.63,7.73,348.71,352.57,0.0,0.0
1630618920.89977813,95928280,-5.36,-4.51,7.87,8.31,343.01,351.45,0.0,0.0
1630618920.99973798,96028240,-5.9,-4.5,7.97,8.89,337.01,348.8,0.0,0.0
1630618921.09969807,96128200,-6.77,-4.99,7.82,9.21,331.01,344.44,0.0,0.0
1630618921.19965792,96228160,-7.97,-6.07,7.3,9.05,325.01,338.55,0.0,0.01
1630618921.30045104,96328953,-9.29,-7.56,6.32,8.26,319.01,331.49,0.0,0.02
1630618921.40041113,96428913,-10.58,-9.22,4.94,6.84,313.02,323.6,0.0,0.04
1630618921.50037098,96528873,-11.69,-10.79,3.29,4.88,307.02,315.23,0.0,0.05
1630618921.60033107,96628833,-12.49,-12.04,1.43,2.55,301.02,306.64,0.0,0.07
1630618921.70029092,96728793,-12.97,-12.83,-0.5,0.03,295.02,298.08,0.0,0.08
1630618921.80025101,96828753,-13.13,-13.12,-2.4,-2.45,289.02,289.75,0.0,0.09
1630618921.90021110,96928713,-13.03,-12.97,-4.18,-4.72,283.02,281.82,0.0,0.09
1630618922.00017095,97028673,-12.73,-12.51,-5.84,-6.69,277.02,274.42,0.0,0.09
1630618922.10013103,97128633,-12.29,-11.86,-7.37,-8.33,271.02,267.6,0.0,0.09
1630618922.20009112,97228593,-11.69,-11.12,-8.75,-9.68,265.02,261.35,0.0,0.09
1630618922.30005097,97328553,-10.97,-10.34,-9.94,-10.74,259.01,255.61,0.0,0.08
1630618922.40001106,97428513,-10.17,-9.57,-11.01,-11.59,253.01,250.26,0.0,0.08
1630618922.49997091,97528473,-9.3,-8.83,-11.97,-12.3,247.01,245.17,0.0,0.07
1630618922.59993100,97628433,-8.31,-8.08,-12.84,-12.94,241.01,240.21,0.0,0.06
1630618922.69989109,97728393,-7.21,-7.25,-13.62,-13.55,235.01,235.22,0.0,0.06
1630618922.79985094,97828353,-5.99,-6.29,-14.33,-14.15,229.01,230.11,0.0,0.05
1630618922.89981103,97928313,-4.62,-5.15,-14.95,-14.74,223.01,224.78,0.0,0.05
1630618922.99977112,98028273,-3.1,-3.79,-15.47,-15.29,217.04,219.2,0.0,0.05
1630618923.09973097,98128233,-1.48,-2.02,-15.79,-15.72,212.77,213.41,0.0,0.05
1630618923.19969106,98228193,0.15,0.32,-15.93,-15.95,210.55,207.79,0.0,0.05
1630618923.30048394,98328986,1.61,2.85,-15.92,-15.9,209.41,203.0,0.0,0.05
1630618923.40044403,98428946,2.66,5.03,-15.82,-15.63,208.81,199.52,0.0,0.05
1630618923.50040412,98528906,3.13,6.4,-15.75,-15.31,208.47,197.54,0.0,0.05
1630618923.60036397,98628866,3.03,6.77,-15.81,-15.12,208.25,196.97,0.0,0.04
1630618923.70032406,98728826,2.48,6.17,-15.96,-15.14,208.07,197.59,0.0,0.04
1630618923.80028391,98828786,1.65,4.83,-16.18,-15.35,207.9,199.09,0.0,0.04
1630618923.90024400,98928746,0.76,3.07,-16.39,-15.69,207.72,201.19,0.0,0.04
1630618924.00020409,99028706,-0.03,1.24,-16.57,-16.06,207.53,203.58,0.0,0.05
1630618924.10016394,99128666,-0.69,-0.41,-16.68,-16.37,207.35,205.96,0.0,0.06
1630618924.20012403,99228626,-1.12,-1.69,-16.72,-16.57,207.18,208.03,0.0,0.06
1630618924.30008411,99328586,-1.36,-2.52,-16.7,-16.64,207.03,209.6,0.0,0.06
1630618924.40004396,99428546,-1.41,-2.9,-16.66,-16.62,206.9,210.55,0.0,0.06
1630618924.50000405,99528506,-1.29,-2.87,-16.66,-16.59,206.81,210.88,0.0,0.05
1630618924.59996390,99628466,-1.07,-2.52,-16.68,-16.58,206.73,210.65,0.0,0.04
1630618924.69992399,99728426,-0.79,-1.97,-16.71,-16.6,206.68,209.99,0.0,0.04
1630618924.79988408,99828386,-0.47,-1.28,-16.75,-16.65,206.65,209.04,0.0,0.03
1630618924.89984393,99928346,-0.17,-0.58,-16.8,-16.72,206.63,207.96,0.0,0.02
1630618924.99980402,100028306,0.06,0.04,-16.87,-16.81,206.62,206.89,0.0,0.02
1630618925.09976411,100128266,0.25,0.55,-16.92,-16.88,206.62,205.96,0.0,0.01
1630618925.19972396,100228226,0.38,0.91,-16.96,-16.94,206.62,205.25,0.0,0.01
1630618925.29968405,100328186,0.45,1.12,-16.98,-16.98,206.61,204.8,0.0,0.01
1630618925.40047693,100428979,0.44,1.18,-16.99,-17.0,206.61,204.62,0.0,0.01
1630618925.50043702,100528939,0.37,1.08,-16.98,-16.99,206.6,204.67,0.0,0.01
1630618925.60039711,100628899,0.25,0.86,-16.97,-16.98,206.59,204.92,0.0,0.01
1630618925.70035696,100728859,0.11,0.57,-17.01,-16.99,206.59,205.3,0.0,0.01
1630618925.80031705,100828819,0.0,0.27,-17.07,-17.04,206.57,205.73,0.0,0.01
1630618925.90027690,100928779,-0.08,0.01,-17.11,-17.1,206.57,206.17,0.0,0.02
1630618926.00023699,101028739,-0.17,-0.2,-17.14,-17.14,206.56,206.56,0.0,0.02
1630618926.10019708,101128699,-0.24,-0.38,-17.16,-17.17,206.56,206.87,0.0,0.02
1630618926.20015693,101228659,-0.24,-0.46,-17.17,-17.18,206.56,207.06,0.0,0.02
1630618926.30011702,101328619,-0.2,-0.46,-17.22,-17.21,206.57,207.15,0.0,0.02
1630618926.40007710,101428579,-0.16,-0.39,-17.26,-17.25,206.58,207.15,0.0,0.01
1630618926.50003695,101528539,-0.13,-0.3,-17.29,-17.3,206.6,207.06,0.0,0.01
1630618926.59999704,101628499,-0.1,-0.21,-17.33,-17.34,206.62,206.93,0.0,0.01
1630618926.69995689,101728459,-0.04,-0.1,-17.34,-17.36,206.64,206.77,0.0,0.01
1630618926.79991698,101828419,0.02,0.02,-17.33,-17.36,206.66,206.61,0.0,0.01
1630618926.89987707,101928379,0.09,0.14,-17.31,-17.34,206.69,206.48,0.0,0.01
1630618926.99983692,102028339,0.14,0.25,-17.32,-17.32,206.71,206.38,0.0,0.01
1630618927.09979701,102128299,0.16,0.32,-17.37,-17.34,206.74,206.33,0.0,0.01
1630618927.19975710,102228259,0.16,0.34,-17.43,-17.4,206.77,206.32,0.0,0.01
1630618927.29971695,102328219,0.14,0.32,-17.49,-17.47,206.8,206.36,0.0,0.01
1630618927.39967704,102428179,0.09,0.25,-17.52,-17.53,206.83,206.43,0.0,0.01
1630618927.50046992,102528972,0.04,0.18,-17.53,-17.57,206.86,206.52,0.0,0.01
1630618927.60043001,102628932,0.02,0.1,-17.52,-17.56,206.88,206.63,0.0,0.01
1630618927.70039010,102728892,0.0,0.05,-17.52,-17.54,206.91,206.74,0.0,0.01
1630618927.80034995,102828852,0.0,0.02,-17.53,-17.54,206.94,206.84,0.0,0.01
1630618927.90031004,102928812,0.03,0.02,-17.55,-17.55,206.97,206.92,0.0,0.01
1630618928.00027013,103028772,0.05,0.04,-17.6,-17.59,207.0,206.99,0.0,0.01
1630618928.10022998,103128732,0.06,0.06,-17.64,-17.63,207.03,207.04,0.0,0.01
1630618928.20019007,103228692,0.07,0.07,-17.66,-17.67,207.06,207.07,0.0,0.01
1630618928.30014992,103328652,0.08,0.09,-17.66,-17.69,207.09,207.08,0.0,0.01
1630618928.40011001,103428612,0.09,0.11,-17.66,-17.7,207.12,207.09,0.0,0.01
1630618928.50007010,103528572,0.13,0.14,-17.66,-17.68,207.15,207.09,0.0,0.01
1630618928.60002995,103628532,0.13,0.17,-17.67,-17.68,207.19,207.09,0.0,0.01
1630618928.69999003,103728492,0.11,0.19,-17.68,-17.68,207.22,207.09,0.0,0.01
1630618928.79995012,103828452,0.11,0.17,-17.69,-17.69,207.25,207.1,0.0,0.0
1630618928.89990997,103928412,0.11,0.17,-17.69,-17.69,207.28,207.12,0.0,0.0
1630618928.99987006,104028372,0.12,0.18,-17.72,-17.72,207.3,207.14,0.0,0.0
1630618929.09982991,104128332,0.12,0.18,-17.75,-17.75,207.33,207.17,0.0,0.0
1630618929.19979000,104228292,0.13,0.18,-17.76,-17.77,207.36,207.21,0.0,0.0
1630618929.29975009,104328252,0.13,0.17,-17.79,-17.79,207.39,207.25,0.0,0.0
1630618929.39970994,104428212,0.13,0.17,-17.8,-17.81,207.42,207.29,0.0,0.0
1630618929.49967003,104528172,0.13,0.16,-17.8,-17.82,207.44,207.33,0.0,0.0
1630618929.60046291,104628965,0.11,0.14,-17.79,-17.81,207.47,207.37,0.0,0.0
1630618929.70042300,104728925,0.1,0.13,-17.78,-17.8,207.49,207.4,0.0,0.0
1630618929.80038309,104828885,0.09,0.12,-17.8,-17.8,207.52,207.44,0.0,0.0
1630618929.90034294,104928845,0.1,0.11,-17.83,-17.81,207.54,207.47,0.0,0.0
1630618930.00030303,105028805,0.13,0.13,-17.86,-17.84,207.57,207.49,0.0,0.0
1630618930.10026312,105128765,0.18,0.17,-17.88,-17.88,207.6,207.52,0.0,0.0
1630618930.20022297,105228725,0.2,0.21,-17.9,-17.9,207.62,207.54,0.0,0.0
1630618930.30018306,105328685,0.2,0.24,-17.92,-17.93,207.65,207.57,0.0,0.0
1630618930.40014291,105428645,0.17,0.23,-17.94,-17.95,207.67,207.59,0.0,0.0
1630618930.50010300,105528605,0.15,0.2,-17.96,-17.97,207.7,207.61,0.0,0.0
1630618930.60006309,105628565,0.16,0.18,-17.99,-17.99,207.72,207.63,0.0,0.0
1630618930.70002294,105728525,0.18,0.19,-17.97,-18.0,207.74,207.65,0.0,0.0
1630618930.79998302,105828485,0.21,0.21,-17.95,-17.98,207.76,207.68,0.0,0.0
1630618930.89994311,105928445,0.21,0.23,-17.95,-17.96,207.78,207.7,0.0,0.0
1630618930.99990296,106028405,0.19,0.23,-17.96,-17.96,207.8,207.72,0.0,0.0
1630618931.09986305,106128365,0.19,0.22,-17.99,-17.98,207.82,207.74,0.0,0.0
1630618931.19982290,106228325,0.18,0.22,-18.04,-18.03,207.84,207.76,0.0,0.0
1630618931.29978299,106328285,0.17,0.2,-18.06,-18.07,207.86,207.78,0.0,0.0
1630618931.39974308,106428245,0.18,0.2,-18.07,-18.08,207.88,207.79,0.0,0.0
1630618931.49970293,106528205,0.18,0.2,-18.05,-18.08,207.89,207.81,0.0,0.0
1630618931.59966302,106628165,0.18,0.2,-18.03,-18.06,207.91,207.83,0.0,0.0
1630618931.70045590,106728958,0.18,0.2,-17.99,-18.02,207.92,207.85,0.0,0.0
1630618931.80041599,106828918,0.19,0.21,-17.98,-17.98,207.94,207.86,0.0,0.0
1630618931.90037608,106928878,0.18,0.22,-18.0,-17.97,207.95,207.87,0.0,0.0
1630618932.00033593,107028838,0.17,0.21,-18.05,-18.0,207.96,207.89,0.0,0.0
1630618932.10029602,107128798,0.15,0.18,-18.09,-18.06,207.98,207.9,0.0,0.0
1630618932.20025611,107228758,0.14,0.16,-18.11,-18.12,207.99,207.91,0.0,0.0
1630618932.30021596,107328718,0.13,0.14,-18.12,-18.15,208.0,207.92,0.0,0.0
1630618932.40017605,107428678,0.11,0.13,-18.11,-18.16,208.01,207.93,0.0,0.0
1630618932.50013590,107528638,0.11,0.12,-18.1,-18.15,208.02,207.95,0.0,0.0
1630618932.60009599,107628598,0.13,0.13,-18.09,-18.13,208.03,207.96,0.0,0.0
1630618932.70005608,107728558,0.13,0.15,-18.07,-18.1,208.03,207.97,0.0,0.0
1630618932.80001593,107828518,0.12,0.15,-18.07,-18.08,208.04,207.98,0.0,0.0
1630618932.89997602,107928478,0.09,0.13,-18.07,-18.07,208.05,207.99,0.0,0.0
1630618932.99993610,108028438,0.08,0.11,-18.1,-18.08,208.06,208.0,0.0,0.0
1630618933.09989595,108128398,0.09,0.1,-18.13,-18.1,208.06,208.01,0.0,0.0
1630618933.19985604,108228358,0.09,0.1,-18.15,-18.14,208.07,208.01,0.0,0.0
1630618933.29981613,108328318,0.09,0.1,-18.15,-18.17,208.08,208.02,0.0,0.0
1630618933.39977598,108428278,0.13,0.11,-18.16,-18.18,208.09,208.02,0.0,0.0
1630618933.49973607,108528238,0.17,0.15,-18.16,-18.18,208.09,208.03,0.0,0.0
1630618933.59969592,108628198,0.18,0.18,-18.14,-18.16,208.1,208.03,0.0,0.0
1630618933.69965601,108728158,0.17,0.19,-18.13,-18.14,208.11,208.04,0.0,0.0
1630618933.80044889,108828951,0.16,0.2,-18.11,-18.12,208.12,208.05,0.0,0.0
1630618933.90040898,108928911,0.14,0.18,-18.09,-18.1,208.13,208.06,0.0,0.0
1630618934.00036907,109028871,0.11,0.14,-18.08,-18.08,208.13,208.07,0.0,0.0
1630618934.10032892,109128831,0.12,0.13,-18.09,-18.08,208.14,208.08,0.0,0.0
1630618934.20028901,109228791,0.15,0.14,-18.1,-18.09,208.15,208.09,0.0,0.0
1630618934.30024910,109328751,0.18,0.17,-18.14,-18.13,208.15,208.09,0.0,0.0
1630618934.40020895,109428711,0.21,0.21,-18.17,-18.18,208.16,208.1,0.0,0.0
1630618934.50016904,109528671,0.22,0.24,-18.18,-18.2,208.17,208.11,0.0,0.0
1630618934.60012913,109628631,0.23,0.25,-18.14,-18.19,208.18,208.12,0.0,0.0
1630618934.70008898,109728591,0.21,0.25,-18.11,-18.15,208.19,208.13,0.0,0.0
1630618934.80004907,109828551,0.21,0.23,-18.11,-18.12,208.2,208.14,0.0,0.0
1630618934.90000892,109928511,0.21,0.22,-18.14,-18.13,208.21,208.15,0.0,0.0
1630618934.99996901,110028471,0.21,0.21,-18.18,-18.16,208.22,208.16,0.0,0.0
1630618935.09992909,110128431,0.22,0.22,-18.21,-18.2,208.22,208.17,0.0,0.0
1630618935.19988894,110228391,0.23,0.24,-18.25,-18.25,208.23,208.18,0.0,0.0
1630618935.29984903,110328351,0.22,0.25,-18.27,-18.29,208.24,208.19,0.0,0.0
1630618935.39980912,110428311,0.21,0.23,-18.25,-18.3,208.24,208.2,0.0,0.0
1630618935.49976897,110528271,0.2,0.22,-18.22,-18.26,208.25,208.21,0.0,0.0
1630618935.59972906,110628231,0.19,0.2,-18.22,-18.24,208.25,208.21,0.0,0.0
1630618935.69968891,110728191,0.17,0.18,-18.23,-18.24,208.26,208.22,0.0,0.0
1630618935.80048203,110828984,0.16,0.16,-18.23,-18.24,208.26,208.22,0.0,0.0
1630618935.90044212,110928944,0.15,0.14,-18.21,-18.24,208.26,208.23,0.0,0.0
1630618936.00040197,111028904,0.14,0.14,-18.19,-18.22,208.26,208.23,0.0,0.0
1630618936.10036206,111128864,0.15,0.14,-18.19,-18.21,208.27,208.23,0.0,0.0
1630618936.20032191,111228824,0.17,0.15,-18.21,-18.21,208.27,208.23,0.0,0.0
1630618936.30028200,111328784,0.18,0.18,-18.22,-18.22,208.27,208.23,0.0,0.0
1630618936.40024209,111428744,0.19,0.2,-18.21,-18.22,208.27,208.22,0.0,0.0
1630618936.50020194,111528704,0.16,0.2,-18.22,-18.22,208.27,208.22,0.0,0.0
1630618936.60016203,111628664,0.14,0.17,-18.21,-18.22,208.27,208.22,0.0,0.0
1630618936.70012212,111728624,0.14,0.15,-18.21,-18.21,208.27,208.22,0.0,0.0
1630618936.80008197,111828584,0.16,0.16,-18.2,-18.21,208.27,208.22,0.0,0.0
1630618936.90004206,111928544,0.17,0.17,-18.21,-18.2,208.27,208.22,0.0,0.0
1630618937.00000191,112028504,0.16,0.17,-18.24,-18.23,208.27,208.22,0.0,0.0
1630618937.09996200,112128464,0.17,0.17,-18.26,-18.26,208.27,208.23,0.0,0.0
1630618937.19992208,112228424,0.19,0.18,-18.26,-18.27,208.27,208.23,0.0,0.0
1630618937.29988194,112328384,0.21,0.21,-18.22,-18.26,208.27,208.23,0.0,0.0
1630618937.39984202,112428344,0.23,0.22,-18.22,-18.24,208.28,208.24,0.0,0.0
1630618937.49980211,112528304,0.23,0.23,-18.23,-18.24,208.28,208.24,0.0,0.0
1630618937.59976196,112628264,0.21,0.22,-18.23,-18.25,208.28,208.24,0.0,0.0
1630618937.69972205,112728224,0.18,0.2,-18.24,-18.25,208.28,208.25,0.0,0.0
1630618937.79968190,112828184,0.17,0.18,-18.23,-18.26,208.28,208.25,0.0,0.0
1630618937.90047503,112928977,0.17,0.16,-18.22,-18.26,208.28,208.25,0.0,0.0
1630618938.00043511,113028937,0.19,0.17,-18.21,-18.24,208.28,208.25,0.0,0.0
1630618938.10039496,113128897,0.21,0.19,-18.21,-18.22,208.28,208.25,0.0,0.0
1630618938.20035505,113228857,0.23,0.22,-18.21,-18.22,208.29,208.25,0.0,0.0
1630618938.30031490,113328817,0.23,0.25,-18.2,-18.2,208.29,208.25,0.0,0.0
1630618938.40027499,113428777,0.21,0.24,-18.2,-18.2,208.29,208.25,0.0,0.0
1630618938.50023508,113528737,0.18,0.21,-18.21,-18.21,208.29,208.25,0.0,0.0
1630618938.60019493,113628697,0.15,0.18,-18.2,-18.21,208.29,208.25,0.0,0.0
1630618938.70015502,113728657,0.14,0.15,-18.18,-18.2,208.29,208.25,0.0,0.0
1630618938.80011511,113828617,0.17,0.17,-18.17,-18.18,208.29,208.26,0.0,0.0
1630618938.90007496,113928577,0.21,0.21,-18.16,-18.17,208.29,208.26,0.0,0.0
1630618939.00003505,114028537,0.24,0.24,-18.16,-18.16,208.29,208.26,0.0,0.0
1630618939.09999490,114128497,0.22,0.25,-18.18,-18.16,208.29,208.26,0.0,0.0
1630618939.19995499,114228457,0.24,0.26,-18.22,-18.2,208.3,208.26,0.0,0.0
1630618939.29991508,114328417,0.26,0.27,-18.24,-18.24,208.3,208.26,0.0,0.0
1630618939.39987493,114428377,0.26,0.27,-18.26,-18.27,208.3,208.26,0.0,0.0
1630618939.49983501,114528337,0.28,0.28,-18.29,-18.3,208.3,208.27,0.0,0.0
1630618939.59979510,114628297,0.27,0.28,-18.29,-18.32,208.31,208.27,0.0,0.0
1630618939.69975495,114728257,0.26,0.26,-18.29,-18.31,208.31,208.27,0.0,0.0
1630618939.79971504,114828217,0.23,0.24,-18.27,-18.3,208.31,208.28,0.0,0.0
1630618939.89967513,114928177,0.21,0.21,-18.25,-18.27,208.31,208.28,0.0,0.0
1630618940.00046802,115028970,0.2,0.19,-18.23,-18.25,208.3,208.28,0.0,0.0
1630618940.10042810,115128930,0.2,0.19,-18.23,-18.23,208.3,208.28,0.0,0.0
1630618940.20038795,115228890,0.22,0.19,-18.24,-18.23,208.3,208.28,0.0,0.0
1630618940.30034804,115328850,0.25,0.22,-18.25,-18.24,208.3,208.28,0.0,0.0
1630618940.40030789,115428810,0.27,0.25,-18.26,-18.26,208.3,208.28,0.0,0.0
1630618940.50026798,115528770,0.29,0.28,-18.27,-18.27,208.3,208.27,0.0,0.0
1630618940.60022807,115628730,0.26,0.28,-18.28,-18.29,208.3,208.27,0.0,0.0
1630618940.70018792,115728690,0.23,0.25,-18.26,-18.29,208.3,208.27,0.0,0.0
1630618940.80014801,115828650,0.24,0.24,-18.24,-18.27,208.3,208.27,0.0,0.0
1630618940.90010810,115928610,0.27,0.25,-18.25,-18.26,208.3,208.27,0.0,0.0
1630618941.00006795,116028570,0.28,0.28,-18.25,-18.25,208.3,208.27,0.0,0.0
1630618941.10002804,116128530,0.25,0.27,-18.27,-18.27,208.3,208.27,0.0,0.0
1630618941.19998813,116228490,0.26,0.27,-18.3,-18.3,208.3,208.28,0.0,0.0
1630618941.29994798,116328450,0.25,0.27,-18.28,-18.31,208.3,208.28,0.0,0.0
1630618941.39990807,116428410,0.23,0.25,-18.26,-18.3,208.3,208.28,0.0,0.0
1630618941.49986792,116528370,0.21,0.23,-18.25,-18.27,208.3,208.28,0.0,0.0
1630618941.59982800,116628330,0.24,0.22,-18.25,-18.26,208.3,208.28,0.0,0.0
1630618941.69978809,116728290,0.26,0.24,-18.24,-18.25,208.3,208.29,0.0,0.0
1630618941.79974794,116828250,0.25,0.25,-18.23,-18.23,208.31,208.29,0.0,0.0
1630618941.89970803,116928210,0.26,0.26,-18.23,-18.22,208.31,208.29,0.0,0.0
1630618941.99966812,117028170,0.27,0.27,-18.25,-18.23,208.31,208.29,0.0,0.0
1630618942.10046101,117128963,0.29,0.28,-18.24,-18.25,208.31,208.29,0.0,0.0
1630618942.20042109,117228923,0.29,0.29,-18.24,-18.25,208.31,208.29,0.0,0.0
1630618942.30038095,117328883,0.3,0.3,-18.26,-18.26,208.31,208.28,0.0,0.0
1630618942.40034103,117428843,0.31,0.31,-18.28,-18.29,208.31,208.28,0.0,0.0
1630618942.50030112,117528803,0.29,0.32,-18.25,-18.29,208.31,208.28,0.0,0.0
1630618942.60026097,117628763,0.28,0.31,-18.23,-18.28,208.32,208.29,0.0,0.0
1630618942.70022106,117728723,0.27,0.29,-18.22,-18.26,208.32,208.29,0.0,0.0
1630618942.80018091,117828683,0.26,0.26,-18.23,-18.25,208.32,208.29,0.0,0.0
1630618942.90014100,117928643,0.24,0.24,-18.25,-18.25,208.32,208.29,0.0,0.0
1630618943.00010109,118028603,0.24,0.22,-18.26,-18.27,208.32,208.3,0.0,0.0
1630618943.10006094,118128563,0.25,0.23,-18.25,-18.27,208.32,208.3,0.0,0.0
1630618943.20002103,118228523,0.26,0.24,-18.24,-18.25,208.32,208.3,0.0,0.0
1630618943.29998112,118328483,0.28,0.27,-18.22,-18.23,208.31,208.3,0.0,0.0
1630618943.39994097,118428443,0.29,0.29,-18.22,-18.23,208.31,208.3,0.0,0.0
1630618943.49990106,118528403,0.28,0.3,-18.24,-18.23,208.31,208.3,0.0,0.0
1630618943.59986091,118628363,0.27,0.29,-18.27,-18.26,208.31,208.29,0.0,0.0
1630618943.69982100,118728323,0.25,0.27,-18.28,-18.29,208.31,208.29,0.0,0.0
1630618943.79978108,118828283,0.22,0.23,-18.27,-18.29,208.31,208.29,0.0,0.0
1630618943.89974093,118928243,0.22,0.22,-18.28,-18.28,208.3,208.29,0.0,0.0
1630618943.99970102,119028203,0.21,0.2,-18.3,-18.29,208.3,208.29,0.0,0.0
1630618944.09966111,119128163,0.18,0.19,-18.31,-18.3,208.3,208.28,0.0,0.0
1630618944.20045400,119228956,0.17,0.17,-18.32,-18.32,208.3,208.28,0.0,0.0
1630618944.30041409,119328916,0.18,0.16,-18.27,-18.31,208.29,208.28,0.0,0.0
1630618944.40037394,119428876,0.23,0.2,-18.23,-18.26,208.29,208.28,0.0,0.0
1630618944.50033402,119528836,0.28,0.26,-18.24,-18.25,208.29,208.27,0.0,0.0
1630618944.60029411,119628796,0.28,0.29,-18.26,-18.26,208.29,208.27,0.0,0.0
1630618944.70025396,119728756,0.28,0.3,-18.25,-18.27,208.29,208.26,0.0,0.0
1630618944.80021405,119828716,0.28,0.29,-18.21,-18.24,208.29,208.26,0.0,0.0
1630618944.90017390,119928676,0.29,0.3,-18.18,-18.21,208.29,208.26,0.0,0.0
1630618945.00013399,120028636,0.31,0.31,-18.19,-18.2,208.29,208.27,0.0,0.0
1630618945.10009408,120128596,0.31,0.32,-18.21,-18.21,208.3,208.27,0.0,0.0
1630618945.20005393,120228556,0.28,0.3,-18.25,-18.24,208.3,208.28,0.0,0.0
1630618945.30001402,120328516,0.27,0.28,-18.28,-18.28,208.3,208.28,0.0,0.0
1630618945.39997411,120428476,0.29,0.27,-18.28,-18.3,208.3,208.29,0.0,0.0
1630618945.49993396,120528436,0.32,0.28,-18.24,-18.29,208.3,208.29,0.0,0.0
1630618945.59989405,120628396,0.36,0.32,-18.22,-18.25,208.31,208.3,0.0,0.0
1630618945.69985390,120728356,0.35,0.35,-18.23,-18.23,208.31,208.3,0.0,0.0
1630618945.79981399,120828316,0.32,0.34,-18.26,-18.25,208.31,208.3,0.0,0.0
1630618945.89977407,120928276,0.3,0.32,-18.27,-18.27,208.32,208.3,0.0,0.0
1630618945.99973392,121028236,0.32,0.31,-18.28,-18.29,208.32,208.3,0.0,0.0
1630618946.09969401,121128196,0.31,0.31,-18.28,-18.3,208.32,208.3,0.0,0.0
1630618946.19965410,121228156,0.28,0.29,-18.26,-18.29,208.32,208.31,0.0,0.0
1630618946.30044699,121328949,0.27,0.27,-18.24,-18.26,208.33,208.31,0.0,0.0
1630618946.40040708,121428909,0.26,0.25,-18.23,-18.24,208.33,208.31,0.0,0.0
1630618946.50036693,121528869,0.28,0.27,-18.22,-18.22,208.33,208.32,0.0,0.0
1630618946.60032701,121628829,0.33,0.3,-18.2,-18.2,208.33,208.32,0.0,0.0
1630618946.70028710,121728789,0.36,0.35,-18.21,-18.19,208.33,208.32,0.0,0.0
1630618946.80024695,121828749,0.36,0.38,-18.24,-18.22,208.34,208.32,0.0,0.0
1630618946.90020704,121928709,0.33,0.36,-18.3,-18.27,208.34,208.32,0.0,0.0
1630618947.00016713,122028669,0.31,0.33,-18.34,-18.34,208.34,208.32,0.0,0.0
1630618947.10012698,122128629,0.29,0.31,-18.35,-18.37,208.34,208.32,0.0,0.0
1630618947.20008707,122228589,0.26,0.27,-18.34,-18.37,208.34,208.32,0.0,0.0
1630618947.30004692,122328549,0.26,0.25,-18.32,-18.36,208.34,208.33,0.0,0.0
1630618947.40000701,122428509,0.3,0.26,-18.26,-18.31,208.34,208.33,0.0,0.0
1630618947.49996710,122528469,0.34,0.3,-18.2,-18.24,208.34,208.33,0.0,0.0
1630618947.59992695,122628429,0.37,0.35,-18.19,-18.2,208.34,208.33,0.0,0.0
1630618947.69988704,122728389,0.36,0.37,-18.22,-18.2,208.34,208.33,0.0,0.0
1630618947.79984713,122828349,0.33,0.35,-18.25,-18.23,208.35,208.33,0.0,0.0
1630618947.89980698,122928309,0.29,0.32,-18.29,-18.27,208.34,208.33,0.0,0.0
1630618947.99976707,123028269,0.24,0.26,-18.31,-18.31,208.34,208.33,0.0,0.0
1630618948.09972692,123128229,0.25,0.22,-18.31,-18.33,208.34,208.34,0.0,0.0
1630618948.19968700,123228189,0.28,0.24,-18.28,-18.32,208.34,208.34,0.0,0.0
1630618948.30048013,123328982,0.31,0.27,-18.29,-18.31,208.34,208.33,0.0,0.0
1630618948.40043998,123428942,0.33,0.31,-18.29,-18.31,208.34,208.33,0.0,0.0
1630618948.50040007,123528902,0.36,0.35,-18.28,-18.29,208.33,208.33,0.0,0.0
1630618948.60035992,123628862,0.4,0.39,-18.29,-18.29,208.34,208.33,0.0,0.0
1630618948.70032001,123728822,0.39,0.41,-18.29,-18.29,208.34,208.32,0.0,0.0
1630618948.80028009,123828782,0.35,0.39,-18.28,-18.29,208.34,208.32,0.0,0.0
1630618948.90023994,123928742,0.31,0.34,-18.27,-18.28,208.34,208.31,0.0,0.0
1630618949.00020003,124028702,0.3,0.3,-18.26,-18.27,208.34,208.31,0.0,0.0
1630618949.10016012,124128662,0.3,0.28,-18.25,-18.27,208.33,208.32,0.0,0.0
1630618949.20011997,124228622,0.32,0.28,-18.25,-18.26,208.34,208.32,0.0,0.0
1630618949.30008006,124328582,0.33,0.3,-18.28,-18.27,208.33,208.32,0.0,0.0
1630618949.40003991,124428542,0.32,0.31,-18.28,-18.28,208.34,208.32,0.0,0.0
1630618949.50000000,124528502,0.34,0.33,-18.26,-18.28,208.34,208.33,0.0,0.0
1630618949.59996009,124628462,0.36,0.35,-18.24,-18.26,208.34,208.33,0.0,0.0
1630618949.69991994,124728422,0.38,0.37,-18.22,-18.24,208.34,208.33,0.0,0.0
1630618949.79988003,124828382,0.42,0.4,-18.21,-18.22,208.35,208.33,0.0,0.0
1630618949.89984012,124928342,0.43,0.44,-18.21,-18.21,208.35,208.34,0.0,0.0
