timestamp,TimeUS,DesRoll,Roll,DesPitch,Pitch,DesYaw,Yaw,ErrRP,ErrYaw
1630880664.00000000,49628474,0.0,0.08,0.0,0.07,352.88,352.89,0.0,0.0
1630880664.09996009,49728434,0.0,0.08,0.0,0.07,352.88,352.89,0.0,0.0
1630880664.19991994,49828394,0.0,0.08,0.0,0.07,352.88,352.89,0.0,0.0
1630880664.29988003,49928354,0.0,0.08,0.0,0.07,352.88,352.89,0.0,0.0
1630880664.39984012,50028314,0.0,0.08,0.0,0.07,352.88,352.89,0.0,0.0
1630880664.49979997,50128274,0.0,0.08,0.0,0.07,352.88,352.89,0.0,0.0
1630880664.59976006,50228234,0.0,0.08,0.0,0.07,352.88,352.89,0.0,0.0
1630880664.69971991,50328194,0.0,0.08,0.0,0.07,352.89,352.9,0.0,0.0
1630880664.79967999,50428154,0.0,0.08,0.0,0.07,352.89,352.9,0.0,0.0
1630880664.90047312,50528947,0.0,0.08,0.0,0.07,352.89,352.9,0.0,0.0
1630880665.00043297,50628907,0.0,0.08,0.0,0.07,352.89,352.9,0.0,0.0
1630880665.10039306,50728867,0.0,0.08,0.0,0.07,352.89,352.9,0.0,0.0
1630880665.20035291,50828827,0.0,0.08,0.0,0.07,352.89,352.9,0.0,0.0
1630880665.30031300,50928787,0.0,0.08,0.0,0.07,352.89,352.9,0.0,0.0
1630880665.40027308,51028747,0.0,0.08,0.0,0.07,352.89,352.9,0.0,0.0
1630880665.50023293,51128707,0.0,0.08,0.0,0.07,352.89,352.9,0.0,0.0
1630880665.60019302,51228667,0.0,0.08,0.0,0.07,352.89,352.9,0.0,0.0
1630880665.70015311,51328627,0.0,0.08,0.0,0.07,352.89,352.9,0.0,0.0
1630880665.80011296,51428587,0.0,0.08,0.0,0.07,352.89,352.9,0.0,0.0
1630880665.90007305,51528547,0.0,0.08,0.0,0.07,352.89,352.9,0.0,0.0
1630880666.00003290,51628507,0.0,0.08,0.0,0.07,352.89,352.9,0.0,0.0
1630880666.09999299,51728467,0.0,0.08,0.0,0.07,352.89,352.9,0.0,0.0
1630880666.19995308,51828427,0.0,0.08,0.0,0.07,352.89,352.9,0.0,0.0
1630880666.29991293,51928387,0.0,0.08,0.0,0.07,352.89,352.9,0.0,0.0
1630880666.39987302,52028347,0.0,0.08,0.0,0.07,352.89,352.9,0.0,0.0
1630880666.49983311,52128307,0.0,0.08,0.0,0.07,352.89,352.9,0.0,0.0
1630880666.59979296,52228267,0.0,0.09,0.0,0.07,352.89,352.9,0.0,0.0
1630880666.69975305,52328227,0.0,0.08,0.0,0.07,352.89,352.9,0.0,0.0
1630880666.79971290,52428187,0.0,0.08,0.0,0.07,352.89,352.9,0.0,0.0
1630880666.90050602,52528980,0.0,0.08,0.0,0.07,352.89,352.9,0.0,0.0
1630880667.00046611,52628940,-0.04,0.09,-0.05,0.07,352.89,352.9,0.0,0.0
1630880667.10042596,52728900,-0.11,0.09,-0.12,0.07,352.89,352.9,0.0,0.0
1630880667.20038605,52828860,-0.15,0.09,-0.16,0.07,352.89,352.9,0.0,0.0
1630880667.30034590,52928820,-0.18,0.09,-0.19,0.07,352.89,352.9,0.0,0.0
1630880667.40030599,53028780,-0.2,0.09,-0.21,0.07,352.89,352.9,0.0,0.0
1630880667.50026608,53128740,-0.22,0.09,-0.24,0.07,352.89,352.9,0.0,0.0
1630880667.60022593,53228700,-0.24,0.09,-0.26,0.07,352.89,352.91,0.0,0.0
1630880667.70018601,53328660,-0.26,0.09,-0.28,0.07,352.89,352.91,0.0,0.0
1630880667.80014610,53428620,-0.28,0.09,-0.29,0.07,352.89,352.91,0.0,0.0
1630880667.90010595,53528580,-0.3,0.09,-0.3,0.07,352.89,352.91,0.0,0.0
1630880668.00006604,53628540,-0.33,0.09,-0.3,0.08,352.89,352.91,0.0,0.0
1630880668.10002589,53728500,-0.35,0.09,-0.32,0.08,352.89,352.91,0.0,0.0
1630880668.19998598,53828460,-0.37,0.09,-0.33,0.08,352.89,352.91,0.0,0.0
1630880668.29994607,53928420,-0.4,0.09,-0.35,0.08,352.89,352.91,0.0,0.0
1630880668.39990592,54028380,-0.43,0.09,-0.37,0.08,352.89,352.91,0.0,0.0
1630880668.49986601,54128340,-0.48,0.09,-0.39,0.08,352.89,352.91,0.0,0.0
1630880668.59982610,54228300,-0.5,-0.04,-0.43,-0.04,352.89,352.91,0.0,0.0
1630880668.69978595,54328260,-0.5,-0.36,-0.45,-0.34,352.89,352.91,0.0,0.0
1630880668.79974604,54428220,-0.43,-0.63,-0.38,-0.58,352.89,352.91,0.0,0.0
1630880668.89970589,54528180,-0.3,-0.73,-0.25,-0.66,352.89,352.91,0.0,0.0
1630880669.00049901,54628973,-0.14,-0.67,-0.09,-0.58,352.89,352.9,0.0,0.0
1630880669.10045910,54728933,0.04,-0.5,0.05,-0.42,352.89,352.9,0.0,0.0
1630880669.20041895,54828893,0.26,-0.25,0.2,-0.23,352.89,352.9,0.0,0.0
1630880669.30037904,54928853,0.4,0.0,0.31,-0.03,352.89,352.89,0.0,0.0
1630880669.40033889,55028813,0.45,0.16,0.36,0.09,352.89,352.89,0.0,0.0
1630880669.50029898,55128773,0.41,0.23,0.36,0.16,352.89,352.89,0.0,0.0
1630880669.60025907,55228733,0.36,0.2,0.32,0.15,352.89,352.89,0.0,0.0
1630880669.70021892,55328693,0.32,0.15,0.33,0.14,352.89,352.89,0.0,0.0
1630880669.80017900,55428653,0.32,0.1,0.37,0.16,352.89,352.89,0.0,0.0
1630880669.90013909,55528613,0.35,0.12,0.37,0.19,352.89,352.89,0.0,0.0
1630880670.00009894,55628573,0.39,0.17,0.37,0.2,352.89,352.89,0.0,0.0
1630880670.10005903,55728533,0.39,0.21,0.35,0.21,352.89,352.89,0.0,0.0
1630880670.20001912,55828493,0.37,0.23,0.35,0.21,352.89,352.89,0.0,0.0
1630880670.29997897,55928453,0.37,0.24,0.35,0.22,352.76,352.76,0.0,0.0
1630880670.39993906,56028413,0.37,0.25,0.35,0.22,352.76,352.76,0.0,0.0
1630880670.49989891,56128373,0.35,0.24,0.34,0.23,352.76,352.76,0.0,0.0
1630880670.59985900,56228333,0.33,0.22,0.31,0.21,352.76,352.77,0.0,0.0
1630880670.69981909,56328293,0.3,0.2,0.28,0.19,352.76,352.77,0.0,0.0
1630880670.79977894,56428253,0.26,0.18,0.28,0.17,352.76,352.77,0.0,0.0
1630880670.89973903,56528213,0.25,0.15,0.27,0.17,352.76,352.77,0.0,0.0
1630880670.99969912,56628173,0.25,0.15,0.25,0.17,352.76,352.77,0.0,0.0
1630880671.10049200,56728966,0.25,0.17,0.22,0.16,352.76,352.77,0.0,0.0
1630880671.20045209,56828926,0.24,0.17,0.2,0.14,352.76,352.77,0.0,0.0
1630880671.30041194,56928886,0.2,0.16,0.2,0.13,352.76,352.77,0.0,0.0
1630880671.40037203,57028846,0.17,0.13,0.19,0.13,352.76,352.77,0.0,0.0
1630880671.50033212,57128806,0.13,0.09,0.2,0.15,352.76,352.77,0.0,0.0
1630880671.60029197,57228766,0.11,0.06,0.19,0.16,352.76,352.77,0.0,0.0
1630880671.70025206,57328726,0.11,0.06,0.19,0.17,352.76,352.77,0.0,0.0
1630880671.80021191,57428686,0.1,0.06,0.19,0.17,352.76,352.77,0.0,0.0
1630880671.90017200,57528646,0.07,0.04,0.19,0.18,352.76,352.77,0.0,0.0
1630880672.00013208,57628606,0.06,0.02,0.16,0.16,352.76,352.76,0.0,0.0
1630880672.10009193,57728566,0.1,0.04,0.15,0.15,352.76,352.76,0.0,0.0
1630880672.20005202,57828526,0.1,0.07,0.16,0.14,352.76,352.76,0.0,0.0
1630880672.30001211,57928486,0.1,0.09,0.15,0.14,352.76,352.76,0.0,0.0
1630880672.39997196,58028446,0.08,0.09,0.12,0.12,352.76,352.76,0.0,0.0
1630880672.49993205,58128406,0.04,0.06,0.09,0.08,352.76,352.76,0.0,0.0
1630880672.59989190,58228366,0.02,0.02,0.07,0.05,352.76,352.76,0.0,0.0
1630880672.69985199,58328326,0.0,0.0,0.06,0.03,352.76,352.76,0.0,0.0
1630880672.79981208,58428286,0.01,-0.02,0.07,0.02,352.76,352.76,0.0,0.0
1630880672.89977193,58528246,0.03,-0.01,0.09,0.03,352.76,352.77,0.0,0.0
1630880672.99973202,58628206,0.04,0.0,0.09,0.05,352.76,352.77,0.0,0.0
1630880673.09969211,58728166,0.07,0.02,0.11,0.07,352.76,352.77,0.0,0.0
1630880673.20048499,58828959,0.07,0.04,0.11,0.09,352.76,352.77,0.0,0.0
1630880673.30044508,58928919,0.09,0.07,0.07,0.08,352.76,352.77,0.0,0.0
1630880673.40040493,59028879,0.12,0.1,0.02,0.03,352.76,352.77,0.0,0.0
1630880673.50036502,59128839,0.14,0.13,0.0,0.0,352.76,352.77,0.0,0.0
1630880673.60032511,59228799,0.15,0.14,-0.01,-0.02,352.76,352.77,0.0,0.0
1630880673.70028496,59328759,0.16,0.15,0.01,-0.01,352.76,352.77,0.0,0.0
1630880673.80024505,59428719,0.17,0.17,0.04,0.01,352.76,352.77,0.0,0.0
1630880673.90020490,59528679,0.16,0.17,0.04,0.04,352.76,352.77,0.0,0.0
1630880674.00016499,59628639,0.16,0.17,0.04,0.05,352.76,352.77,0.0,0.0
1630880674.10012507,59728599,0.12,0.15,0.03,0.05,352.76,352.77,0.0,0.0
1630880674.20008492,59828559,0.1,0.11,0.02,0.04,352.76,352.77,0.0,0.0
1630880674.30004501,59928519,0.1,0.1,0.01,0.02,352.76,352.77,0.0,0.0
1630880674.40000510,60028479,0.13,0.11,0.0,0.0,352.76,352.77,0.0,0.0
1630880674.49996495,60128439,0.12,0.12,0.0,-0.02,352.76,352.76,0.0,0.0
1630880674.59992504,60228399,0.11,0.11,0.02,-0.02,352.76,352.76,0.0,0.0
1630880674.69988489,60328359,0.11,0.1,0.07,0.02,352.76,352.76,0.0,0.0
1630880674.79984498,60428319,0.11,0.09,0.11,0.07,352.76,352.76,0.0,0.0
1630880674.89980507,60528279,0.1,0.09,0.13,0.11,352.76,352.76,0.0,0.0
1630880674.99976492,60628239,0.1,0.09,0.13,0.13,352.76,352.76,0.0,0.0
1630880675.09972501,60728199,0.12,0.09,0.11,0.12,352.76,352.76,0.0,0.0
1630880675.19968510,60828159,0.16,0.11,0.13,0.12,352.76,352.76,0.0,0.0
1630880675.30047798,60928952,0.16,0.14,0.1,0.12,352.76,352.76,0.0,0.0
1630880675.40043807,61028912,0.13,0.14,0.09,0.1,352.76,352.77,0.0,0.0
1630880675.50039792,61128872,0.1,0.11,0.1,0.09,352.76,352.77,0.0,0.0
1630880675.60035801,61228832,0.12,0.1,0.12,0.1,352.76,352.77,0.0,0.0
1630880675.70031810,61328792,0.15,0.12,0.13,0.12,352.76,352.77,0.0,0.0
1630880675.80027795,61428752,0.16,0.14,0.13,0.13,352.76,352.77,0.0,0.0
1630880675.90023804,61528712,0.15,0.15,0.13,0.13,352.76,352.77,0.0,0.0
1630880676.00019789,61628672,0.15,0.14,0.12,0.14,352.76,352.78,0.0,0.0
1630880676.10015798,61728632,0.16,0.15,0.13,0.14,352.76,352.78,0.0,0.0
1630880676.20011806,61828592,0.16,0.15,0.14,0.14,352.76,352.78,0.0,0.0
1630880676.30007792,61928552,0.18,0.16,0.12,0.13,352.76,352.78,0.0,0.0
1630880676.40003800,62028512,0.17,0.17,0.06,0.08,352.76,352.78,0.0,0.0
1630880676.49999809,62128472,0.13,0.14,0.04,0.04,352.76,352.78,0.0,0.0
1630880676.59995794,62228432,0.13,0.11,0.06,0.02,352.76,352.77,0.0,0.0
1630880676.69991803,62328392,0.17,0.13,0.09,0.04,352.76,352.77,0.0,0.0
1630880676.79987812,62428352,0.19,0.15,0.12,0.07,352.76,352.77,0.0,0.0
1630880676.89983797,62528312,0.19,0.17,0.14,0.11,352.76,352.77,0.0,0.0
1630880676.99979806,62628272,0.16,0.17,0.12,0.12,352.76,352.77,0.0,0.0
1630880677.09975791,62728232,0.11,0.14,0.1,0.11,352.76,352.77,0.0,0.0
1630880677.19971800,62828192,0.09,0.11,0.08,0.09,352.76,352.77,0.0,0.0
1630880677.30051112,62928985,0.09,0.09,0.07,0.08,352.76,352.77,0.0,0.0
1630880677.40047097,63028945,0.08,0.08,0.06,0.07,352.76,352.77,0.0,0.0
1630880677.50043106,63128905,0.06,0.06,0.08,0.07,352.76,352.76,0.0,0.0
1630880677.60039091,63228865,0.05,0.05,0.08,0.07,352.76,352.76,0.0,0.0
1630880677.70035100,63328825,0.04,0.04,0.13,0.09,352.76,352.76,0.0,0.0
1630880677.80031109,63428785,0.05,0.03,0.18,0.13,352.76,352.76,0.0,0.0
1630880677.90027094,63528745,0.07,0.05,0.19,0.16,352.76,352.77,0.0,0.0
1630880678.00023103,63628705,0.09,0.07,0.19,0.18,352.76,352.77,0.0,0.0
1630880678.10019112,63728665,0.11,0.09,0.19,0.19,352.76,352.77,0.0,0.0
1630880678.20015097,63828625,0.11,0.1,0.18,0.19,352.76,352.77,0.0,0.0
1630880678.30011106,63928585,0.12,0.11,0.15,0.18,352.76,352.77,0.0,0.0
1630880678.40007091,64028545,0.11,0.11,0.12,0.15,352.76,352.77,0.0,0.0
1630880678.50003099,64128505,0.1,0.1,0.13,0.12,352.76,352.77,0.0,0.0
1630880678.59999108,64228465,0.08,0.09,0.12,0.12,352.76,352.77,0.0,0.0
1630880678.69995093,64328425,0.07,0.07,0.09,0.1,352.76,352.77,0.0,0.0
1630880678.79991102,64428385,0.08,0.05,0.07,0.08,352.76,352.77,0.0,0.0
1630880678.89987111,64528345,0.08,0.06,0.06,0.06,352.76,352.77,0.0,0.0
1630880678.99983096,64628305,0.11,0.07,0.06,0.05,352.76,352.77,0.0,0.0
1630880679.09979105,64728265,0.13,0.11,0.06,0.05,352.76,352.76,0.0,0.0
1630880679.19975090,64828225,0.12,0.13,0.06,0.05,352.76,352.76,0.0,0.0
1630880679.29971099,64928185,0.14,0.15,0.05,0.05,352.76,352.76,0.0,0.0
1630880679.40050411,65028978,0.14,0.16,0.07,0.05,352.76,352.76,0.0,0.0
1630880679.50046396,65128938,0.13,0.15,0.08,0.07,352.76,352.76,0.0,0.0
1630880679.60042405,65228898,0.15,0.15,0.09,0.08,352.76,352.76,0.0,0.0
1630880679.70038390,65328858,0.12,0.14,0.1,0.1,352.76,352.76,0.0,0.0
1630880679.80034399,65428818,0.06,0.09,0.14,0.12,352.76,352.76,0.0,0.0
1630880679.90030408,65528778,0.04,0.04,0.16,0.16,352.76,352.76,0.0,0.0
1630880680.00026393,65628738,0.03,0.0,0.17,0.19,352.76,352.76,0.0,0.0
1630880680.10022402,65728698,0.05,0.0,0.12,0.17,352.76,352.77,0.0,0.0
1630880680.20018411,65828658,0.06,0.01,0.1,0.13,352.76,352.77,0.0,0.0
1630880680.30014396,65928618,0.07,0.02,0.08,0.1,352.76,352.77,0.0,0.0
1630880680.40010405,66028578,0.08,0.05,0.05,0.06,352.76,352.77,0.0,0.0
1630880680.50006390,66128538,0.07,0.07,0.02,0.02,352.76,352.77,0.0,0.0
1630880680.60002398,66228498,0.05,0.07,0.03,0.0,352.76,352.77,0.0,0.0
1630880680.69998407,66328458,0.04,0.06,0.06,0.01,352.76,352.77,0.0,0.0
1630880680.79994392,66428418,0.05,0.05,0.09,0.05,352.76,352.77,0.0,0.0
1630880680.89990401,66528378,0.04,0.05,0.12,0.09,352.76,352.77,0.0,0.0
1630880680.99986410,66628338,0.04,0.05,0.12,0.11,352.76,352.77,0.0,0.0
1630880681.09982395,66728298,0.04,0.05,0.12,0.12,352.76,352.77,0.0,0.0
1630880681.19978404,66828258,0.04,0.04,0.11,0.12,352.76,352.76,0.0,0.0
1630880681.29974389,66928218,0.06,0.04,0.08,0.1,352.76,352.76,0.0,0.0
1630880681.39970398,67028178,0.05,0.04,0.05,0.06,352.76,352.76,0.0,0.0
1630880681.50049710,67128971,0.05,0.04,0.05,0.04,352.76,352.76,0.0,0.0
1630880681.60045695,67228931,0.06,0.05,0.08,0.05,352.76,352.76,0.0,0.0
1630880681.70041704,67328891,0.13,0.09,0.12,0.09,352.76,352.76,0.0,0.0
1630880681.80037689,67428851,0.17,0.14,0.14,0.13,352.76,352.75,0.0,0.0
1630880681.90033698,67528811,0.2,0.18,0.13,0.14,352.76,352.75,0.0,0.0
1630880682.00029707,67628771,0.18,0.2,0.13,0.13,352.76,352.75,0.0,0.0
1630880682.10025692,67728731,0.17,0.19,0.13,0.13,352.76,352.75,0.0,0.0
1630880682.20021701,67828691,0.17,0.18,0.12,0.11,352.76,352.76,0.0,0.0
1630880682.30017710,67928651,0.14,0.16,0.1,0.09,352.76,352.76,0.0,0.0
1630880682.40013695,68028611,0.12,0.13,0.13,0.09,352.76,352.76,0.0,0.0
1630880682.50009704,68128571,0.09,0.1,0.14,0.11,352.76,352.77,0.0,0.0
1630880682.60005689,68228531,0.1,0.08,0.15,0.13,352.76,352.77,0.0,0.0
1630880682.70001698,68328491,0.14,0.1,0.17,0.15,352.76,352.78,0.0,0.0
1630880682.79997706,68428451,0.18,0.14,0.16,0.17,352.76,352.78,0.0,0.0
1630880682.89993691,68528411,0.21,0.19,0.16,0.17,352.76,352.78,0.0,0.0
1630880682.99989700,68628371,0.2,0.21,0.15,0.16,352.76,352.77,0.0,0.0
1630880683.09985709,68728331,0.18,0.21,0.11,0.13,352.76,352.77,0.0,0.0
1630880683.19981694,68828291,0.14,0.17,0.08,0.09,352.76,352.77,0.0,0.0
1630880683.29977703,68928251,0.14,0.13,0.08,0.06,352.76,352.76,0.0,0.0
1630880683.39973712,69028211,0.14,0.13,0.11,0.08,352.76,352.76,0.0,0.0
1630880683.49969697,69128171,0.15,0.13,0.13,0.11,352.76,352.76,0.0,0.0
1630880683.60049009,69228964,0.16,0.15,0.13,0.12,352.76,352.76,0.0,0.0
1630880683.70044994,69328924,0.16,0.16,0.15,0.14,352.76,352.76,0.0,0.0
1630880683.80041003,69428884,0.12,0.14,0.14,0.15,352.76,352.76,0.0,0.0
1630880683.90037012,69528844,0.1,0.11,0.12,0.12,352.76,352.76,0.0,0.0
1630880684.00032997,69628804,0.13,0.11,0.1,0.1,352.76,352.76,0.0,0.0
1630880684.10029006,69728764,0.16,0.13,0.08,0.08,352.76,352.76,0.0,0.0
1630880684.20024991,69828724,0.16,0.16,0.07,0.06,352.76,352.76,0.0,0.0
1630880684.30021000,69928684,0.14,0.16,0.1,0.07,352.76,352.76,0.0,0.0
1630880684.40017009,70028644,0.1,0.13,0.11,0.08,352.76,352.76,0.0,0.0
1630880684.50012994,70128604,0.09,0.11,0.07,0.08,352.76,352.76,0.0,0.0
1630880684.60009003,70228564,0.11,0.09,0.05,0.06,352.76,352.77,0.0,0.0
1630880684.70005012,70328524,0.16,0.12,0.03,0.03,352.76,352.77,0.0,0.0
1630880684.80000997,70428484,0.17,0.16,0.02,0.01,352.76,352.77,0.0,0.0
1630880684.89997005,70528444,0.16,0.17,0.02,0.0,352.76,352.77,0.0,0.0
1630880684.99992990,70628404,0.14,0.15,0.04,0.01,352.76,352.77,0.0,0.0
1630880685.09988999,70728364,0.12,0.13,0.03,0.02,352.76,352.77,0.0,0.0
1630880685.19985008,70828324,0.1,0.1,0.01,0.01,352.76,352.77,0.0,0.0
1630880685.29980993,70928284,0.09,0.09,0.02,0.02,352.76,352.77,0.0,0.0
1630880685.39977002,71028244,0.09,0.08,0.04,0.03,352.76,352.77,0.0,0.0
1630880685.49973011,71128204,0.07,0.06,0.07,0.05,352.76,352.76,0.0,0.0
1630880685.59968996,71228164,0.04,0.03,0.07,0.06,352.76,352.76,0.0,0.0
1630880685.70048308,71328957,0.05,0.03,0.06,0.06,352.76,352.76,0.0,0.0
1630880685.80044293,71428917,0.07,0.04,0.06,0.05,352.76,352.76,0.0,0.0
1630880685.90040302,71528877,0.1,0.05,0.05,0.04,352.76,352.76,0.0,0.0
1630880686.00036311,71628837,0.11,0.08,0.07,0.05,352.76,352.76,0.0,0.0
1630880686.10032296,71728797,0.13,0.11,0.1,0.08,352.76,352.76,0.0,0.0
1630880686.20028305,71828757,0.15,0.14,0.14,0.12,352.76,352.76,0.0,0.0
1630880686.30024290,71928717,0.13,0.15,0.16,0.16,352.76,352.76,0.0,0.0
1630880686.40020299,72028677,0.08,0.11,0.12,0.15,352.76,352.76,0.0,0.0
1630880686.50016308,72128637,0.05,0.06,0.09,0.12,352.76,352.76,0.0,0.0
1630880686.60012293,72228597,0.04,0.03,0.09,0.09,352.76,352.76,0.0,0.0
1630880686.70008302,72328557,0.04,0.01,0.11,0.09,352.76,352.76,0.0,0.0
1630880686.80004311,72428517,0.06,0.03,0.11,0.09,352.76,352.76,0.0,0.0
1630880686.90000296,72528477,0.09,0.06,0.12,0.11,352.76,352.76,0.0,0.0
1630880686.99996305,72628437,0.08,0.08,0.11,0.12,352.76,352.76,0.0,0.0
1630880687.09992290,72728397,0.03,0.06,0.14,0.13,352.76,352.76,0.0,0.0
1630880687.19988298,72828357,-0.02,0.0,0.17,0.16,352.76,352.76,0.0,0.0
1630880687.29984307,72928317,-0.03,-0.05,0.15,0.17,352.76,352.76,0.0,0.0
1630880687.39980292,73028277,0.01,-0.05,0.13,0.15,352.76,352.76,0.0,0.0
1630880687.49976301,73128237,0.05,0.0,0.13,0.13,352.76,352.77,0.0,0.0
1630880687.59972310,73228197,0.08,0.03,0.1,0.11,352.76,352.77,0.0,0.0
1630880687.69968295,73328157,0.1,0.07,0.09,0.08,352.76,352.77,0.0,0.0
1630880687.80047607,73428950,0.13,0.11,0.12,0.09,352.76,352.77,0.0,0.0
1630880687.90043592,73528910,0.14,0.14,0.14,0.11,352.76,352.77,0.0,0.0
1630880688.00039601,73628870,0.14,0.14,0.13,0.12,352.76,352.77,0.0,0.0
1630880688.10035610,73728830,0.17,0.16,0.1,0.11,352.76,352.77,0.0,0.0
1630880688.20031595,73828790,0.19,0.19,0.08,0.08,352.76,352.76,0.0,0.0
1630880688.30027604,73928750,0.19,0.2,0.08,0.07,352.76,352.76,0.0,0.0
1630880688.40023589,74028710,0.16,0.18,0.09,0.08,352.76,352.76,0.0,0.0
1630880688.50019598,74128670,0.17,0.16,0.12,0.09,352.76,352.76,0.0,0.0
1630880688.60015607,74228630,0.19,0.16,0.15,0.12,352.76,352.76,0.0,0.0
1630880688.70011592,74328590,0.2,0.18,0.14,0.14,352.76,352.76,0.0,0.0
1630880688.80007601,74428550,0.19,0.19,0.12,0.13,352.76,352.76,0.0,0.0
1630880688.90003610,74528510,0.19,0.19,0.09,0.11,352.76,352.76,0.0,0.0
1630880688.99999595,74628470,0.18,0.19,0.03,0.06,352.76,352.76,0.0,0.0
1630880689.09995604,74728430,0.18,0.19,0.01,0.02,352.76,352.76,0.0,0.0
1630880689.19991589,74828390,0.18,0.19,0.0,0.0,352.76,352.76,0.0,0.0
1630880689.29987597,74928350,0.14,0.17,-0.01,-0.02,352.76,352.76,0.0,0.0
1630880689.39983606,75028310,0.1,0.12,0.01,-0.02,352.76,352.76,0.0,0.0
1630880689.49979591,75128270,0.1,0.1,0.02,0.0,352.76,352.76,0.0,0.0
1630880689.59975600,75228230,0.15,0.12,0.02,0.01,352.76,352.76,0.0,0.0
1630880689.69971609,75328190,0.17,0.16,0.04,0.01,352.76,352.76,0.0,0.0
1630880689.80050898,75428983,0.21,0.19,0.06,0.04,352.76,352.76,0.0,0.0
1630880689.90046906,75528943,0.24,0.23,0.06,0.06,352.76,352.76,0.0,0.0
1630880690.00042892,75628903,0.22,0.24,0.02,0.05,352.76,352.76,0.0,0.0
1630880690.10038900,75728863,0.16,0.2,0.03,0.03,352.76,352.76,0.0,0.0
1630880690.20034909,75828823,0.12,0.15,0.04,0.03,352.76,352.76,0.0,0.0
1630880690.30030894,75928783,0.14,0.12,0.05,0.03,352.76,352.76,0.0,0.0
1630880690.40026903,76028743,0.17,0.13,0.06,0.04,352.76,352.76,0.0,0.0
1630880690.50022912,76128703,0.16,0.14,0.08,0.06,352.76,352.76,0.0,0.0
1630880690.60018897,76228663,0.17,0.14,0.11,0.09,352.76,352.77,0.0,0.0
1630880690.70014906,76328623,0.19,0.17,0.09,0.1,352.76,352.76,0.0,0.0
1630880690.80010891,76428583,0.22,0.21,0.08,0.08,352.76,352.76,0.0,0.0
1630880690.90006900,76528543,0.23,0.23,0.11,0.1,352.76,352.76,0.0,0.0
1630880691.00002909,76628503,0.22,0.24,0.12,0.11,352.76,352.76,0.0,0.0
1630880691.09998894,76728463,0.19,0.22,0.12,0.12,352.76,352.76,0.0,0.0
1630880691.19994903,76828423,0.15,0.17,0.12,0.13,352.76,352.77,0.0,0.0
1630880691.29990911,76928383,0.12,0.13,0.15,0.14,352.76,352.77,0.0,0.0
1630880691.39986897,77028343,0.11,0.09,0.13,0.15,352.76,352.77,0.0,0.0
1630880691.49982905,77128303,0.13,0.09,0.13,0.14,352.76,352.77,0.0,0.0
1630880691.59978890,77228263,0.18,0.13,0.15,0.14,352.76,352.77,0.0,0.0
1630880691.69974899,77328223,0.22,0.19,0.14,0.15,352.76,352.76,0.0,0.0
1630880691.79970908,77428183,0.21,0.22,0.12,0.12,352.76,352.76,0.0,0.0
1630880691.90050197,77528976,0.17,0.21,0.13,0.11,352.76,352.76,0.0,0.0
1630880692.00046206,77628936,0.13,0.16,0.12,0.1,352.76,352.76,0.0,0.0
1630880692.10042191,77728896,0.12,0.12,0.1,0.09,352.76,352.76,0.0,0.0
1630880692.20038199,77828856,0.14,0.12,0.11,0.08,352.76,352.76,0.0,0.0
1630880692.30034208,77928816,0.15,0.13,0.15,0.1,352.76,352.76,0.0,0.0
1630880692.40030193,78028776,0.17,0.15,0.17,0.14,352.76,352.76,0.0,0.0
1630880692.50026202,78128736,0.17,0.16,0.13,0.15,352.76,352.76,0.0,0.0
1630880692.60022211,78228696,0.15,0.15,0.06,0.11,352.76,352.76,0.0,0.0
1630880692.70018196,78328656,0.11,0.13,0.0,0.05,352.76,352.77,0.0,0.0
1630880692.80014205,78428616,0.09,0.1,0.02,0.01,352.76,352.77,0.0,0.0
1630880692.90010190,78528576,0.09,0.08,0.08,0.03,352.76,352.77,0.0,0.0
1630880693.00006199,78628536,0.09,0.07,0.12,0.09,352.76,352.77,0.0,0.0
1630880693.10002208,78728496,0.08,0.06,0.15,0.13,352.76,352.77,0.0,0.0
1630880693.19998193,78828456,0.06,0.05,0.16,0.16,352.76,352.76,0.0,0.0
1630880693.29994202,78928416,0.07,0.05,0.14,0.16,352.76,352.76,0.0,0.0
1630880693.39990211,79028376,0.06,0.05,0.13,0.14,352.76,352.76,0.0,0.0
1630880693.49986196,79128336,0.08,0.06,0.11,0.12,352.76,352.76,0.0,0.0
1630880693.59982204,79228296,0.1,0.08,0.09,0.09,352.76,352.76,0.0,0.0
1630880693.69978189,79328256,0.08,0.08,0.09,0.08,352.76,352.76,0.0,0.0
1630880693.79974198,79428216,0.05,0.06,0.13,0.09,352.76,352.75,0.0,0.0
1630880693.89970207,79528176,0.05,0.04,0.17,0.13,352.76,352.75,0.0,0.0
1630880694.00049496,79628969,0.07,0.05,0.18,0.17,352.76,352.75,0.0,0.0
1630880694.10045505,79728929,0.1,0.08,0.18,0.18,352.76,352.76,0.0,0.0
1630880694.20041490,79828889,0.11,0.11,0.16,0.18,352.76,352.76,0.0,0.0
1630880694.30037498,79928849,0.07,0.1,0.13,0.17,352.76,352.76,0.0,0.0
1630880694.40033507,80028809,0.03,0.05,0.1,0.12,352.76,352.76,0.0,0.0
1630880694.50029492,80128769,0.01,0.01,0.09,0.09,352.76,352.76,0.0,0.0
1630880694.60025501,80228729,0.04,0.0,0.1,0.07,352.76,352.76,0.0,0.0
1630880694.70021510,80328689,0.07,0.02,0.13,0.08,352.76,352.76,0.0,0.0
1630880694.80017495,80428649,0.1,0.05,0.15,0.11,352.76,352.76,0.0,0.0
1630880694.90013504,80528609,0.12,0.09,0.13,0.11,352.76,352.76,0.0,0.0
1630880695.00009489,80628569,0.14,0.13,0.12,0.11,352.76,352.76,0.0,0.0
1630880695.10005498,80728529,0.17,0.16,0.14,0.12,352.76,352.76,0.0,0.0
1630880695.20001507,80828489,0.16,0.17,0.15,0.13,352.76,352.76,0.0,0.0
1630880695.29997492,80928449,0.15,0.16,0.15,0.14,352.76,352.76,0.0,0.0
1630880695.39993501,81028409,0.14,0.15,0.16,0.15,352.76,352.76,0.0,0.0
1630880695.49989510,81128369,0.14,0.14,0.14,0.15,352.76,352.76,0.0,0.0
1630880695.59985495,81228329,0.14,0.13,0.11,0.13,352.76,352.76,0.0,0.0
1630880695.69981503,81328289,0.13,0.14,0.09,0.11,352.76,352.76,0.0,0.0
1630880695.79977489,81428249,0.14,0.14,0.07,0.08,352.76,352.77,0.0,0.0
1630880695.89973497,81528209,0.16,0.14,0.09,0.07,352.76,352.77,0.0,0.0
1630880695.99969506,81628169,0.17,0.15,0.1,0.08,352.76,352.77,0.0,0.0
1630880696.10048795,81728962,0.18,0.16,0.13,0.1,352.76,352.77,0.0,0.0
1630880696.20044804,81828922,0.19,0.17,0.17,0.14,352.76,352.77,0.0,0.0
1630880696.30040789,81928882,0.18,0.17,0.2,0.19,352.76,352.77,0.0,0.0
1630880696.40036798,82028842,0.19,0.17,0.2,0.22,352.76,352.77,0.0,0.0
1630880696.50032806,82128802,0.16,0.16,0.18,0.22,352.76,352.76,0.0,0.0
1630880696.60028791,82228762,0.1,0.12,0.13,0.18,352.76,352.76,0.0,0.0
1630880696.70024800,82328722,0.09,0.08,0.08,0.12,352.76,352.76,0.0,0.0
1630880696.80020809,82428682,0.1,0.07,0.09,0.08,352.76,352.76,0.0,0.0
1630880696.90016794,82528642,0.11,0.06,0.13,0.09,352.76,352.75,0.0,0.0
1630880697.00012803,82628602,0.14,0.09,0.14,0.11,352.76,352.75,0.0,0.0
1630880697.10008812,82728562,0.16,0.13,0.16,0.13,352.76,352.76,0.0,0.0
1630880697.20004797,82828522,0.18,0.16,0.14,0.14,352.76,352.76,0.0,0.0
1630880697.30000806,82928482,0.18,0.19,0.11,0.12,352.76,352.76,0.0,0.0
1630880697.39996791,83028442,0.17,0.19,0.1,0.1,352.76,352.76,0.0,0.0
1630880697.49992800,83128402,0.12,0.16,0.09,0.09,352.76,352.76,0.0,0.0
1630880697.59988809,83228362,0.08,0.11,0.1,0.09,352.76,352.76,0.0,0.0
1630880697.69984794,83328322,0.08,0.08,0.11,0.09,352.76,352.76,0.0,0.0
1630880697.79980803,83428282,0.08,0.08,0.11,0.09,352.76,352.76,0.0,0.0
1630880697.89976811,83528242,0.08,0.07,0.13,0.1,352.76,352.76,0.0,0.0
1630880697.99972796,83628202,0.09,0.08,0.15,0.12,352.76,352.76,0.0,0.0
1630880698.09968805,83728162,0.09,0.08,0.17,0.14,352.76,352.76,0.0,0.0
1630880698.20048094,83828955,0.12,0.1,0.18,0.16,352.76,352.77,0.0,0.0
1630880698.30044103,83928915,0.15,0.12,0.17,0.17,352.76,352.77,0.0,0.0
1630880698.40040112,84028875,0.17,0.14,0.17,0.17,352.76,352.77,0.0,0.0
1630880698.50036097,84128835,0.2,0.17,0.15,0.16,352.76,352.77,0.0,0.0
1630880698.60032105,84228795,0.2,0.21,0.11,0.13,352.76,352.77,0.0,0.0
1630880698.70028090,84328755,0.18,0.21,0.1,0.11,352.76,352.76,0.0,0.0
1630880698.80024099,84428715,0.16,0.19,0.11,0.1,352.76,352.76,0.0,0.0
1630880698.90020108,84528675,0.14,0.16,0.1,0.09,352.76,352.76,0.0,0.0
1630880699.00016093,84628635,0.13,0.13,0.07,0.07,352.76,352.76,0.0,0.0
1630880699.10012102,84728595,0.13,0.12,0.06,0.05,352.76,352.75,0.0,0.0
1630880699.20008111,84828555,0.15,0.12,0.06,0.04,352.76,352.75,0.0,0.0
1630880699.30004096,84928515,0.17,0.14,0.09,0.06,352.76,352.75,0.0,0.0
1630880699.40000105,85028475,0.14,0.14,0.11,0.08,352.76,352.75,0.0,0.0
1630880699.49996090,85128435,0.13,0.13,0.14,0.12,352.76,352.75,0.0,0.0
1630880699.59992099,85228395,0.11,0.11,0.18,0.16,352.76,352.75,0.0,0.0
1630880699.69988108,85328355,0.11,0.1,0.21,0.2,352.76,352.75,0.0,0.0
1630880699.79984093,85428315,0.13,0.1,0.22,0.23,352.76,352.75,0.0,0.0
1630880699.89980102,85528275,0.16,0.13,0.17,0.21,352.76,352.76,0.0,0.0
1630880699.99976110,85628235,0.15,0.15,0.1,0.15,352.76,352.76,0.0,0.0
1630880700.09972095,85728195,0.12,0.14,0.06,0.08,352.76,352.76,0.0,0.0
1630880700.19968104,85828155,0.12,0.13,0.05,0.04,352.76,352.76,0.0,0.0
1630880700.30047393,85928948,0.12,0.12,0.06,0.02,352.76,352.76,0.0,0.0
1630880700.40043402,86028908,0.12,0.11,0.08,0.03,352.76,352.76,0.0,0.0
1630880700.50039411,86128868,0.12,0.11,0.11,0.06,352.76,352.76,0.0,0.0
1630880700.60035396,86228828,0.14,0.11,0.13,0.1,352.76,352.76,0.0,0.0
1630880700.70031404,86328788,0.15,0.13,0.11,0.12,352.76,352.76,0.0,0.0
1630880700.80027390,86428748,0.17,0.15,0.11,0.11,352.76,352.76,0.0,0.0
1630880700.90023398,86528708,0.17,0.16,0.06,0.1,352.76,352.76,0.0,0.0
1630880701.00019407,86628668,0.14,0.16,0.05,0.06,352.76,352.75,0.0,0.0
1630880701.10015392,86728628,0.1,0.12,0.1,0.07,352.76,352.75,0.0,0.0
1630880701.20011401,86828588,0.06,0.07,0.13,0.1,352.76,352.75,0.0,0.0
1630880701.30007410,86928548,0.04,0.02,0.13,0.12,352.76,352.75,0.0,0.0
1630880701.40003395,87028508,0.07,0.01,0.12,0.13,352.76,352.75,0.0,0.0
1630880701.49999404,87128468,0.13,0.06,0.12,0.14,352.76,352.75,0.0,0.0
1630880701.59995389,87228428,0.18,0.14,0.13,0.14,352.76,352.76,0.0,0.0
1630880701.69991398,87328388,0.16,0.17,0.11,0.12,352.76,352.76,0.0,0.0
1630880701.79987407,87428348,0.16,0.17,0.08,0.09,352.76,352.76,0.0,0.0
1630880701.89983392,87528308,0.14,0.16,0.05,0.04,352.76,352.76,0.0,0.0
1630880701.99979401,87628268,0.13,0.14,0.05,0.02,352.76,352.76,0.0,0.0
1630880702.09975410,87728228,0.14,0.13,0.07,0.03,352.76,352.76,0.0,0.0
1630880702.19971395,87828188,0.15,0.14,0.11,0.06,352.76,352.77,0.0,0.0
1630880702.30050707,87928981,0.11,0.13,0.13,0.1,352.76,352.77,0.0,0.0
1630880702.40046692,88028941,0.07,0.09,0.14,0.13,352.76,352.77,0.0,0.0
1630880702.50042701,88128901,0.07,0.06,0.14,0.14,352.76,352.77,0.0,0.0
1630880702.60038710,88228861,0.09,0.06,0.15,0.14,352.76,352.77,0.0,0.0
1630880702.70034695,88328821,0.11,0.07,0.14,0.14,352.76,352.77,0.0,0.0
1630880702.80030704,88428781,0.11,0.09,0.12,0.14,352.76,352.77,0.0,0.0
1630880702.90026689,88528741,0.11,0.1,0.1,0.11,352.76,352.76,0.0,0.0
1630880703.00022697,88628701,0.08,0.08,0.11,0.11,352.76,352.76,0.0,0.0
1630880703.10018706,88728661,0.09,0.06,0.09,0.1,352.76,352.76,0.0,0.0
1630880703.20014691,88828621,0.11,0.08,0.09,0.08,352.76,352.76,0.0,0.0
1630880703.30010700,88928581,0.13,0.1,0.13,0.09,352.76,352.75,0.0,0.0
1630880703.40006709,89028541,0.17,0.14,0.17,0.13,352.76,352.75,0.0,0.0
1630880703.50002694,89128501,0.2,0.18,0.19,0.17,352.76,352.75,0.0,0.0
1630880703.59998703,89228461,0.21,0.21,0.2,0.19,352.76,352.75,0.0,0.0
1630880703.69994712,89328421,0.19,0.2,0.19,0.19,352.76,352.76,0.0,0.0
1630880703.79990697,89428381,0.17,0.19,0.18,0.18,352.76,352.76,0.0,0.0
1630880703.89986706,89528341,0.17,0.17,0.18,0.18,352.76,352.76,0.0,0.0
1630880703.99982691,89628301,0.18,0.17,0.15,0.16,352.76,352.76,0.0,0.0
1630880704.09978700,89728261,0.17,0.16,0.16,0.15,352.76,352.77,0.0,0.0
1630880704.19974709,89828221,0.15,0.14,0.17,0.15,352.76,352.77,0.0,0.0
1630880704.29970694,89928181,0.16,0.14,0.18,0.16,352.76,352.77,0.0,0.0
1630880704.40050006,90028974,0.18,0.15,0.18,0.17,352.76,352.77,0.0,0.0
1630880704.50045991,90128934,0.19,0.17,0.18,0.18,352.76,352.76,0.0,0.0
1630880704.60042000,90228894,0.2,0.18,0.18,0.19,352.76,352.76,0.0,0.0
1630880704.70038009,90328854,0.22,0.2,0.18,0.18,352.76,352.76,0.0,0.0
1630880704.80033994,90428814,0.19,0.19,0.18,0.18,352.76,352.76,0.0,0.0
1630880704.90030003,90528774,0.17,0.17,0.19,0.18,352.76,352.76,0.0,0.0
1630880705.00026011,90628734,0.16,0.16,0.16,0.16,352.76,352.76,0.0,0.0
1630880705.10021996,90728694,0.15,0.14,0.14,0.14,352.76,352.76,0.0,0.0
1630880705.20018005,90828654,0.17,0.15,0.12,0.11,352.76,352.76,0.0,0.0
1630880705.30013990,90928614,0.2,0.18,0.13,0.1,352.76,352.76,0.0,0.0
1630880705.40009999,91028574,0.17,0.2,0.15,0.11,352.76,352.76,0.0,0.0
1630880705.50006008,91128534,0.11,0.16,0.17,0.13,352.76,352.76,0.0,0.0
1630880705.60001993,91228494,0.06,0.09,0.2,0.16,352.76,352.75,0.0,0.0
1630880705.69998002,91328454,0.07,0.05,0.2,0.19,352.76,352.75,0.0,0.0
1630880705.79994011,91428414,0.07,0.04,0.17,0.18,352.76,352.76,0.0,0.0
1630880705.89989996,91528374,0.07,0.04,0.15,0.16,352.76,352.76,0.0,0.0
1630880705.99986005,91628334,0.09,0.05,0.13,0.14,352.76,352.76,0.0,0.0
1630880706.09981990,91728294,0.09,0.07,0.15,0.15,352.76,352.76,0.0,0.0
1630880706.19977999,91828254,0.1,0.09,0.15,0.15,352.76,352.76,0.0,0.0
1630880706.29974008,91928214,0.16,0.13,0.12,0.13,352.76,352.76,0.0,0.0
1630880706.39969993,92028174,0.18,0.17,0.11,0.11,352.76,352.76,0.0,0.0
1630880706.50049305,92128967,0.17,0.19,0.12,0.1,352.76,352.76,0.0,0.0
1630880706.60045290,92228927,0.16,0.18,0.15,0.12,352.76,352.76,0.0,0.0
1630880706.70041299,92328887,0.16,0.17,0.19,0.15,352.76,352.76,0.0,0.0
1630880706.80037308,92428847,0.17,0.16,0.19,0.19,352.76,352.76,0.0,0.0
1630880706.90033293,92528807,0.17,0.16,0.17,0.19,352.76,352.76,0.0,0.0
1630880707.00029302,92628767,0.18,0.16,0.17,0.18,352.76,352.76,0.0,0.0
1630880707.10025311,92728727,0.18,0.17,0.17,0.18,352.76,352.75,0.0,0.0
1630880707.20021296,92828687,0.16,0.17,0.1,0.14,352.76,352.75,0.0,0.0
1630880707.30017304,92928647,0.16,0.16,0.06,0.08,352.76,352.75,0.0,0.0
1630880707.40013289,93028607,0.17,0.15,0.06,0.04,352.76,352.75,0.0,0.0
1630880707.50009298,93128567,0.16,0.14,0.06,0.04,352.76,352.76,0.0,0.0
1630880707.60005307,93228527,0.15,0.14,0.09,0.05,352.76,352.76,0.0,0.0
1630880707.70001292,93328487,0.16,0.15,0.11,0.09,352.76,352.76,0.0,0.0
1630880707.79997301,93428447,0.19,0.17,0.1,0.1,352.76,352.76,0.0,0.0
1630880707.89993310,93528407,0.22,0.2,0.1,0.1,352.76,352.76,0.0,0.0
1630880707.99989295,93628367,0.2,0.21,0.09,0.09,352.76,352.76,0.0,0.0
1630880708.09985304,93728327,0.18,0.19,0.09,0.08,352.76,352.76,0.0,0.0
1630880708.19981289,93828287,0.17,0.17,0.1,0.08,352.76,352.76,0.0,0.0
1630880708.29977298,93928247,0.17,0.16,0.12,0.1,352.76,352.76,0.0,0.0
1630880708.39973307,94028207,0.18,0.16,0.13,0.11,352.76,352.76,0.0,0.0
1630880708.49969292,94128167,0.18,0.17,0.14,0.13,352.76,352.76,0.0,0.0
1630880708.60048604,94228960,0.2,0.18,0.15,0.14,352.76,352.76,0.0,0.0
1630880708.70044589,94328920,0.24,0.22,0.15,0.15,352.76,352.76,0.0,0.0
1630880708.80040598,94428880,0.27,0.25,0.16,0.15,352.76,352.76,0.0,0.0
1630880708.90036607,94528840,0.28,0.28,0.17,0.16,352.76,352.76,0.0,0.0
1630880709.00032592,94628800,0.27,0.28,0.18,0.17,352.76,352.76,0.0,0.0
1630880709.10028601,94728760,0.27,0.28,0.17,0.17,352.76,352.76,0.0,0.0
1630880709.20024610,94828720,0.28,0.28,0.15,0.15,352.76,352.76,0.0,0.0
1630880709.30020595,94928680,0.27,0.27,0.14,0.14,352.76,352.76,0.0,0.0
1630880709.40016603,95028640,0.24,0.25,0.13,0.12,352.76,352.76,0.0,0.0
1630880709.50012589,95128600,0.21,0.22,0.13,0.12,352.76,352.76,0.0,0.0
1630880709.60008597,95228560,0.19,0.18,0.12,0.12,352.76,352.76,0.0,0.0
1630880709.70004606,95328520,0.19,0.17,0.12,0.12,352.76,352.76,0.0,0.0
1630880709.80000591,95428480,0.21,0.18,0.13,0.12,352.76,352.76,0.0,0.0
1630880709.89996600,95528440,0.2,0.18,0.16,0.14,352.76,352.76,0.0,0.0
1630880709.99992609,95628400,0.17,0.17,0.19,0.17,352.76,352.76,0.0,0.0
1630880710.09988594,95728360,0.15,0.15,0.2,0.19,352.76,352.76,0.0,0.0
1630880710.19984603,95828320,0.12,0.12,0.21,0.21,352.76,352.76,0.0,0.0
1630880710.29980612,95928280,0.11,0.1,0.2,0.21,352.76,352.76,0.0,0.0
1630880710.39976597,96028240,0.12,0.1,0.16,0.18,352.76,352.76,0.0,0.0
1630880710.49972606,96128200,0.13,0.11,0.15,0.15,352.76,352.76,0.0,0.0
1630880710.59968591,96228160,0.12,0.11,0.16,0.14,352.76,352.76,0.0,0.0
1630880710.70047903,96328953,0.13,0.12,0.17,0.15,352.76,352.75,0.0,0.0
1630880710.80043912,96428913,0.15,0.14,0.18,0.16,352.76,352.75,0.0,0.0
1630880710.90039897,96528873,0.17,0.15,0.2,0.18,352.76,352.75,0.0,0.0
1630880711.00035906,96628833,0.19,0.18,0.2,0.19,352.76,352.76,0.0,0.0
1630880711.10031891,96728793,0.18,0.2,0.18,0.19,352.76,352.76,0.0,0.0
1630880711.20027900,96828753,0.17,0.18,0.15,0.17,352.76,352.76,0.0,0.0
1630880711.30023909,96928713,0.14,0.16,0.16,0.15,352.76,352.76,0.0,0.0
1630880711.40019894,97028673,0.1,0.11,0.15,0.14,352.76,352.76,0.0,0.0
1630880711.50015903,97128633,0.08,0.07,0.14,0.13,352.76,352.76,0.0,0.0
1630880711.60011911,97228593,0.08,0.05,0.14,0.12,352.76,352.76,0.0,0.0
1630880711.70007896,97328553,0.1,0.06,0.16,0.13,352.76,352.76,0.0,0.0
1630880711.80003905,97428513,0.09,0.08,0.17,0.14,352.76,352.76,0.0,0.0
1630880711.89999890,97528473,0.09,0.09,0.18,0.15,352.76,352.76,0.0,0.0
1630880711.99995899,97628433,0.1,0.09,0.18,0.16,352.76,352.76,0.0,0.0
1630880712.09991908,97728393,0.1,0.1,0.19,0.17,352.76,352.76,0.0,0.0
1630880712.19987893,97828353,0.09,0.09,0.18,0.18,352.76,352.76,0.0,0.0
1630880712.29983902,97928313,0.1,0.08,0.15,0.15,352.76,352.76,0.0,0.0
1630880712.39979911,98028273,0.12,0.1,0.11,0.11,352.76,352.76,0.0,0.0
1630880712.49975896,98128233,0.14,0.12,0.11,0.09,352.76,352.76,0.0,0.0
1630880712.59971905,98228193,0.13,0.12,0.13,0.11,352.76,352.76,0.0,0.0
1630880712.70051193,98328986,0.13,0.12,0.13,0.12,352.76,352.76,0.0,0.0
1630880712.80047202,98428946,0.1,0.11,0.14,0.12,352.76,352.76,0.0,0.0
1630880712.90043211,98528906,-0.04,0.02,0.23,0.17,352.76,352.76,0.0,0.0
1630880713.00039196,98628866,-0.41,-0.23,0.4,0.29,352.76,352.76,0.0,0.0
1630880713.10035205,98728826,-1.01,-0.73,0.68,0.53,352.76,352.76,0.0,0.0
1630880713.20031190,98828786,-1.79,-1.49,1.03,0.88,352.76,352.75,0.0,0.0
1630880713.30027199,98928746,-2.63,-2.41,1.42,1.3,352.76,352.74,0.0,0.0
1630880713.40023208,99028706,-3.42,-3.34,1.78,1.73,352.76,352.73,0.0,0.0
1630880713.50019193,99128666,-4.06,-4.14,2.07,2.1,352.76,352.71,0.0,0.0
1630880713.60015202,99228626,-4.52,-4.75,2.29,2.38,352.76,352.71,0.0,0.0
1630880713.70011210,99328586,-4.89,-5.16,2.48,2.58,352.76,352.71,0.0,0.0
1630880713.80007195,99428546,-5.24,-5.48,2.65,2.74,352.76,352.72,0.0,0.0
1630880713.90003204,99528506,-5.58,-5.74,2.79,2.87,352.76,352.73,0.0,0.0
1630880713.99999189,99628466,-5.96,-6.04,2.97,3.0,352.76,352.73,0.0,0.0
1630880714.09995198,99728426,-6.37,-6.39,3.17,3.16,352.76,352.74,0.0,0.0
1630880714.19991207,99828386,-6.71,-6.75,3.35,3.32,352.76,352.74,0.0,0.0
1630880714.29987192,99928346,-6.98,-7.05,3.47,3.48,352.76,352.75,0.0,0.0
1630880714.39983201,100028306,-7.2,-7.29,3.53,3.58,352.76,352.76,0.0,0.0
1630880714.49979210,100128266,-7.36,-7.46,3.59,3.64,352.76,352.77,0.0,0.0
1630880714.59975195,100228226,-7.5,-7.58,3.63,3.67,352.76,352.78,0.0,0.0
1630880714.69971204,100328186,-7.64,-7.69,3.69,3.7,352.76,352.79,0.0,0.0
1630880714.80050492,100428979,-7.88,-7.82,3.81,3.83,351.5,352.75,0.0,0.0
1630880714.90046501,100528939,-8.21,-7.93,3.98,4.27,347.51,352.34,0.0,0.0
1630880715.00042510,100628899,-8.69,-8.11,4.04,4.94,341.59,350.87,0.0,0.0
1630880715.10038495,100728859,-9.3,-8.52,3.78,5.42,335.59,347.79,0.0,0.0
1630880715.20034504,100828819,-10.01,-9.19,3.05,5.32,329.59,343.07,0.0,0.0
1630880715.30030489,100928779,-10.71,-10.02,1.85,4.47,323.59,336.96,0.0,0.01
1630880715.40026498,101028739,-11.33,-10.85,0.21,2.86,317.59,329.79,0.0,0.03
1630880715.50022507,101128699,-11.71,-11.51,-1.7,0.64,311.59,321.86,0.0,0.04
1630880715.60018492,101228659,-11.73,-11.79,-3.73,-1.95,305.59,313.44,0.0,0.05
1630880715.70014501,101328619,-11.4,-11.58,-5.75,-4.67,299.59,304.76,0.0,0.07
1630880715.80010509,101428579,-10.75,-10.87,-7.62,-7.24,293.59,296.05,0.0,0.08
1630880715.90006495,101528539,-9.87,-9.75,-9.27,-9.48,287.59,287.55,0.0,0.08
1630880716.00002503,101628499,-8.81,-8.35,-10.7,-11.28,281.59,279.48,0.0,0.08
1630880716.09998488,101728459,-7.63,-6.84,-11.89,-12.63,275.58,272.02,0.0,0.08
1630880716.19994497,101828419,-6.42,-5.37,-12.85,-13.56,269.58,265.24,0.0,0.08
1630880716.29990506,101928379,-5.18,-4.02,-13.58,-14.15,263.58,259.13,0.0,0.08
1630880716.39986491,102028339,-3.96,-2.85,-14.16,-14.52,257.58,253.61,0.0,0.07
1630880716.49982500,102128299,-2.78,-1.86,-14.62,-14.78,251.58,248.54,0.0,0.06
1630880716.59978509,102228259,-1.6,-0.97,-14.99,-14.99,245.95,243.73,0.0,0.06
1630880716.69974494,102328219,-0.39,0.19,-15.25,-15.2,242.56,239.13,0.0,0.05
1630880716.79970503,102428179,0.76,1.75,-15.4,-15.34,240.8,235.09,0.0,0.05
1630880716.90049791,102528972,1.71,3.36,-15.44,-15.33,239.88,232.02,0.0,0.04
1630880717.00045800,102628932,2.29,4.61,-15.44,-15.22,239.36,230.16,0.0,0.04
1630880717.10041809,102728892,2.41,5.18,-15.48,-15.12,239.05,229.51,0.0,0.03
1630880717.20037794,102828852,2.11,4.99,-15.58,-15.12,238.82,229.92,0.0,0.03
1630880717.30033803,102928812,1.53,4.12,-15.74,-15.23,238.63,231.14,0.0,0.03
1630880717.40029812,103028772,0.8,2.79,-15.94,-15.47,238.44,232.91,0.0,0.03
1630880717.50025797,103128732,0.07,1.26,-16.1,-15.75,238.26,234.94,0.0,0.03
1630880717.60021806,103228692,-0.52,-0.18,-16.22,-16.0,238.09,236.95,0.0,0.04
1630880717.70017791,103328652,-0.94,-1.35,-16.27,-16.16,237.92,238.7,0.0,0.04
1630880717.80013800,103428612,-1.16,-2.11,-16.28,-16.24,237.78,240.01,0.0,0.04
1630880717.90009809,103528572,-1.18,-2.45,-16.27,-16.24,237.66,240.8,0.0,0.04
1630880718.00005794,103628532,-1.08,-2.41,-16.29,-16.24,237.56,241.06,0.0,0.04
1630880718.10001802,103728492,-0.91,-2.12,-16.31,-16.24,237.49,240.84,0.0,0.03
1630880718.19997811,103828452,-0.67,-1.65,-16.34,-16.27,237.44,240.26,0.0,0.03
1630880718.29993796,103928412,-0.4,-1.08,-16.38,-16.31,237.41,239.43,0.0,0.02
1630880718.39989805,104028372,-0.13,-0.47,-16.45,-16.38,237.39,238.5,0.0,0.02
1630880718.49985790,104128332,0.09,0.07,-16.51,-16.47,237.39,237.59,0.0,0.01
1630880718.59981799,104228292,0.27,0.52,-16.56,-16.54,237.38,236.8,0.0,0.01
1630880718.69977808,104328252,0.38,0.84,-16.61,-16.6,237.38,236.2,0.0,0.01
1630880718.79973793,104428212,0.43,1.02,-16.64,-16.64,237.38,235.82,0.0,0.01
1630880718.89969802,104528172,0.42,1.05,-16.66,-16.66,237.37,235.67,0.0,0.01
1630880719.00049090,104628965,0.33,0.95,-16.66,-16.67,237.36,235.73,0.0,0.01
1630880719.10045099,104728925,0.23,0.75,-16.68,-16.68,237.36,235.95,0.0,0.01
1630880719.20041108,104828885,0.1,0.49,-16.72,-16.7,237.34,236.28,0.0,0.01
1630880719.30037093,104928845,0.01,0.23,-16.76,-16.74,237.33,236.65,0.0,0.01
1630880719.40033102,105028805,-0.03,0.02,-16.82,-16.8,237.33,237.02,0.0,0.01
1630880719.50029111,105128765,-0.05,-0.12,-16.86,-16.85,237.32,237.35,0.0,0.01
1630880719.60025096,105228725,-0.07,-0.2,-16.89,-16.9,237.32,237.61,0.0,0.01
1630880719.70021105,105328685,-0.08,-0.24,-16.93,-16.93,237.32,237.77,0.0,0.01
1630880719.80017090,105428645,-0.1,-0.27,-16.96,-16.98,237.33,237.84,0.0,0.01
1630880719.90013099,105528605,-0.09,-0.25,-17.01,-17.01,237.34,237.83,0.0,0.01
1630880720.00009108,105628565,-0.04,-0.18,-17.05,-17.06,237.36,237.76,0.0,0.01
1630880720.10005093,105728525,0.03,-0.07,-17.05,-17.08,237.37,237.65,0.0,0.01
1630880720.20001101,105828485,0.11,0.05,-17.05,-17.08,237.39,237.51,0.0,0.01
1630880720.29997110,105928445,0.16,0.18,-17.06,-17.08,237.42,237.38,0.0,0.01
1630880720.39993095,106028405,0.17,0.26,-17.09,-17.1,237.44,237.27,0.0,0.01
1630880720.49989104,106128365,0.19,0.31,-17.15,-17.13,237.47,237.19,0.0,0.01
1630880720.59985089,106228325,0.19,0.34,-17.22,-17.2,237.49,237.14,0.0,0.01
1630880720.69981098,106328285,0.18,0.33,-17.25,-17.25,237.51,237.14,0.0,0.01
1630880720.79977107,106428245,0.18,0.31,-17.27,-17.29,237.53,237.17,0.0,0.01
1630880720.89973092,106528205,0.16,0.28,-17.28,-17.3,237.55,237.22,0.0,0.01
1630880720.99969101,106628165,0.15,0.25,-17.27,-17.3,237.57,237.29,0.0,0.01
1630880721.10048389,106728958,0.14,0.2,-17.25,-17.28,237.59,237.38,0.0,0.01
1630880721.20044398,106828918,0.13,0.17,-17.25,-17.26,237.61,237.46,0.0,0.01
1630880721.30040407,106928878,0.11,0.14,-17.29,-17.29,237.63,237.54,0.0,0.01
1630880721.40036392,107028838,0.1,0.12,-17.35,-17.34,237.66,237.61,0.0,0.01
1630880721.50032401,107128798,0.07,0.08,-17.4,-17.39,237.68,237.66,0.0,0.01
1630880721.60028410,107228758,0.07,0.06,-17.44,-17.44,237.7,237.7,0.0,0.01
1630880721.70024395,107328718,0.06,0.04,-17.46,-17.48,237.72,237.73,0.0,0.01
1630880721.80020404,107428678,0.05,0.04,-17.48,-17.5,237.74,237.74,0.0,0.01
1630880721.90016389,107528638,0.07,0.05,-17.49,-17.51,237.76,237.75,0.0,0.01
1630880722.00012398,107628598,0.1,0.09,-17.49,-17.52,237.79,237.75,0.0,0.01
1630880722.10008407,107728558,0.11,0.12,-17.5,-17.52,237.82,237.75,0.0,0.01
1630880722.20004392,107828518,0.11,0.15,-17.51,-17.52,237.84,237.76,0.0,0.01
1630880722.30000401,107928478,0.1,0.15,-17.52,-17.52,237.87,237.76,0.0,0.01
1630880722.39996409,108028438,0.09,0.15,-17.56,-17.54,237.89,237.78,0.0,0.01
1630880722.49992394,108128398,0.1,0.14,-17.6,-17.58,237.92,237.8,0.0,0.01
1630880722.59988403,108228358,0.09,0.14,-17.64,-17.63,237.94,237.82,0.0,0.01
1630880722.69984412,108328318,0.08,0.13,-17.66,-17.67,237.97,237.85,0.0,0.0
1630880722.79980397,108428278,0.11,0.13,-17.68,-17.7,237.99,237.89,0.0,0.0
1630880722.89976406,108528238,0.15,0.16,-17.69,-17.71,238.02,237.92,0.0,0.0
1630880722.99972391,108628198,0.15,0.18,-17.68,-17.7,238.04,237.96,0.0,0.0
1630880723.09968400,108728158,0.14,0.18,-17.69,-17.7,238.07,237.99,0.0,0.0
1630880723.20047688,108828951,0.13,0.17,-17.67,-17.69,238.09,238.02,0.0,0.0
1630880723.30043697,108928911,0.11,0.15,-17.66,-17.68,238.11,238.05,0.0,0.0
1630880723.40039706,109028871,0.09,0.12,-17.66,-17.66,238.14,238.08,0.0,0.0
1630880723.50035691,109128831,0.11,0.11,-17.68,-17.67,238.16,238.1,0.0,0.0
1630880723.60031700,109228791,0.13,0.13,-17.71,-17.69,238.19,238.12,0.0,0.0
1630880723.70027709,109328751,0.16,0.17,-17.76,-17.74,238.21,238.15,0.0,0.0
1630880723.80023694,109428711,0.19,0.21,-17.8,-17.8,238.23,238.17,0.0,0.0
1630880723.90019703,109528671,0.21,0.23,-17.82,-17.84,238.26,238.19,0.0,0.0
1630880724.00015712,109628631,0.21,0.25,-17.79,-17.84,238.28,238.21,0.0,0.0
1630880724.10011697,109728591,0.2,0.24,-17.76,-17.81,238.31,238.24,0.0,0.0
1630880724.20007706,109828551,0.19,0.23,-17.77,-17.78,238.33,238.26,0.0,0.0
1630880724.30003691,109928511,0.19,0.22,-17.81,-17.8,238.35,238.28,0.0,0.0
1630880724.39999700,110028471,0.19,0.21,-17.86,-17.84,238.37,238.31,0.0,0.0
1630880724.49995708,110128431,0.2,0.21,-17.9,-17.89,238.4,238.33,0.0,0.0
1630880724.59991693,110228391,0.22,0.22,-17.95,-17.95,238.42,238.35,0.0,0.0
1630880724.69987702,110328351,0.21,0.22,-17.98,-17.99,238.44,238.38,0.0,0.0
1630880724.79983711,110428311,0.2,0.22,-17.98,-18.02,238.46,238.4,0.0,0.0
1630880724.89979696,110528271,0.19,0.21,-17.96,-18.01,238.48,238.42,0.0,0.0
1630880724.99975705,110628231,0.18,0.2,-17.97,-17.99,238.49,238.44,0.0,0.0
1630880725.09971690,110728191,0.16,0.18,-17.98,-17.99,238.51,238.46,0.0,0.0
1630880725.20051003,110828984,0.14,0.15,-17.99,-17.99,238.53,238.48,0.0,0.0
1630880725.30047011,110928944,0.12,0.13,-17.98,-17.99,238.54,238.5,0.0,0.0
1630880725.40042996,111028904,0.12,0.11,-17.96,-17.98,238.55,238.52,0.0,0.0
1630880725.50039005,111128864,0.13,0.12,-17.98,-17.97,238.57,238.53,0.0,0.0
1630880725.60034990,111228824,0.16,0.14,-18.0,-18.0,238.58,238.54,0.0,0.0
1630880725.70030999,111328784,0.17,0.17,-18.01,-18.02,238.59,238.55,0.0,0.0
1630880725.80027008,111428744,0.17,0.19,-18.01,-18.03,238.61,238.56,0.0,0.0
1630880725.90022993,111528704,0.15,0.18,-18.02,-18.03,238.62,238.56,0.0,0.0
1630880726.00019002,111628664,0.12,0.15,-18.02,-18.05,238.63,238.57,0.0,0.0
1630880726.10015011,111728624,0.13,0.14,-18.01,-18.04,238.64,238.58,0.0,0.0
1630880726.20010996,111828584,0.15,0.16,-18.01,-18.04,238.65,238.59,0.0,0.0
1630880726.30007005,111928544,0.16,0.18,-18.02,-18.04,238.66,238.6,0.0,0.0
1630880726.40002990,112028504,0.16,0.18,-18.06,-18.06,238.67,238.61,0.0,0.0
1630880726.49998999,112128464,0.17,0.18,-18.08,-18.08,238.68,238.62,0.0,0.0
1630880726.59995008,112228424,0.19,0.19,-18.08,-18.1,238.7,238.64,0.0,0.0
1630880726.69990993,112328384,0.2,0.21,-18.06,-18.09,238.71,238.65,0.0,0.0
1630880726.79987001,112428344,0.22,0.23,-18.06,-18.07,238.72,238.67,0.0,0.0
1630880726.89983010,112528304,0.22,0.24,-18.08,-18.07,238.73,238.68,0.0,0.0
1630880726.99978995,112628264,0.2,0.23,-18.1,-18.09,238.74,238.7,0.0,0.0
1630880727.09975004,112728224,0.16,0.2,-18.11,-18.11,238.75,238.71,0.0,0.0
1630880727.19970989,112828184,0.15,0.17,-18.11,-18.12,238.76,238.72,0.0,0.0
1630880727.30050302,112928977,0.15,0.16,-18.11,-18.12,238.77,238.73,0.0,0.0
1630880727.40046310,113028937,0.16,0.15,-18.11,-18.12,238.77,238.74,0.0,0.0
1630880727.50042295,113128897,0.18,0.18,-18.11,-18.12,238.78,238.74,0.0,0.0
1630880727.60038304,113228857,0.2,0.2,-18.11,-18.12,238.79,238.75,0.0,0.0
1630880727.70034289,113328817,0.2,0.22,-18.1,-18.11,238.8,238.75,0.0,0.0
1630880727.80030298,113428777,0.18,0.2,-18.1,-18.11,238.8,238.76,0.0,0.0
1630880727.90026307,113528737,0.16,0.18,-18.11,-18.12,238.81,238.77,0.0,0.0
1630880728.00022292,113628697,0.13,0.15,-18.1,-18.13,238.82,238.77,0.0,0.0
1630880728.10018301,113728657,0.13,0.14,-18.08,-18.1,238.82,238.78,0.0,0.0
1630880728.20014310,113828617,0.15,0.15,-18.08,-18.09,238.83,238.79,0.0,0.0
1630880728.30010295,113928577,0.2,0.19,-18.07,-18.08,238.83,238.79,0.0,0.0
1630880728.40006304,114028537,0.22,0.23,-18.07,-18.08,238.84,238.8,0.0,0.0
1630880728.50002289,114128497,0.21,0.24,-18.1,-18.08,238.85,238.81,0.0,0.0
1630880728.59998298,114228457,0.23,0.25,-18.14,-18.12,238.85,238.81,0.0,0.0
1630880728.69994307,114328417,0.25,0.26,-18.16,-18.16,238.86,238.82,0.0,0.0
1630880728.79990292,114428377,0.25,0.26,-18.18,-18.18,238.87,238.82,0.0,0.0
1630880728.89986300,114528337,0.27,0.27,-18.21,-18.21,238.88,238.83,0.0,0.0
1630880728.99982309,114628297,0.26,0.27,-18.22,-18.23,238.88,238.84,0.0,0.0
1630880729.09978294,114728257,0.25,0.26,-18.21,-18.24,238.89,238.84,0.0,0.0
1630880729.19974303,114828217,0.22,0.24,-18.2,-18.23,238.89,238.85,0.0,0.0
1630880729.29970312,114928177,0.19,0.21,-18.18,-18.2,238.89,238.86,0.0,0.0
1630880729.40049601,115028970,0.18,0.18,-18.15,-18.18,238.9,238.87,0.0,0.0
1630880729.50045609,115128930,0.19,0.18,-18.16,-18.16,238.9,238.87,0.0,0.0
1630880729.60041595,115228890,0.2,0.18,-18.17,-18.16,238.9,238.88,0.0,0.0
1630880729.70037603,115328850,0.23,0.21,-18.17,-18.16,238.9,238.88,0.0,0.0
1630880729.80033588,115428810,0.25,0.24,-18.18,-18.17,238.9,238.88,0.0,0.0
1630880729.90029597,115528770,0.26,0.27,-18.2,-18.19,238.91,238.88,0.0,0.0
1630880730.00025606,115628730,0.24,0.26,-18.21,-18.21,238.91,238.88,0.0,0.0
1630880730.10021591,115728690,0.22,0.24,-18.2,-18.22,238.91,238.88,0.0,0.0
1630880730.20017600,115828650,0.22,0.22,-18.19,-18.21,238.92,238.88,0.0,0.0
1630880730.30013609,115928610,0.25,0.23,-18.19,-18.2,238.92,238.88,0.0,0.0
1630880730.40009594,116028570,0.26,0.25,-18.19,-18.2,238.92,238.89,0.0,0.0
1630880730.50005603,116128530,0.23,0.25,-18.22,-18.22,238.92,238.89,0.0,0.0
1630880730.60001612,116228490,0.24,0.24,-18.24,-18.25,238.92,238.89,0.0,0.0
1630880730.69997597,116328450,0.24,0.25,-18.23,-18.27,238.92,238.9,0.0,0.0
1630880730.79993606,116428410,0.22,0.23,-18.21,-18.25,238.93,238.9,0.0,0.0
1630880730.89989591,116528370,0.2,0.21,-18.21,-18.23,238.93,238.9,0.0,0.0
1630880730.99985600,116628330,0.22,0.21,-18.21,-18.23,238.93,238.9,0.0,0.0
1630880731.09981608,116728290,0.25,0.23,-18.2,-18.23,238.93,238.9,0.0,0.0
1630880731.19977593,116828250,0.24,0.24,-18.19,-18.21,238.93,238.9,0.0,0.0
1630880731.29973602,116928210,0.25,0.25,-18.19,-18.2,238.93,238.91,0.0,0.0
1630880731.39969611,117028170,0.26,0.26,-18.21,-18.2,238.94,238.9,0.0,0.0
1630880731.50048900,117128963,0.27,0.27,-18.2,-18.21,238.94,238.91,0.0,0.0
1630880731.60044909,117228923,0.27,0.28,-18.21,-18.22,238.94,238.91,0.0,0.0
1630880731.70040894,117328883,0.27,0.28,-18.23,-18.23,238.94,238.91,0.0,0.0
1630880731.80036902,117428843,0.28,0.28,-18.26,-18.26,238.94,238.91,0.0,0.0
1630880731.90032911,117528803,0.26,0.27,-18.23,-18.26,238.94,238.91,0.0,0.0
1630880732.00028896,117628763,0.26,0.26,-18.21,-18.25,238.94,238.92,0.0,0.0
1630880732.10024905,117728723,0.25,0.26,-18.2,-18.23,238.94,238.92,0.0,0.0
1630880732.20020890,117828683,0.24,0.24,-18.21,-18.22,238.94,238.92,0.0,0.0
1630880732.30016899,117928643,0.22,0.22,-18.23,-18.22,238.94,238.92,0.0,0.0
1630880732.40012908,118028603,0.22,0.21,-18.24,-18.24,238.93,238.92,0.0,0.0
1630880732.50008893,118128563,0.22,0.21,-18.23,-18.25,238.93,238.91,0.0,0.0
1630880732.60004902,118228523,0.24,0.22,-18.21,-18.24,238.93,238.91,0.0,0.0
1630880732.70000911,118328483,0.27,0.25,-18.2,-18.21,238.93,238.91,0.0,0.0
1630880732.79996896,118428443,0.29,0.28,-18.19,-18.2,238.93,238.9,0.0,0.0
1630880732.89992905,118528403,0.28,0.31,-18.21,-18.2,238.93,238.9,0.0,0.0
1630880732.99988890,118628363,0.26,0.3,-18.24,-18.22,238.94,238.9,0.0,0.0
1630880733.09984899,118728323,0.24,0.28,-18.25,-18.25,238.93,238.9,0.0,0.0
1630880733.19980907,118828283,0.21,0.23,-18.24,-18.26,238.93,238.9,0.0,0.0
1630880733.29976892,118928243,0.21,0.21,-18.25,-18.26,238.93,238.9,0.0,0.0
1630880733.39972901,119028203,0.2,0.2,-18.27,-18.27,238.93,238.91,0.0,0.0
1630880733.49968910,119128163,0.17,0.17,-18.28,-18.28,238.93,238.91,0.0,0.0
1630880733.60048199,119228956,0.16,0.15,-18.29,-18.3,238.92,238.91,0.0,0.0
1630880733.70044208,119328916,0.17,0.14,-18.24,-18.28,238.92,238.91,0.0,0.0
1630880733.80040193,119428876,0.22,0.18,-18.2,-18.23,238.92,238.91,0.0,0.0
1630880733.90036201,119528836,0.27,0.23,-18.21,-18.21,238.92,238.91,0.0,0.0
1630880734.00032210,119628796,0.28,0.28,-18.23,-18.21,238.92,238.9,0.0,0.0
1630880734.10028195,119728756,0.27,0.3,-18.23,-18.23,238.92,238.9,0.0,0.0
1630880734.20024204,119828716,0.26,0.29,-18.2,-18.22,238.92,238.9,0.0,0.0
1630880734.30020189,119928676,0.26,0.29,-18.18,-18.2,238.92,238.9,0.0,0.0
1630880734.40016198,120028636,0.27,0.29,-18.19,-18.2,238.92,238.89,0.0,0.0
1630880734.50012207,120128596,0.27,0.28,-18.21,-18.21,238.91,238.89,0.0,0.0
1630880734.60008192,120228556,0.25,0.27,-18.25,-18.24,238.91,238.89,0.0,0.0
1630880734.70004201,120328516,0.25,0.25,-18.27,-18.27,238.91,238.89,0.0,0.0
1630880734.80000210,120428476,0.27,0.26,-18.25,-18.28,238.91,238.89,0.0,0.0
1630880734.89996195,120528436,0.3,0.28,-18.22,-18.26,238.92,238.89,0.0,0.0
1630880734.99992204,120628396,0.34,0.31,-18.21,-18.24,238.92,238.89,0.0,0.0
1630880735.09988189,120728356,0.33,0.33,-18.23,-18.24,238.92,238.9,0.0,0.0
1630880735.19984198,120828316,0.31,0.32,-18.25,-18.25,238.92,238.9,0.0,0.0
1630880735.29980206,120928276,0.3,0.3,-18.24,-18.26,238.93,238.9,0.0,0.0
1630880735.39976192,121028236,0.32,0.3,-18.25,-18.26,238.93,238.91,0.0,0.0
1630880735.49972200,121128196,0.31,0.31,-18.24,-18.26,238.93,238.91,0.0,0.0
1630880735.59968209,121228156,0.28,0.3,-18.23,-18.24,238.93,238.91,0.0,0.0
1630880735.70047498,121328949,0.26,0.27,-18.21,-18.23,238.93,238.92,0.0,0.0
1630880735.80043507,121428909,0.26,0.25,-18.21,-18.22,238.93,238.92,0.0,0.0
1630880735.90039492,121528869,0.27,0.25,-18.21,-18.21,238.93,238.92,0.0,0.0
1630880736.00035501,121628829,0.29,0.27,-18.22,-18.21,238.94,238.92,0.0,0.0
1630880736.10031509,121728789,0.32,0.3,-18.24,-18.23,238.94,238.93,0.0,0.0
1630880736.20027494,121828749,0.34,0.33,-18.25,-18.26,238.94,238.93,0.0,0.0
1630880736.30023503,121928709,0.32,0.34,-18.27,-18.27,238.94,238.92,0.0,0.0
1630880736.40019512,122028669,0.32,0.34,-18.3,-18.31,238.94,238.92,0.0,0.0
1630880736.50015497,122128629,0.3,0.32,-18.31,-18.32,238.94,238.92,0.0,0.0
1630880736.60011506,122228589,0.27,0.29,-18.31,-18.33,238.94,238.92,0.0,0.0
1630880736.70007491,122328549,0.26,0.26,-18.3,-18.34,238.94,238.92,0.0,0.0
1630880736.80003500,122428509,0.29,0.27,-18.26,-18.3,238.94,238.93,0.0,0.0
1630880736.89999509,122528469,0.32,0.3,-18.22,-18.25,238.94,238.93,0.0,0.0
1630880736.99995494,122628429,0.35,0.33,-18.22,-18.22,238.94,238.93,0.0,0.0
1630880737.09991503,122728389,0.34,0.35,-18.25,-18.23,238.95,238.93,0.0,0.0
1630880737.19987512,122828349,0.32,0.33,-18.27,-18.26,238.95,238.93,0.0,0.0
1630880737.29983497,122928309,0.28,0.3,-18.29,-18.28,238.95,238.94,0.0,0.0
1630880737.39979506,123028269,0.23,0.25,-18.3,-18.31,238.94,238.94,0.0,0.0
1630880737.49975491,123128229,0.24,0.22,-18.29,-18.31,238.94,238.94,0.0,0.0
1630880737.59971499,123228189,0.28,0.24,-18.27,-18.3,238.94,238.94,0.0,0.0
1630880737.70050812,123328982,0.3,0.27,-18.28,-18.29,238.94,238.94,0.0,0.0
1630880737.80046797,123428942,0.32,0.31,-18.28,-18.29,238.94,238.94,0.0,0.0
1630880737.90042806,123528902,0.34,0.34,-18.28,-18.29,238.94,238.93,0.0,0.0
1630880738.00038791,123628862,0.39,0.38,-18.29,-18.3,238.94,238.93,0.0,0.0
1630880738.10034800,123728822,0.39,0.41,-18.3,-18.3,238.94,238.92,0.0,0.0
1630880738.20030808,123828782,0.36,0.4,-18.29,-18.3,238.94,238.92,0.0,0.0
1630880738.30026793,123928742,0.32,0.35,-18.28,-18.29,238.94,238.92,0.0,0.0
1630880738.40022802,124028702,0.3,0.31,-18.27,-18.28,238.94,238.92,0.0,0.0
1630880738.50018811,124128662,0.29,0.28,-18.26,-18.28,238.94,238.92,0.0,0.0
1630880738.60014796,124228622,0.31,0.27,-18.26,-18.27,238.94,238.92,0.0,0.0
1630880738.70010805,124328582,0.32,0.29,-18.29,-18.28,238.94,238.92,0.0,0.0
1630880738.80006790,124428542,0.32,0.31,-18.29,-18.29,238.94,238.92,0.0,0.0
1630880738.90002799,124528502,0.34,0.33,-18.26,-18.29,238.94,238.92,0.0,0.0
1630880738.99998808,124628462,0.35,0.35,-18.25,-18.27,238.94,238.92,0.0,0.0
1630880739.09994793,124728422,0.38,0.37,-18.23,-18.25,238.94,238.93,0.0,0.0
1630880739.19990802,124828382,0.42,0.4,-18.23,-18.24,238.94,238.93,0.0,0.0
1630880739.29986811,124928342,0.42,0.43,-18.22,-18.23,238.94,238.93,0.0,0.0
1630880739.39982796,125028302,0.4,0.44,-18.22,-18.23,238.95,238.93,0.0,0.0
1630880739.49978805,125128262,0.39,0.43,-18.22,-18.22,238.95,238.93,0.0,0.0
1630880739.59974790,125228222,0.38,0.4,-18.23,-18.23,238.95,238.93,0.0,0.0
1630880739.69970798,125328182,0.36,0.38,-18.24,-18.25,238.95,238.94,0.0,0.0
1630880739.80050111,125428975,0.34,0.35,-18.23,-18.25,238.95,238.94,0.0,0.0
1630880739.90046096,125528935,0.32,0.33,-18.21,-18.23,238.94,238.94,0.0,0.0
1630880740.00042105,125628895,-0.03,0.13,-18.06,-18.16,238.56,238.93,0.0,0.0
1630880740.10038090,125728855,-1.06,-0.73,-17.69,-17.89,237.81,238.83,0.0,0.0
1630880740.20034099,125828815,-2.22,-2.11,-17.33,-17.49,236.85,238.53,0.0,0.0
1630880740.30030107,125928775,-3.12,-3.49,-17.11,-17.12,235.75,237.94,0.0,0.0
1630880740.40026093,126028735,-3.63,-4.51,-17.05,-16.91,234.56,237.05,0.0,0.0
1630880740.50022101,126128695,-3.78,-4.97,-17.09,-16.88,233.32,235.86,0.0,0.0
1630880740.60018110,126228655,-3.66,-4.92,-17.18,-16.98,232.08,234.41,0.0,0.0
1630880740.70014095,126328615,-3.42,-4.49,-17.27,-17.13,230.85,232.75,0.0,0.01
1630880740.80010104,126428575,-3.15,-3.9,-17.33,-17.28,229.64,230.98,0.0,0.01
1630880740.90006089,126528535,-2.95,-3.32,-17.39,-17.39,228.46,229.16,0.0,0.01
1630880741.00002098,126628495,-2.83,-2.86,-17.45,-17.48,227.3,227.4,0.0,0.01
1630880741.09998107,126728455,-2.74,-2.54,-17.5,-17.55,226.18,225.74,0.0,0.01
1630880741.19994092,126828415,-2.66,-2.32,-17.52,-17.6,225.08,224.25,0.0,0.02
1630880741.29990101,126928375,-2.61,-2.2,-17.55,-17.63,224.02,222.93,0.0,0.01
1630880741.39986110,127028335,-2.57,-2.15,-17.58,-17.64,222.99,221.79,0.0,0.01
1630880741.49982095,127128295,-2.56,-2.16,-17.63,-17.66,221.99,220.82,0.0,0.01
1630880741.59978104,127228255,-2.58,-2.22,-17.67,-17.69,221.03,219.99,0.0,0.01
1630880741.69974089,127328215,-2.58,-2.31,-17.7,-17.72,220.1,219.26,0.0,0.01
1630880741.79970098,127428175,-2.56,-2.39,-17.68,-17.71,219.21,218.6,0.0,0.01
1630880741.90049410,127528968,-2.52,-2.43,-17.66,-17.69,218.35,217.98,0.0,0.01
1630880742.00045395,127628928,-2.48,-2.46,-17.66,-17.67,217.53,217.37,0.0,0.0
1630880742.10041404,127728888,-2.42,-2.46,-17.68,-17.67,216.75,216.75,0.0,0.0
1630880742.20037389,127828848,-2.35,-2.42,-17.73,-17.71,216.0,216.11,0.0,0.0
1630880742.30033398,127928808,-2.25,-2.34,-17.77,-17.75,215.29,215.45,0.0,0.0
1630880742.40029407,128028768,-2.12,-2.23,-17.78,-17.79,214.62,214.77,0.0,0.0
1630880742.50025392,128128728,-1.99,-2.08,-17.8,-17.81,213.98,214.08,0.0,0.0
1630880742.60021400,128228688,-1.86,-1.9,-17.83,-17.83,213.38,213.39,0.0,0.0
1630880742.70017409,128328648,-1.75,-1.73,-17.85,-17.86,212.8,212.72,0.0,0.0
1630880742.80013394,128428608,-1.62,-1.57,-17.88,-17.89,212.26,212.08,0.0,0.0
1630880742.90009403,128528568,-1.48,-1.41,-17.89,-17.91,211.75,211.48,0.0,0.0
1630880743.00005412,128628528,-1.37,-1.26,-17.88,-17.92,211.27,210.93,0.0,0.0
1630880743.10001397,128728488,-1.26,-1.13,-17.86,-17.91,210.81,210.43,0.0,0.0
1630880743.19997406,128828448,-1.14,-1.01,-17.84,-17.87,210.38,209.99,0.0,0.0
1630880743.29993391,128928408,-1.06,-0.92,-17.85,-17.86,209.98,209.59,0.0,0.0
1630880743.39989400,129028368,-1.03,-0.88,-17.86,-17.86,209.6,209.24,0.0,0.0
1630880743.49985409,129128328,-1.0,-0.87,-17.88,-17.88,209.24,208.93,0.0,0.0
1630880743.59981394,129228288,-0.94,-0.85,-17.9,-17.91,208.9,208.64,0.0,0.0
1630880743.69977403,129328248,-0.89,-0.82,-17.89,-17.93,208.57,208.37,0.0,0.0
1630880743.79973412,129428208,-0.83,-0.79,-17.9,-17.93,208.27,208.11,0.0,0.0
1630880743.89969397,129528168,-0.77,-0.76,-17.94,-17.95,207.99,207.86,0.0,0.0
1630880744.00048709,129628961,-0.69,-0.7,-17.97,-17.98,207.72,207.62,0.0,0.0
1630880744.10044694,129728921,-0.61,-0.61,-17.99,-18.0,207.48,207.38,0.0,0.0
1630880744.20040703,129828881,-0.55,-0.54,-18.0,-18.02,207.24,207.15,0.0,0.0
1630880744.30036712,129928841,-0.53,-0.49,-18.02,-18.03,207.03,206.93,0.0,0.0
1630880744.40032697,130028801,-0.5,-0.46,-18.02,-18.04,206.82,206.71,0.0,0.0
1630880744.50028706,130128761,-0.43,-0.41,-18.03,-18.04,206.63,206.51,0.0,0.0
1630880744.60024691,130228721,-0.35,-0.34,-18.02,-18.04,206.46,206.33,0.0,0.0
1630880744.70020700,130328681,-0.31,-0.27,-18.04,-18.05,206.29,206.15,0.0,0.0
1630880744.80016708,130428641,-0.25,-0.22,-18.04,-18.06,206.14,205.99,0.0,0.0
1630880744.90012693,130528601,-0.21,-0.17,-18.05,-18.07,205.99,205.85,0.0,0.0
1630880745.00008702,130628561,-0.2,-0.14,-18.07,-18.08,205.86,205.72,0.0,0.0
1630880745.10004711,130728521,-0.18,-0.13,-18.08,-18.1,205.73,205.6,0.0,0.0
1630880745.20000696,130828481,-0.15,-0.11,-18.09,-18.11,205.62,205.49,0.0,0.0
1630880745.29996705,130928441,-0.12,-0.09,-18.09,-18.12,205.51,205.39,0.0,0.0
1630880745.39992690,131028401,-0.08,-0.06,-18.08,-18.1,205.41,205.3,0.0,0.0
1630880745.49988699,131128361,-0.04,-0.03,-18.07,-18.08,205.31,205.21,0.0,0.0
1630880745.59984708,131228321,-0.03,0.0,-18.07,-18.07,205.22,205.13,0.0,0.0
1630880745.69980693,131328281,-0.02,0.01,-18.08,-18.08,205.14,205.05,0.0,0.0
1630880745.79976702,131428241,-0.03,0.01,-18.1,-18.1,205.07,204.98,0.0,0.0
1630880745.89972711,131528201,-0.01,0.01,-18.1,-18.12,204.99,204.92,0.0,0.0
1630880745.99968696,131628161,0.04,0.05,-18.08,-18.11,204.93,204.85,0.0,0.0
1630880746.10048008,131728954,0.08,0.09,-18.06,-18.09,204.87,204.79,0.0,0.0
1630880746.20043993,131828914,0.12,0.13,-18.05,-18.07,204.82,204.73,0.0,0.0
