timestamp,TimeUS,DesRoll,Roll,DesPitch,Pitch,DesYaw,Yaw,ErrRP,ErrYaw
1629645561.90004015,50528947,0.0,0.08,0.0,0.07,352.89,352.9,0.0,0.0
1629645562.00000000,50628907,0.0,0.08,0.0,0.07,352.89,352.9,0.0,0.0
1629645562.09996009,50728867,0.0,0.08,0.0,0.07,352.89,352.9,0.0,0.0
1629645562.19991994,50828827,0.0,0.08,0.0,0.07,352.89,352.9,0.0,0.0
1629645562.29988003,50928787,0.0,0.08,0.0,0.07,352.89,352.9,0.0,0.0
1629645562.39984012,51028747,0.0,0.08,0.0,0.07,352.89,352.9,0.0,0.0
1629645562.49979997,51128707,0.0,0.08,0.0,0.07,352.89,352.9,0.0,0.0
1629645562.59976006,51228667,0.0,0.08,0.0,0.07,352.89,352.9,0.0,0.0
1629645562.69972014,51328627,0.0,0.08,0.0,0.07,352.89,352.9,0.0,0.0
1629645562.79967999,51428587,0.0,0.08,0.0,0.07,352.89,352.9,0.0,0.0
1629645562.89964008,51528547,0.0,0.08,0.0,0.07,352.89,352.9,0.0,0.0
1629645562.99959993,51628507,0.0,0.08,0.0,0.07,352.89,352.9,0.0,0.0
1629645563.09956002,51728467,0.0,0.08,0.0,0.07,352.89,352.9,0.0,0.0
1629645563.19952011,51828427,0.0,0.08,0.0,0.07,352.89,352.9,0.0,0.0
1629645563.29947996,51928387,0.0,0.08,0.0,0.07,352.89,352.9,0.0,0.0
1629645563.39944005,52028347,0.0,0.08,0.0,0.07,352.89,352.9,0.0,0.0
1629645563.49940014,52128307,0.0,0.08,0.0,0.07,352.89,352.9,0.0,0.0
1629645563.59935999,52228267,0.0,0.09,0.0,0.07,352.89,352.9,0.0,0.0
1629645563.69932008,52328227,0.0,0.08,0.0,0.07,352.89,352.9,0.0,0.0
1629645563.79927993,52428187,0.0,0.08,0.0,0.07,352.89,352.9,0.0,0.0
1629645563.90007305,52528980,0.0,0.08,0.0,0.07,352.89,352.9,0.0,0.0
1629645564.00003314,52628940,0.0,0.09,0.0,0.07,352.89,352.9,0.0,0.0
1629645564.09999299,52728900,0.0,0.09,0.0,0.07,352.89,352.9,0.0,0.0
1629645564.19995308,52828860,0.0,0.09,0.0,0.07,352.89,352.9,0.0,0.0
1629645564.29991293,52928820,0.0,0.09,0.0,0.07,352.89,352.9,0.0,0.0
1629645564.39987302,53028780,0.0,0.09,0.0,0.07,352.89,352.9,0.0,0.0
1629645564.49983311,53128740,0.0,0.09,0.0,0.07,352.89,352.9,0.0,0.0
1629645564.59979296,53228700,0.0,0.09,0.0,0.07,352.9,352.91,0.0,0.0
1629645564.69975305,53328660,0.0,0.09,0.0,0.07,352.9,352.91,0.0,0.0
1629645564.79971313,53428620,0.0,0.09,0.0,0.07,352.9,352.91,0.0,0.0
1629645564.89967299,53528580,0.0,0.09,0.0,0.07,352.9,352.91,0.0,0.0
1629645564.99963307,53628540,0.0,0.09,0.0,0.08,352.9,352.91,0.0,0.0
1629645565.09959292,53728500,0.0,0.09,0.0,0.08,352.9,352.91,0.0,0.0
1629645565.19955301,53828460,0.0,0.09,0.0,0.08,352.9,352.91,0.0,0.0
1629645565.29951310,53928420,0.0,0.09,0.0,0.08,352.9,352.91,0.0,0.0
1629645565.39947295,54028380,0.0,0.09,0.0,0.08,352.9,352.91,0.0,0.0
1629645565.49943304,54128340,0.0,0.09,0.0,0.08,352.9,352.91,0.0,0.0
1629645565.59939313,54228300,0.0,0.09,0.0,0.08,352.9,352.91,0.0,0.0
1629645565.69935298,54328260,0.0,0.09,0.0,0.08,352.9,352.91,0.0,0.0
1629645565.79931307,54428220,0.0,0.09,0.0,0.08,352.9,352.91,0.0,0.0
1629645565.89927292,54528180,0.0,0.09,0.0,0.08,352.9,352.91,0.0,0.0
1629645566.00006604,54628973,0.0,0.09,0.0,0.08,352.9,352.91,0.0,0.0
1629645566.10002613,54728933,0.0,0.09,0.0,0.08,352.9,352.91,0.0,0.0
1629645566.19998598,54828893,0.0,0.09,0.0,0.08,352.9,352.91,0.0,0.0
1629645566.29994607,54928853,0.0,0.09,0.0,0.08,352.9,352.91,0.0,0.0
1629645566.39990592,55028813,0.0,0.09,0.0,0.08,352.9,352.91,0.0,0.0
1629645566.49986601,55128773,0.0,0.09,0.0,0.08,352.9,352.91,0.0,0.0
1629645566.59982610,55228733,0.0,0.09,0.0,0.08,352.91,352.92,0.0,0.0
1629645566.69978595,55328693,0.0,0.09,0.0,0.08,352.91,352.92,0.0,0.0
1629645566.79974604,55428653,0.0,0.09,0.0,0.08,352.91,352.92,0.0,0.0
1629645566.89970613,55528613,0.0,0.09,0.0,0.08,352.91,352.92,0.0,0.0
1629645566.99966598,55628573,0.0,0.09,0.0,0.08,352.91,352.92,0.0,0.0
1629645567.09962606,55728533,0.0,0.09,0.0,0.08,352.91,352.92,0.0,0.0
1629645567.19958615,55828493,0.0,0.09,0.0,0.08,352.91,352.92,0.0,0.0
1629645567.29954600,55928453,0.0,0.09,0.0,0.08,352.91,352.92,0.0,0.0
1629645567.39950609,56028413,0.0,0.09,0.0,0.08,352.91,352.92,0.0,0.0
1629645567.49946594,56128373,0.0,0.09,0.0,0.08,352.91,352.92,0.0,0.0
1629645567.59942603,56228333,0.0,0.09,0.0,0.08,352.91,352.92,0.0,0.0
1629645567.69938612,56328293,0.0,0.09,0.0,0.08,352.91,352.92,0.0,0.0
1629645567.79934597,56428253,0.0,0.09,0.0,0.08,352.91,352.92,0.0,0.0
1629645567.89930606,56528213,0.0,0.09,0.0,0.08,352.91,352.92,0.0,0.0
1629645567.99926615,56628173,-0.09,0.09,-0.09,0.08,352.91,352.92,0.0,0.0
1629645568.10005903,56728966,-0.15,0.09,-0.17,0.08,352.91,352.92,0.0,0.0
1629645568.20001912,56828926,-0.2,0.09,-0.22,0.08,352.91,352.92,0.0,0.0
1629645568.29997897,56928886,-0.23,0.1,-0.25,0.08,352.91,352.92,0.0,0.0
1629645568.39993906,57028846,-0.25,0.1,-0.27,0.08,352.91,352.92,0.0,0.0
1629645568.49989915,57128806,-0.27,0.1,-0.29,0.08,352.91,352.92,0.0,0.0
1629645568.59985900,57228766,-0.29,0.1,-0.31,0.08,352.91,352.92,0.0,0.0
1629645568.69981909,57328726,-0.3,0.1,-0.32,0.08,352.91,352.92,0.0,0.0
1629645568.79977894,57428686,-0.32,0.1,-0.33,0.08,352.91,352.93,0.0,0.0
1629645568.89973903,57528646,-0.35,0.1,-0.34,0.08,352.91,352.93,0.0,0.0
1629645568.99969912,57628606,-0.36,0.1,-0.35,0.08,352.91,352.93,0.0,0.0
1629645569.09965897,57728566,-0.35,0.1,-0.35,0.08,352.91,352.93,0.0,0.0
1629645569.19961905,57828526,-0.39,0.1,-0.35,0.08,352.91,352.93,0.0,0.0
1629645569.29957914,57928486,-0.41,0.1,-0.37,0.08,352.91,352.93,0.0,0.0
1629645569.39953899,58028446,-0.43,0.1,-0.4,0.08,352.91,352.93,0.0,0.0
1629645569.49949908,58128406,-0.46,0.09,-0.43,0.07,352.91,352.93,0.0,0.0
1629645569.59945893,58228366,-0.47,-0.13,-0.43,-0.13,352.91,352.93,0.0,0.0
1629645569.69941902,58328326,-0.49,-0.47,-0.41,-0.43,352.91,352.93,0.0,0.0
1629645569.79937911,58428286,-0.42,-0.72,-0.33,-0.63,352.91,352.93,0.0,0.0
1629645569.89933896,58528246,-0.28,-0.78,-0.2,-0.67,352.91,352.92,0.0,0.0
1629645569.99929905,58628206,-0.08,-0.67,-0.02,-0.57,352.91,352.92,0.0,0.0
1629645570.09925914,58728166,0.14,-0.44,0.18,-0.35,352.91,352.91,0.0,0.0
1629645570.20005202,58828959,0.31,-0.17,0.34,-0.1,352.91,352.91,0.0,0.0
1629645570.30001211,58928919,0.44,0.06,0.41,0.08,352.91,352.91,0.0,0.0
1629645570.39997196,59028879,0.51,0.22,0.41,0.18,352.91,352.91,0.0,0.0
1629645570.49993205,59128839,0.52,0.3,0.38,0.19,352.91,352.91,0.0,0.0
1629645570.59989214,59228799,0.49,0.3,0.33,0.15,352.91,352.91,0.0,0.0
1629645570.69985199,59328759,0.48,0.28,0.34,0.12,352.91,352.91,0.0,0.0
1629645570.79981208,59428719,0.47,0.26,0.35,0.13,352.91,352.91,0.0,0.0
1629645570.89977193,59528679,0.46,0.25,0.35,0.15,352.91,352.91,0.0,0.0
1629645570.99973202,59628639,0.46,0.24,0.36,0.17,352.91,352.91,0.0,0.0
1629645571.09969211,59728599,0.44,0.24,0.35,0.18,352.91,352.91,0.0,0.0
1629645571.19965196,59828559,0.42,0.24,0.35,0.18,352.91,352.91,0.0,0.0
1629645571.29961205,59928519,0.42,0.25,0.34,0.2,352.72,352.72,0.0,0.0
1629645571.39957213,60028479,0.43,0.28,0.32,0.2,352.72,352.72,0.0,0.0
1629645571.49953198,60128439,0.4,0.29,0.29,0.2,352.72,352.72,0.0,0.0
1629645571.59949207,60228399,0.36,0.28,0.3,0.2,352.72,352.72,0.0,0.0
1629645571.69945192,60328359,0.32,0.25,0.32,0.21,352.72,352.73,0.0,0.0
1629645571.79941201,60428319,0.29,0.21,0.32,0.23,352.72,352.73,0.0,0.0
1629645571.89937210,60528279,0.26,0.18,0.31,0.23,352.72,352.73,0.0,0.0
1629645571.99933195,60628239,0.24,0.15,0.27,0.21,352.72,352.74,0.0,0.0
1629645572.09929204,60728199,0.25,0.17,0.22,0.17,352.72,352.74,0.0,0.0
1629645572.19925213,60828159,0.28,0.2,0.22,0.15,352.72,352.73,0.0,0.0
1629645572.30004501,60928952,0.25,0.22,0.18,0.13,352.72,352.73,0.0,0.0
1629645572.40000510,61028912,0.2,0.19,0.15,0.1,352.72,352.73,0.0,0.0
1629645572.49996495,61128872,0.14,0.13,0.14,0.08,352.72,352.73,0.0,0.0
1629645572.59992504,61228832,0.13,0.09,0.14,0.08,352.72,352.73,0.0,0.0
1629645572.69988513,61328792,0.14,0.08,0.14,0.09,352.72,352.73,0.0,0.0
1629645572.79984498,61428752,0.14,0.08,0.13,0.09,352.72,352.73,0.0,0.0
1629645572.89980507,61528712,0.13,0.09,0.12,0.09,352.72,352.73,0.0,0.0
1629645572.99976492,61628672,0.13,0.08,0.11,0.09,352.72,352.73,0.0,0.0
1629645573.09972501,61728632,0.14,0.11,0.11,0.08,352.72,352.73,0.0,0.0
1629645573.19968510,61828592,0.13,0.11,0.12,0.09,352.72,352.73,0.0,0.0
1629645573.29964495,61928552,0.14,0.12,0.09,0.08,352.72,352.73,0.0,0.0
1629645573.39960504,62028512,0.13,0.12,0.03,0.04,352.72,352.73,0.0,0.0
1629645573.49956512,62128472,0.09,0.11,0.01,-0.01,352.72,352.72,0.0,0.0
1629645573.59952497,62228432,0.09,0.08,0.03,-0.02,352.72,352.72,0.0,0.0
1629645573.69948506,62328392,0.12,0.08,0.06,0.01,352.72,352.72,0.0,0.0
1629645573.79944515,62428352,0.14,0.1,0.09,0.05,352.72,352.72,0.0,0.0
1629645573.89940500,62528312,0.14,0.12,0.11,0.09,352.72,352.72,0.0,0.0
1629645573.99936509,62628272,0.12,0.12,0.1,0.11,352.72,352.72,0.0,0.0
1629645574.09932494,62728232,0.08,0.09,0.07,0.08,352.72,352.72,0.0,0.0
1629645574.19928503,62828192,0.07,0.06,0.05,0.05,352.72,352.72,0.0,0.0
1629645574.30007815,62928985,0.08,0.07,0.05,0.04,352.72,352.73,0.0,0.0
1629645574.40003800,63028945,0.08,0.07,0.06,0.03,352.72,352.73,0.0,0.0
1629645574.49999809,63128905,0.07,0.07,0.08,0.05,352.72,352.73,0.0,0.0
1629645574.59995794,63228865,0.06,0.06,0.1,0.06,352.72,352.73,0.0,0.0
1629645574.69991803,63328825,0.05,0.05,0.15,0.11,352.72,352.73,0.0,0.0
1629645574.79987812,63428785,0.06,0.03,0.21,0.17,352.72,352.73,0.0,0.0
1629645574.89983797,63528745,0.08,0.04,0.22,0.21,352.72,352.74,0.0,0.0
1629645574.99979806,63628705,0.1,0.06,0.21,0.23,352.72,352.74,0.0,0.0
1629645575.09975815,63728665,0.13,0.1,0.21,0.23,352.72,352.73,0.0,0.0
1629645575.19971800,63828625,0.15,0.13,0.2,0.22,352.72,352.73,0.0,0.0
1629645575.29967809,63928585,0.15,0.15,0.18,0.2,352.72,352.73,0.0,0.0
1629645575.39963794,64028545,0.14,0.15,0.17,0.18,352.72,352.73,0.0,0.0
1629645575.49959803,64128505,0.13,0.15,0.18,0.17,352.72,352.73,0.0,0.0
1629645575.59955812,64228465,0.12,0.12,0.18,0.17,352.72,352.73,0.0,0.0
1629645575.69951797,64328425,0.11,0.1,0.14,0.15,352.72,352.73,0.0,0.0
1629645575.79947805,64428385,0.11,0.09,0.12,0.14,352.72,352.73,0.0,0.0
1629645575.89943814,64528345,0.12,0.09,0.12,0.12,352.72,352.73,0.0,0.0
1629645575.99939799,64628305,0.15,0.11,0.11,0.11,352.72,352.73,0.0,0.0
1629645576.09935808,64728265,0.17,0.14,0.11,0.1,352.72,352.73,0.0,0.0
1629645576.19931793,64828225,0.16,0.16,0.1,0.09,352.72,352.73,0.0,0.0
1629645576.29927802,64928185,0.18,0.17,0.1,0.08,352.72,352.73,0.0,0.0
1629645576.40007114,65028978,0.18,0.18,0.11,0.09,352.72,352.73,0.0,0.0
1629645576.50003099,65128938,0.18,0.18,0.13,0.1,352.72,352.73,0.0,0.0
1629645576.59999108,65228898,0.2,0.19,0.13,0.12,352.72,352.73,0.0,0.0
1629645576.69995093,65328858,0.16,0.18,0.14,0.12,352.72,352.72,0.0,0.0
1629645576.79991102,65428818,0.1,0.13,0.17,0.14,352.72,352.72,0.0,0.0
1629645576.89987111,65528778,0.08,0.07,0.19,0.17,352.72,352.72,0.0,0.0
1629645576.99983096,65628738,0.07,0.04,0.19,0.19,352.72,352.72,0.0,0.0
1629645577.09979105,65728698,0.09,0.04,0.15,0.17,352.72,352.72,0.0,0.0
1629645577.19975114,65828658,0.09,0.05,0.13,0.14,352.72,352.73,0.0,0.0
1629645577.29971099,65928618,0.1,0.06,0.11,0.11,352.72,352.73,0.0,0.0
1629645577.39967108,66028578,0.11,0.08,0.07,0.08,352.72,352.73,0.0,0.0
1629645577.49963093,66128538,0.1,0.1,0.05,0.05,352.72,352.73,0.0,0.0
1629645577.59959102,66228498,0.08,0.09,0.04,0.02,352.72,352.73,0.0,0.0
1629645577.69955111,66328458,0.06,0.07,0.07,0.03,352.72,352.73,0.0,0.0
1629645577.79951096,66428418,0.07,0.07,0.09,0.07,352.72,352.73,0.0,0.0
1629645577.89947104,66528378,0.07,0.07,0.11,0.1,352.72,352.73,0.0,0.0
1629645577.99943113,66628338,0.07,0.07,0.12,0.11,352.72,352.73,0.0,0.0
1629645578.09939098,66728298,0.07,0.07,0.11,0.12,352.72,352.73,0.0,0.0
1629645578.19935107,66828258,0.07,0.07,0.11,0.11,352.72,352.73,0.0,0.0
1629645578.29931092,66928218,0.08,0.07,0.08,0.09,352.72,352.72,0.0,0.0
1629645578.39927101,67028178,0.08,0.07,0.05,0.06,352.72,352.72,0.0,0.0
1629645578.50006413,67128971,0.07,0.06,0.05,0.04,352.72,352.72,0.0,0.0
1629645578.60002398,67228931,0.08,0.05,0.08,0.04,352.72,352.72,0.0,0.0
1629645578.69998407,67328891,0.14,0.09,0.11,0.07,352.72,352.72,0.0,0.0
1629645578.79994392,67428851,0.18,0.15,0.12,0.1,352.72,352.72,0.0,0.0
1629645578.89990401,67528811,0.21,0.2,0.1,0.11,352.72,352.72,0.0,0.0
1629645578.99986410,67628771,0.19,0.21,0.09,0.1,352.72,352.72,0.0,0.0
1629645579.09982395,67728731,0.17,0.2,0.09,0.09,352.72,352.72,0.0,0.0
1629645579.19978404,67828691,0.16,0.18,0.06,0.08,352.72,352.72,0.0,0.0
1629645579.29974413,67928651,0.14,0.15,0.04,0.06,352.72,352.71,0.0,0.0
1629645579.39970398,68028611,0.11,0.12,0.06,0.05,352.72,352.71,0.0,0.0
1629645579.49966407,68128571,0.07,0.08,0.07,0.05,352.72,352.72,0.0,0.0
1629645579.59962392,68228531,0.08,0.06,0.08,0.05,352.72,352.72,0.0,0.0
1629645579.69958401,68328491,0.11,0.07,0.1,0.07,352.72,352.72,0.0,0.0
1629645579.79954410,68428451,0.15,0.11,0.1,0.09,352.72,352.73,0.0,0.0
1629645579.89950395,68528411,0.17,0.16,0.11,0.1,352.72,352.73,0.0,0.0
1629645579.99946404,68628371,0.16,0.18,0.1,0.11,352.72,352.73,0.0,0.0
1629645580.09942412,68728331,0.14,0.17,0.07,0.1,352.72,352.73,0.0,0.0
1629645580.19938397,68828291,0.1,0.14,0.03,0.06,352.72,352.73,0.0,0.0
1629645580.29934406,68928251,0.1,0.1,0.03,0.03,352.72,352.73,0.0,0.0
1629645580.39930415,69028211,0.1,0.07,0.06,0.02,352.72,352.73,0.0,0.0
1629645580.49926400,69128171,0.11,0.09,0.08,0.04,352.72,352.73,0.0,0.0
1629645580.60005713,69228964,0.13,0.11,0.09,0.06,352.72,352.73,0.0,0.0
1629645580.70001698,69328924,0.13,0.13,0.13,0.11,352.72,352.73,0.0,0.0
1629645580.79997706,69428884,0.09,0.11,0.14,0.13,352.72,352.73,0.0,0.0
1629645580.89993715,69528844,0.07,0.08,0.13,0.13,352.72,352.73,0.0,0.0
1629645580.99989700,69628804,0.09,0.07,0.12,0.12,352.72,352.73,0.0,0.0
1629645581.09985709,69728764,0.12,0.09,0.11,0.11,352.72,352.73,0.0,0.0
1629645581.19981694,69828724,0.13,0.11,0.12,0.11,352.72,352.73,0.0,0.0
1629645581.29977703,69928684,0.11,0.12,0.16,0.13,352.72,352.73,0.0,0.0
1629645581.39973712,70028644,0.08,0.09,0.17,0.16,352.72,352.73,0.0,0.0
1629645581.49969697,70128604,0.06,0.06,0.14,0.16,352.72,352.73,0.0,0.0
1629645581.59965706,70228564,0.09,0.05,0.11,0.13,352.72,352.73,0.0,0.0
1629645581.69961715,70328524,0.14,0.08,0.1,0.11,352.72,352.73,0.0,0.0
1629645581.79957700,70428484,0.16,0.12,0.08,0.08,352.72,352.72,0.0,0.0
1629645581.89953709,70528444,0.15,0.15,0.08,0.07,352.72,352.72,0.0,0.0
1629645581.99949694,70628404,0.15,0.15,0.11,0.07,352.72,352.72,0.0,0.0
1629645582.09945703,70728364,0.13,0.15,0.1,0.09,352.72,352.72,0.0,0.0
1629645582.19941711,70828324,0.12,0.13,0.08,0.08,352.72,352.72,0.0,0.0
1629645582.29937696,70928284,0.11,0.12,0.09,0.08,352.72,352.72,0.0,0.0
1629645582.39933705,71028244,0.1,0.1,0.11,0.09,352.72,352.72,0.0,0.0
1629645582.49929714,71128204,0.08,0.07,0.14,0.11,352.72,352.72,0.0,0.0
1629645582.59925699,71228164,0.05,0.04,0.14,0.13,352.72,352.72,0.0,0.0
1629645582.70005012,71328957,0.06,0.04,0.12,0.12,352.72,352.73,0.0,0.0
1629645582.80000997,71428917,0.09,0.06,0.11,0.12,352.72,352.73,0.0,0.0
1629645582.89997005,71528877,0.12,0.09,0.1,0.11,352.72,352.73,0.0,0.0
1629645582.99993014,71628837,0.14,0.12,0.11,0.1,352.72,352.73,0.0,0.0
1629645583.09988999,71728797,0.16,0.15,0.12,0.1,352.72,352.73,0.0,0.0
1629645583.19985008,71828757,0.18,0.17,0.14,0.11,352.72,352.73,0.0,0.0
1629645583.29980993,71928717,0.15,0.18,0.16,0.14,352.72,352.73,0.0,0.0
1629645583.39977002,72028677,0.1,0.14,0.12,0.14,352.72,352.73,0.0,0.0
1629645583.49973011,72128637,0.08,0.11,0.09,0.12,352.72,352.73,0.0,0.0
1629645583.59968996,72228597,0.06,0.08,0.09,0.1,352.72,352.72,0.0,0.0
1629645583.69965005,72328557,0.06,0.05,0.09,0.1,352.72,352.72,0.0,0.0
1629645583.79961014,72428517,0.08,0.05,0.08,0.09,352.72,352.72,0.0,0.0
1629645583.89956999,72528477,0.11,0.06,0.09,0.08,352.72,352.72,0.0,0.0
1629645583.99953008,72628437,0.1,0.07,0.08,0.07,352.72,352.72,0.0,0.0
1629645584.09948993,72728397,0.05,0.07,0.11,0.07,352.72,352.73,0.0,0.0
1629645584.19945002,72828357,0.0,0.02,0.15,0.11,352.72,352.73,0.0,0.0
1629645584.29941010,72928317,-0.01,-0.01,0.13,0.14,352.72,352.73,0.0,0.0
1629645584.39936996,73028277,0.03,-0.01,0.11,0.13,352.72,352.73,0.0,0.0
1629645584.49933004,73128237,0.06,0.02,0.11,0.13,352.72,352.73,0.0,0.0
1629645584.59929013,73228197,0.08,0.05,0.08,0.11,352.72,352.73,0.0,0.0
1629645584.69924998,73328157,0.09,0.08,0.06,0.07,352.72,352.73,0.0,0.0
1629645584.80004311,73428950,0.11,0.1,0.08,0.05,352.72,352.73,0.0,0.0
1629645584.90000296,73528910,0.13,0.13,0.1,0.07,352.72,352.73,0.0,0.0
1629645584.99996305,73628870,0.13,0.13,0.1,0.08,352.72,352.73,0.0,0.0
1629645585.09992313,73728830,0.16,0.15,0.08,0.07,352.72,352.73,0.0,0.0
1629645585.19988298,73828790,0.19,0.18,0.05,0.04,352.72,352.73,0.0,0.0
1629645585.29984307,73928750,0.18,0.19,0.05,0.03,352.72,352.73,0.0,0.0
1629645585.39980292,74028710,0.16,0.17,0.05,0.03,352.72,352.73,0.0,0.0
1629645585.49976301,74128670,0.16,0.16,0.07,0.04,352.72,352.73,0.0,0.0
1629645585.59972310,74228630,0.19,0.16,0.1,0.07,352.72,352.73,0.0,0.0
1629645585.69968295,74328590,0.2,0.18,0.09,0.09,352.72,352.73,0.0,0.0
1629645585.79964304,74428550,0.19,0.18,0.07,0.08,352.72,352.73,0.0,0.0
1629645585.89960313,74528510,0.19,0.18,0.04,0.05,352.72,352.73,0.0,0.0
1629645585.99956298,74628470,0.19,0.19,-0.01,0.01,352.72,352.73,0.0,0.0
1629645586.09952307,74728430,0.2,0.19,-0.02,-0.03,352.72,352.73,0.0,0.0
1629645586.19948292,74828390,0.2,0.19,-0.03,-0.04,352.72,352.72,0.0,0.0
1629645586.29944301,74928350,0.16,0.17,-0.04,-0.06,352.72,352.72,0.0,0.0
1629645586.39940310,75028310,0.11,0.12,-0.01,-0.05,352.72,352.72,0.0,0.0
1629645586.49936295,75128270,0.12,0.1,0.0,-0.02,352.72,352.72,0.0,0.0
1629645586.59932303,75228230,0.15,0.12,0.0,-0.01,352.72,352.73,0.0,0.0
1629645586.69928312,75328190,0.17,0.15,0.01,0.0,352.72,352.73,0.0,0.0
1629645586.80007601,75428983,0.2,0.18,0.03,0.02,352.72,352.73,0.0,0.0
1629645586.90003610,75528943,0.22,0.22,0.04,0.04,352.72,352.73,0.0,0.0
1629645586.99999595,75628903,0.21,0.24,0.01,0.04,352.72,352.73,0.0,0.0
1629645587.09995604,75728863,0.15,0.2,0.03,0.03,352.72,352.73,0.0,0.0
1629645587.19991612,75828823,0.12,0.15,0.06,0.04,352.72,352.73,0.0,0.0
1629645587.29987597,75928783,0.12,0.11,0.07,0.05,352.72,352.73,0.0,0.0
1629645587.39983606,76028743,0.15,0.11,0.09,0.06,352.72,352.73,0.0,0.0
1629645587.49979615,76128703,0.13,0.1,0.11,0.08,352.72,352.73,0.0,0.0
1629645587.59975600,76228663,0.14,0.1,0.13,0.11,352.72,352.73,0.0,0.0
1629645587.69971609,76328623,0.16,0.13,0.12,0.13,352.72,352.73,0.0,0.0
1629645587.79967594,76428583,0.19,0.17,0.12,0.12,352.72,352.73,0.0,0.0
1629645587.89963603,76528543,0.2,0.2,0.16,0.14,352.72,352.73,0.0,0.0
1629645587.99959612,76628503,0.21,0.22,0.17,0.16,352.72,352.72,0.0,0.0
1629645588.09955597,76728463,0.19,0.21,0.16,0.17,352.72,352.72,0.0,0.0
1629645588.19951606,76828423,0.15,0.18,0.16,0.18,352.72,352.72,0.0,0.0
1629645588.29947615,76928383,0.13,0.14,0.17,0.18,352.72,352.73,0.0,0.0
1629645588.39943600,77028343,0.11,0.11,0.15,0.17,352.72,352.73,0.0,0.0
1629645588.49939609,77128303,0.14,0.11,0.14,0.15,352.72,352.73,0.0,0.0
1629645588.59935594,77228263,0.19,0.15,0.16,0.14,352.72,352.73,0.0,0.0
1629645588.69931602,77328223,0.23,0.19,0.15,0.15,352.72,352.73,0.0,0.0
1629645588.79927611,77428183,0.22,0.23,0.13,0.14,352.72,352.73,0.0,0.0
1629645588.90006900,77528976,0.19,0.22,0.14,0.13,352.72,352.73,0.0,0.0
1629645589.00002909,77628936,0.14,0.18,0.13,0.11,352.72,352.73,0.0,0.0
1629645589.09998894,77728896,0.14,0.14,0.1,0.09,352.72,352.73,0.0,0.0
1629645589.19994903,77828856,0.16,0.13,0.1,0.08,352.72,352.73,0.0,0.0
1629645589.29990911,77928816,0.17,0.14,0.14,0.11,352.72,352.72,0.0,0.0
1629645589.39986897,78028776,0.19,0.15,0.16,0.14,352.72,352.72,0.0,0.0
1629645589.49982905,78128736,0.19,0.17,0.13,0.14,352.72,352.72,0.0,0.0
1629645589.59978914,78228696,0.18,0.18,0.06,0.09,352.72,352.72,0.0,0.0
1629645589.69974899,78328656,0.15,0.17,0.01,0.02,352.72,352.72,0.0,0.0
1629645589.79970908,78428616,0.14,0.15,0.03,0.0,352.72,352.72,0.0,0.0
1629645589.89966893,78528576,0.13,0.13,0.09,0.04,352.72,352.72,0.0,0.0
1629645589.99962902,78628536,0.12,0.11,0.14,0.1,352.72,352.73,0.0,0.0
1629645590.09958911,78728496,0.1,0.08,0.17,0.15,352.72,352.73,0.0,0.0
1629645590.19954896,78828456,0.07,0.06,0.17,0.18,352.72,352.73,0.0,0.0
1629645590.29950905,78928416,0.07,0.05,0.15,0.16,352.72,352.73,0.0,0.0
1629645590.39946914,79028376,0.07,0.06,0.13,0.14,352.72,352.73,0.0,0.0
1629645590.49942899,79128336,0.09,0.07,0.12,0.12,352.72,352.73,0.0,0.0
1629645590.59938908,79228296,0.11,0.09,0.1,0.1,352.72,352.73,0.0,0.0
1629645590.69934893,79328256,0.08,0.09,0.1,0.08,352.72,352.72,0.0,0.0
1629645590.79930902,79428216,0.05,0.06,0.14,0.1,352.72,352.72,0.0,0.0
1629645590.89926910,79528176,0.05,0.04,0.17,0.14,352.72,352.72,0.0,0.0
1629645591.00006199,79628969,0.07,0.05,0.19,0.18,352.72,352.72,0.0,0.0
1629645591.10002208,79728929,0.1,0.07,0.18,0.19,352.72,352.72,0.0,0.0
1629645591.19998193,79828889,0.1,0.1,0.17,0.18,352.72,352.72,0.0,0.0
1629645591.29994202,79928849,0.06,0.08,0.14,0.16,352.72,352.72,0.0,0.0
1629645591.39990211,80028809,0.02,0.04,0.11,0.12,352.72,352.72,0.0,0.0
1629645591.49986196,80128769,0.02,0.0,0.09,0.09,352.72,352.72,0.0,0.0
1629645591.59982204,80228729,0.04,0.0,0.11,0.08,352.72,352.72,0.0,0.0
1629645591.69978213,80328689,0.07,0.02,0.13,0.09,352.72,352.72,0.0,0.0
1629645591.79974198,80428649,0.11,0.06,0.15,0.11,352.72,352.72,0.0,0.0
1629645591.89970207,80528609,0.14,0.11,0.13,0.12,352.72,352.72,0.0,0.0
1629645591.99966192,80628569,0.16,0.15,0.13,0.12,352.72,352.72,0.0,0.0
1629645592.09962201,80728529,0.19,0.19,0.14,0.13,352.72,352.72,0.0,0.0
1629645592.19958210,80828489,0.18,0.2,0.15,0.14,352.72,352.73,0.0,0.0
1629645592.29954195,80928449,0.15,0.18,0.15,0.15,352.72,352.73,0.0,0.0
1629645592.39950204,81028409,0.15,0.16,0.16,0.15,352.72,352.73,0.0,0.0
1629645592.49946213,81128369,0.14,0.15,0.14,0.15,352.72,352.73,0.0,0.0
1629645592.59942198,81228329,0.14,0.14,0.12,0.13,352.72,352.73,0.0,0.0
1629645592.69938207,81328289,0.13,0.14,0.09,0.1,352.72,352.73,0.0,0.0
1629645592.79934192,81428249,0.13,0.14,0.08,0.08,352.72,352.73,0.0,0.0
1629645592.89930201,81528209,0.15,0.14,0.1,0.08,352.72,352.73,0.0,0.0
1629645592.99926209,81628169,0.17,0.15,0.1,0.09,352.72,352.73,0.0,0.0
1629645593.10005498,81728962,0.18,0.16,0.13,0.11,352.72,352.73,0.0,0.0
1629645593.20001507,81828922,0.18,0.17,0.17,0.15,352.72,352.73,0.0,0.0
1629645593.29997492,81928882,0.17,0.16,0.19,0.19,352.72,352.73,0.0,0.0
1629645593.39993501,82028842,0.18,0.16,0.2,0.22,352.72,352.73,0.0,0.0
1629645593.49989510,82128802,0.16,0.16,0.18,0.22,352.72,352.73,0.0,0.0
1629645593.59985495,82228762,0.1,0.12,0.12,0.18,352.72,352.72,0.0,0.0
1629645593.69981503,82328722,0.1,0.09,0.08,0.12,352.72,352.72,0.0,0.0
1629645593.79977512,82428682,0.1,0.07,0.09,0.08,352.72,352.72,0.0,0.0
1629645593.89973497,82528642,0.11,0.07,0.13,0.09,352.72,352.72,0.0,0.0
1629645593.99969506,82628602,0.14,0.09,0.15,0.11,352.72,352.72,0.0,0.0
1629645594.09965515,82728562,0.16,0.13,0.16,0.14,352.72,352.72,0.0,0.0
1629645594.19961500,82828522,0.18,0.16,0.14,0.14,352.72,352.72,0.0,0.0
1629645594.29957509,82928482,0.19,0.19,0.11,0.12,352.72,352.72,0.0,0.0
1629645594.39953494,83028442,0.17,0.2,0.11,0.1,352.72,352.72,0.0,0.0
1629645594.49949503,83128402,0.12,0.17,0.1,0.09,352.72,352.72,0.0,0.0
1629645594.59945512,83228362,0.09,0.11,0.1,0.08,352.72,352.72,0.0,0.0
1629645594.69941497,83328322,0.08,0.08,0.12,0.1,352.72,352.72,0.0,0.0
1629645594.79937506,83428282,0.09,0.07,0.13,0.11,352.72,352.72,0.0,0.0
1629645594.89933515,83528242,0.08,0.07,0.16,0.13,352.72,352.73,0.0,0.0
1629645594.99929500,83628202,0.09,0.07,0.18,0.15,352.72,352.73,0.0,0.0
1629645595.09925508,83728162,0.1,0.08,0.2,0.17,352.72,352.73,0.0,0.0
1629645595.20004797,83828955,0.13,0.09,0.2,0.19,352.72,352.73,0.0,0.0
1629645595.30000806,83928915,0.15,0.12,0.18,0.19,352.72,352.73,0.0,0.0
1629645595.39996815,84028875,0.17,0.14,0.17,0.17,352.72,352.73,0.0,0.0
1629645595.49992800,84128835,0.2,0.18,0.15,0.15,352.72,352.73,0.0,0.0
1629645595.59988809,84228795,0.21,0.22,0.11,0.12,352.72,352.73,0.0,0.0
1629645595.69984794,84328755,0.19,0.22,0.1,0.1,352.72,352.72,0.0,0.0
1629645595.79980803,84428715,0.17,0.19,0.11,0.1,352.72,352.72,0.0,0.0
1629645595.89976811,84528675,0.14,0.16,0.1,0.09,352.72,352.72,0.0,0.0
1629645595.99972796,84628635,0.14,0.14,0.08,0.08,352.72,352.72,0.0,0.0
1629645596.09968805,84728595,0.14,0.13,0.06,0.06,352.72,352.72,0.0,0.0
1629645596.19964814,84828555,0.16,0.13,0.06,0.04,352.72,352.72,0.0,0.0
1629645596.29960799,84928515,0.17,0.15,0.09,0.06,352.72,352.72,0.0,0.0
1629645596.39956808,85028475,0.14,0.15,0.11,0.08,352.72,352.71,0.0,0.0
1629645596.49952793,85128435,0.13,0.13,0.15,0.11,352.72,352.71,0.0,0.0
1629645596.59948802,85228395,0.11,0.11,0.19,0.16,352.72,352.71,0.0,0.0
1629645596.69944811,85328355,0.11,0.09,0.22,0.21,352.72,352.71,0.0,0.0
1629645596.79940796,85428315,0.13,0.08,0.22,0.24,352.72,352.72,0.0,0.0
1629645596.89936805,85528275,0.17,0.12,0.17,0.22,352.72,352.72,0.0,0.0
1629645596.99932814,85628235,0.16,0.15,0.1,0.14,352.72,352.72,0.0,0.0
1629645597.09928799,85728195,0.14,0.15,0.06,0.07,352.72,352.72,0.0,0.0
1629645597.19924808,85828155,0.14,0.14,0.05,0.02,352.72,352.72,0.0,0.0
1629645597.30004096,85928948,0.14,0.15,0.06,0.02,352.72,352.72,0.0,0.0
1629645597.40000105,86028908,0.14,0.14,0.09,0.03,352.72,352.72,0.0,0.0
1629645597.49996114,86128868,0.13,0.13,0.12,0.07,352.72,352.72,0.0,0.0
1629645597.59992099,86228828,0.14,0.12,0.13,0.11,352.72,352.72,0.0,0.0
1629645597.69988108,86328788,0.15,0.14,0.11,0.12,352.72,352.72,0.0,0.0
1629645597.79984093,86428748,0.16,0.15,0.11,0.11,352.72,352.72,0.0,0.0
1629645597.89980102,86528708,0.17,0.17,0.07,0.08,352.72,352.72,0.0,0.0
1629645597.99976110,86628668,0.14,0.16,0.06,0.04,352.72,352.73,0.0,0.0
1629645598.09972095,86728628,0.1,0.12,0.11,0.06,352.72,352.73,0.0,0.0
1629645598.19968104,86828588,0.05,0.07,0.15,0.11,352.72,352.72,0.0,0.0
1629645598.29964113,86928548,0.03,0.01,0.15,0.15,352.72,352.72,0.0,0.0
1629645598.39960098,87028508,0.06,0.0,0.13,0.16,352.72,352.72,0.0,0.0
1629645598.49956107,87128468,0.11,0.05,0.13,0.16,352.72,352.72,0.0,0.0
1629645598.59952092,87228428,0.16,0.12,0.13,0.15,352.72,352.72,0.0,0.0
1629645598.69948101,87328388,0.14,0.15,0.1,0.12,352.72,352.72,0.0,0.0
1629645598.79944110,87428348,0.13,0.14,0.07,0.08,352.72,352.72,0.0,0.0
1629645598.89940095,87528308,0.12,0.13,0.04,0.03,352.72,352.72,0.0,0.0
1629645598.99936104,87628268,0.11,0.12,0.05,0.01,352.72,352.72,0.0,0.0
1629645599.09932113,87728228,0.12,0.11,0.07,0.02,352.72,352.72,0.0,0.0
1629645599.19928098,87828188,0.13,0.12,0.11,0.06,352.72,352.72,0.0,0.0
1629645599.30007410,87928981,0.09,0.11,0.13,0.11,352.72,352.73,0.0,0.0
1629645599.40003395,88028941,0.05,0.07,0.14,0.14,352.72,352.73,0.0,0.0
1629645599.49999404,88128901,0.05,0.04,0.14,0.15,352.72,352.73,0.0,0.0
1629645599.59995413,88228861,0.08,0.04,0.14,0.15,352.72,352.73,0.0,0.0
1629645599.69991398,88328821,0.09,0.06,0.13,0.14,352.72,352.73,0.0,0.0
1629645599.79987407,88428781,0.1,0.08,0.11,0.14,352.72,352.73,0.0,0.0
1629645599.89983392,88528741,0.09,0.1,0.09,0.11,352.72,352.73,0.0,0.0
1629645599.99979401,88628701,0.07,0.08,0.09,0.1,352.72,352.73,0.0,0.0
1629645600.09975410,88728661,0.08,0.07,0.08,0.09,352.72,352.73,0.0,0.0
1629645600.19971395,88828621,0.1,0.07,0.07,0.07,352.72,352.73,0.0,0.0
1629645600.29967403,88928581,0.12,0.09,0.11,0.08,352.72,352.72,0.0,0.0
1629645600.39963412,89028541,0.17,0.13,0.15,0.11,352.72,352.72,0.0,0.0
1629645600.49959397,89128501,0.21,0.18,0.16,0.14,352.72,352.72,0.0,0.0
1629645600.59955406,89228461,0.22,0.22,0.17,0.15,352.72,352.72,0.0,0.0
1629645600.69951415,89328421,0.2,0.22,0.16,0.16,352.72,352.72,0.0,0.0
1629645600.79947400,89428381,0.19,0.2,0.15,0.16,352.72,352.72,0.0,0.0
1629645600.89943409,89528341,0.18,0.19,0.15,0.16,352.72,352.72,0.0,0.0
1629645600.99939394,89628301,0.2,0.19,0.13,0.13,352.72,352.72,0.0,0.0
1629645601.09935403,89728261,0.18,0.19,0.14,0.12,352.72,352.73,0.0,0.0
1629645601.19931412,89828221,0.16,0.16,0.16,0.13,352.72,352.73,0.0,0.0
1629645601.29927397,89928181,0.16,0.15,0.18,0.15,352.72,352.73,0.0,0.0
1629645601.40006709,90028974,0.19,0.16,0.18,0.17,352.72,352.73,0.0,0.0
1629645601.50002694,90128934,0.2,0.18,0.18,0.19,352.72,352.73,0.0,0.0
1629645601.59998703,90228894,0.21,0.19,0.19,0.2,352.72,352.73,0.0,0.0
1629645601.69994712,90328854,0.22,0.21,0.19,0.2,352.72,352.73,0.0,0.0
1629645601.79990697,90428814,0.19,0.2,0.19,0.19,352.72,352.73,0.0,0.0
1629645601.89986706,90528774,0.17,0.17,0.19,0.18,352.72,352.72,0.0,0.0
1629645601.99982715,90628734,0.16,0.16,0.17,0.16,352.72,352.72,0.0,0.0
1629645602.09978700,90728694,0.15,0.14,0.15,0.14,352.72,352.72,0.0,0.0
1629645602.19974709,90828654,0.17,0.15,0.13,0.11,352.72,352.72,0.0,0.0
1629645602.29970694,90928614,0.2,0.18,0.14,0.1,352.72,352.72,0.0,0.0
1629645602.39966702,91028574,0.18,0.19,0.16,0.12,352.72,352.72,0.0,0.0
1629645602.49962711,91128534,0.11,0.16,0.18,0.14,352.72,352.71,0.0,0.0
1629645602.59958696,91228494,0.07,0.09,0.21,0.17,352.72,352.71,0.0,0.0
1629645602.69954705,91328454,0.07,0.05,0.2,0.19,352.72,352.71,0.0,0.0
1629645602.79950714,91428414,0.07,0.04,0.18,0.19,352.72,352.71,0.0,0.0
1629645602.89946699,91528374,0.07,0.04,0.15,0.17,352.72,352.72,0.0,0.0
1629645602.99942708,91628334,0.09,0.06,0.13,0.14,352.72,352.72,0.0,0.0
1629645603.09938693,91728294,0.08,0.07,0.15,0.15,352.72,352.72,0.0,0.0
1629645603.19934702,91828254,0.1,0.09,0.15,0.15,352.72,352.72,0.0,0.0
1629645603.29930711,91928214,0.16,0.13,0.13,0.13,352.72,352.72,0.0,0.0
1629645603.39926696,92028174,0.18,0.17,0.12,0.12,352.72,352.72,0.0,0.0
1629645603.50006008,92128967,0.17,0.19,0.13,0.11,352.72,352.73,0.0,0.0
1629645603.60001993,92228927,0.15,0.18,0.15,0.12,352.72,352.73,0.0,0.0
1629645603.69998002,92328887,0.16,0.17,0.19,0.15,352.72,352.73,0.0,0.0
1629645603.79994011,92428847,0.17,0.16,0.19,0.18,352.72,352.72,0.0,0.0
1629645603.89989996,92528807,0.17,0.16,0.17,0.17,352.72,352.72,0.0,0.0
1629645603.99986005,92628767,0.18,0.17,0.18,0.17,352.72,352.72,0.0,0.0
1629645604.09982014,92728727,0.19,0.18,0.18,0.18,352.72,352.72,0.0,0.0
1629645604.19977999,92828687,0.17,0.17,0.12,0.14,352.72,352.72,0.0,0.0
1629645604.29974008,92928647,0.16,0.16,0.08,0.09,352.72,352.72,0.0,0.0
1629645604.39969993,93028607,0.17,0.15,0.07,0.06,352.72,352.72,0.0,0.0
1629645604.49966002,93128567,0.15,0.14,0.07,0.04,352.72,352.72,0.0,0.0
1629645604.59962010,93228527,0.14,0.12,0.09,0.06,352.72,352.72,0.0,0.0
1629645604.69957995,93328487,0.15,0.13,0.11,0.08,352.72,352.72,0.0,0.0
1629645604.79954004,93428447,0.18,0.15,0.1,0.1,352.72,352.73,0.0,0.0
1629645604.89950013,93528407,0.21,0.18,0.1,0.1,352.72,352.73,0.0,0.0
1629645604.99945998,93628367,0.19,0.2,0.09,0.1,352.72,352.73,0.0,0.0
1629645605.09942007,93728327,0.17,0.18,0.09,0.09,352.72,352.72,0.0,0.0
1629645605.19937992,93828287,0.16,0.16,0.1,0.09,352.72,352.72,0.0,0.0
1629645605.29934001,93928247,0.17,0.15,0.11,0.1,352.72,352.72,0.0,0.0
1629645605.39930010,94028207,0.17,0.16,0.12,0.11,352.72,352.72,0.0,0.0
1629645605.49925995,94128167,0.18,0.17,0.13,0.13,352.72,352.72,0.0,0.0
1629645605.60005307,94228960,0.2,0.17,0.14,0.14,352.72,352.72,0.0,0.0
1629645605.70001292,94328920,0.24,0.2,0.14,0.14,352.72,352.72,0.0,0.0
1629645605.79997301,94428880,0.25,0.23,0.14,0.13,352.72,352.72,0.0,0.0
1629645605.89993310,94528840,0.24,0.25,0.16,0.14,352.72,352.72,0.0,0.0
1629645605.99989295,94628800,0.22,0.23,0.16,0.15,352.72,352.72,0.0,0.0
1629645606.09985304,94728760,1.61,0.81,-5.43,-1.92,352.72,352.7,0.0,0.0
1629645606.19981313,94828720,2.72,2.19,-17.67,-11.5,352.71,352.5,0.0,0.0
1629645606.29977298,94928680,2.73,3.07,-20.46,-20.36,352.71,352.25,0.0,0.0
1629645606.39973307,95028640,2.1,2.98,-16.55,-22.01,352.71,352.41,0.0,0.01
1629645606.49969292,95128600,1.26,2.12,-10.6,-17.71,352.71,352.84,0.0,0.01
1629645606.59965301,95228560,0.58,1.05,-5.14,-10.52,352.71,353.18,0.0,0.01
1629645606.69961309,95328520,0.25,0.22,-1.67,-3.67,352.71,353.3,0.0,0.02
1629645606.79957294,95428480,0.24,-0.15,-0.49,0.68,352.71,353.27,0.0,0.02
1629645606.89953303,95528440,0.38,-0.13,-0.92,2.04,352.71,353.18,0.01,0.02
1629645606.99949312,95628400,0.53,0.1,-1.95,1.21,352.71,353.06,0.01,0.02
1629645607.09945297,95728360,0.61,0.37,-2.76,-0.5,352.71,352.91,0.01,0.01
1629645607.19941306,95828320,0.58,0.54,-2.82,-1.93,352.71,352.76,0.01,0.01
1629645607.29937315,95928280,0.45,0.54,-2.16,-2.39,352.71,352.64,0.01,0.01
1629645607.39933300,96028240,0.29,0.42,-1.1,-1.89,352.71,352.55,0.01,0.01
1629645607.49929309,96128200,0.15,0.24,0.03,-0.75,352.71,352.49,0.01,0.0
1629645607.59925294,96228160,0.03,0.06,0.98,0.54,352.71,352.46,0.01,0.0
1629645607.70004606,96328953,-0.01,-0.06,1.57,1.59,352.71,352.46,0.01,0.0
1629645607.80000615,96428913,0.0,-0.11,1.8,2.19,352.71,352.48,0.01,0.0
1629645607.89996600,96528873,0.04,-0.09,1.79,2.35,352.71,352.52,0.0,0.0
1629645607.99992609,96628833,0.09,-0.02,1.66,2.19,352.71,352.58,0.0,0.0
1629645608.09988594,96728793,0.1,0.04,1.53,1.89,352.71,352.64,0.0,0.0
1629645608.19984603,96828753,0.08,0.08,1.48,1.62,352.71,352.7,0.0,0.0
1629645608.29980612,96928713,0.03,0.07,1.55,1.5,352.71,352.75,0.0,0.0
1629645608.39976597,97028673,-0.03,0.02,1.64,1.51,352.71,352.79,0.0,0.0
1629645608.49972606,97128633,-0.09,-0.05,1.74,1.61,352.71,352.81,0.0,0.0
1629645608.59968615,97228593,-0.1,-0.11,1.79,1.71,352.71,352.82,0.0,0.0
1629645608.69964600,97328553,-0.08,-0.11,1.8,1.77,352.71,352.82,0.0,0.0
1629645608.79960608,97428513,-0.08,-0.11,1.76,1.78,352.71,352.8,0.0,0.0
1629645608.89956594,97528473,-0.07,-0.09,1.67,1.72,352.71,352.78,0.0,0.0
1629645608.99952602,97628433,-0.04,-0.07,1.56,1.6,352.71,352.76,0.0,0.0
1629645609.09948611,97728393,-0.02,-0.03,1.46,1.48,352.71,352.74,0.0,0.0
1629645609.19944596,97828353,-0.01,-0.02,1.35,1.35,352.71,352.72,0.0,0.0
1629645609.29940605,97928313,0.0,0.0,1.24,1.23,352.71,352.7,0.0,0.0
1629645609.39936614,98028273,0.02,0.01,1.13,1.1,352.71,352.69,0.0,0.0
1629645609.49932599,98128233,0.04,0.03,1.06,1.01,352.71,352.68,0.0,0.0
1629645609.59928608,98228193,0.03,0.04,1.02,0.95,352.71,352.68,0.0,0.0
1629645609.70007896,98328986,0.04,0.04,0.95,0.91,352.71,352.68,0.0,0.0
1629645609.80003905,98428946,0.05,0.05,0.91,0.87,352.71,352.69,0.0,0.0
1629645609.89999914,98528906,0.06,0.06,0.86,0.83,352.71,352.7,0.0,0.0
1629645609.99995899,98628866,0.08,0.07,0.77,0.77,352.71,352.71,0.0,0.0
1629645610.09991908,98728826,0.09,0.08,0.69,0.69,352.71,352.71,0.0,0.0
1629645610.19987893,98828786,0.09,0.09,0.61,0.61,352.71,352.72,0.0,0.0
1629645610.29983902,98928746,0.1,0.09,0.53,0.53,352.71,352.73,0.0,0.0
1629645610.39979911,99028706,0.12,0.11,0.46,0.45,352.71,352.73,0.0,0.0
1629645610.49975896,99128666,0.12,0.11,0.4,0.38,352.71,352.73,0.0,0.0
1629645610.59971905,99228626,0.14,0.13,0.36,0.33,352.71,352.72,0.0,0.0
1629645610.69967914,99328586,0.14,0.14,0.33,0.3,352.71,352.72,0.0,0.0
1629645610.79963899,99428546,0.14,0.14,0.29,0.27,352.71,352.72,0.0,0.0
1629645610.89959908,99528506,0.16,0.15,0.22,0.23,352.71,352.71,0.0,0.0
1629645610.99955893,99628466,0.17,0.16,0.17,0.16,352.71,352.71,0.0,0.0
1629645611.09951901,99728426,0.18,0.17,0.14,0.12,352.71,352.7,0.0,0.0
1629645611.19947910,99828386,0.2,0.19,0.13,0.1,352.71,352.7,0.0,0.0
1629645611.29943895,99928346,0.19,0.19,0.12,0.09,352.71,352.7,0.0,0.0
1629645611.39939904,100028306,0.15,0.17,0.08,0.07,352.71,352.7,0.0,0.0
1629645611.49935913,100128266,0.13,0.14,0.06,0.05,352.71,352.7,0.0,0.0
1629645611.59931898,100228226,0.12,0.11,0.03,0.02,352.71,352.71,0.0,0.0
1629645611.69927907,100328186,0.13,0.1,0.01,0.0,352.71,352.71,0.0,0.0
1629645611.80007195,100428979,0.13,0.11,0.01,0.0,352.71,352.71,0.0,0.0
1629645611.90003204,100528939,0.13,0.12,0.04,0.01,352.71,352.71,0.0,0.0
1629645611.99999213,100628899,0.11,0.11,0.07,0.05,352.71,352.71,0.0,0.0
1629645612.09995198,100728859,0.1,0.09,0.05,0.06,352.71,352.71,0.0,0.0
1629645612.19991207,100828819,0.11,0.09,0.01,0.04,352.71,352.71,0.0,0.0
1629645612.29987192,100928779,0.13,0.12,0.0,0.0,352.71,352.71,0.0,0.0
1629645612.39983201,101028739,0.51,0.2,-0.62,-0.09,352.71,352.71,0.0,0.0
1629645612.49979210,101128699,1.53,1.04,-8.39,-4.43,352.71,352.67,0.0,0.0
1629645612.59975195,101228659,2.23,1.97,-13.82,-11.51,352.71,352.54,0.0,0.0
1629645612.69971204,101328619,2.79,2.79,-15.48,-16.29,352.71,352.44,0.0,0.0
1629645612.79967213,101428579,3.28,3.41,-14.45,-17.49,352.71,352.51,0.0,0.0
1629645612.89963198,101528539,3.74,3.86,-11.93,-15.62,352.71,352.75,0.0,0.01
1629645612.99959207,101628499,4.26,4.26,-9.12,-12.06,352.71,353.07,0.0,0.01
1629645613.09955192,101728459,4.92,4.78,-6.79,-8.29,352.71,353.34,0.0,0.02
1629645613.19951200,101828419,5.6,5.41,-5.24,-5.32,352.71,353.47,0.0,0.02
1629645613.29947209,101928379,6.23,6.09,-4.37,-3.51,352.71,353.44,0.0,0.02
1629645613.39943194,102028339,6.8,6.75,-3.91,-2.71,352.71,353.26,0.0,0.02
1629645613.49939203,102128299,7.27,7.31,-3.54,-2.48,352.71,353.0,0.0,0.02
1629645613.59935212,102228259,7.66,7.76,-3.05,-2.37,352.71,352.75,0.0,0.02
1629645613.69931197,102328219,7.99,8.11,-2.36,-2.07,352.71,352.57,0.0,0.02
1629645613.79927206,102428179,8.25,8.38,-1.55,-1.52,352.71,352.46,0.0,0.01
1629645613.90006495,102528972,8.47,8.6,-0.69,-0.66,354.25,352.48,0.0,0.01
1629645614.00002503,102628932,8.68,8.81,0.05,0.5,358.51,352.97,0.0,0.01
1629645614.09998512,102728892,8.88,9.05,0.48,1.72,4.49,354.62,0.0,0.01
1629645614.19994497,102828852,9.15,9.34,0.47,2.43,10.49,357.88,0.0,0.01
1629645614.29990506,102928812,9.48,9.71,-0.1,2.34,16.49,2.73,0.0,0.02
1629645614.39986515,103028772,9.76,10.04,-1.23,1.38,22.49,8.95,0.0,0.03
1629645614.49982500,103128732,9.88,10.24,-2.73,-0.27,28.49,16.23,0.0,0.03
1629645614.59978509,103228692,9.77,10.18,-4.44,-2.4,34.49,24.26,0.0,0.04
1629645614.69974494,103328652,9.37,9.8,-6.2,-4.74,40.49,32.81,0.0,0.05
1629645614.79970503,103428612,8.67,9.0,-7.88,-7.06,46.49,41.62,0.0,0.05
1629645614.89966512,103528572,7.69,7.81,-9.39,-9.15,52.49,50.44,0.0,0.06
1629645614.99962497,103628532,6.44,6.26,-10.7,-10.88,58.49,58.98,0.0,0.06
1629645615.09958506,103728492,5.03,4.49,-11.74,-12.16,64.49,67.01,0.0,0.06
1629645615.19954515,103828452,3.59,2.7,-12.54,-13.0,70.49,74.36,0.0,0.06
1629645615.29950500,103928412,2.17,1.07,-13.14,-13.5,76.49,80.99,0.0,0.05
1629645615.39946508,104028372,0.81,-0.34,-13.63,-13.79,82.49,86.92,0.0,0.05
1629645615.49942493,104128332,-0.5,-1.52,-14.01,-13.98,88.49,92.29,0.0,0.05
1629645615.59938502,104228292,-1.79,-2.55,-14.28,-14.14,94.49,97.26,0.0,0.04
1629645615.69934511,104328252,-3.08,-3.5,-14.42,-14.28,100.31,102.01,0.0,0.04
1629645615.79930496,104428212,-4.38,-4.71,-14.37,-14.25,103.94,106.63,0.0,0.04
1629645615.89926505,104528172,-5.64,-6.43,-14.13,-13.91,105.13,110.75,0.0,0.03
1629645616.00005794,104628965,-6.7,-8.26,-13.81,-13.29,105.31,113.8,0.0,0.03
1629645616.10001802,104728925,-7.32,-9.65,-13.6,-12.66,105.09,115.45,0.0,0.02
1629645616.19997811,104828885,-7.43,-10.27,-13.63,-12.3,104.69,115.72,0.0,0.02
1629645616.29993796,104928845,-7.06,-10.03,-13.91,-12.33,104.26,114.8,0.0,0.02
1629645616.39989805,105028805,-6.34,-9.06,-14.37,-12.78,103.84,112.97,0.0,0.02
1629645616.49985814,105128765,-5.46,-7.59,-14.89,-13.53,103.46,110.5,0.0,0.02
1629645616.59981799,105228725,-4.6,-5.91,-15.38,-14.41,103.13,107.66,0.0,0.02
1629645616.69977808,105328685,-3.86,-4.27,-15.77,-15.25,102.83,104.75,0.0,0.02
1629645616.79973793,105428645,-3.29,-2.9,-16.03,-15.9,102.54,102.07,0.0,0.02
1629645616.89969802,105528605,-2.91,-1.88,-16.18,-16.32,102.27,99.87,0.0,0.02
1629645616.99965811,105628565,-2.68,-1.26,-16.23,-16.52,102.01,98.28,0.0,0.02
1629645617.09961796,105728525,-2.62,-1.02,-16.2,-16.53,101.74,97.37,0.0,0.02
1629645617.19957805,105828485,-2.7,-1.13,-16.15,-16.43,101.47,97.09,0.0,0.02
1629645617.29953814,105928445,-2.9,-1.54,-16.13,-16.31,101.19,97.33,0.0,0.02
1629645617.39949799,106028405,-3.19,-2.15,-16.13,-16.21,100.92,97.94,0.0,0.01
1629645617.49945807,106128365,-3.47,-2.85,-16.17,-16.16,100.64,98.75,0.0,0.01
1629645617.59941792,106228325,-3.72,-3.52,-16.24,-16.16,100.37,99.61,0.0,0.01
1629645617.69937801,106328285,-3.91,-4.09,-16.26,-16.17,100.11,100.38,0.0,0.01
1629645617.79933810,106428245,-4.02,-4.49,-16.28,-16.16,99.86,100.95,0.0,0.01
1629645617.89929795,106528205,-4.06,-4.71,-16.28,-16.16,99.62,101.27,0.0,0.01
1629645617.99925804,106628165,-4.02,-4.75,-16.28,-16.15,99.4,101.33,0.0,0.01
1629645618.10005093,106728958,-3.92,-4.64,-16.28,-16.15,99.19,101.13,0.0,0.01
1629645618.20001101,106828918,-3.77,-4.41,-16.31,-16.17,99.0,100.73,0.0,0.01
1629645618.29997110,106928878,-3.62,-4.1,-16.39,-16.24,98.82,100.19,0.0,0.01
1629645618.39993095,107028838,-3.47,-3.78,-16.5,-16.38,98.65,99.57,0.0,0.01
1629645618.49989104,107128798,-3.35,-3.48,-16.6,-16.53,98.49,98.95,0.0,0.01
1629645618.59985113,107228758,-3.24,-3.23,-16.68,-16.66,98.33,98.37,0.0,0.01
1629645618.69981098,107328718,-3.17,-3.03,-16.73,-16.76,98.18,97.87,0.0,0.01
1629645618.79977107,107428678,-3.15,-2.92,-16.77,-16.82,98.03,97.48,0.0,0.01
1629645618.89973092,107528638,-3.12,-2.88,-16.79,-16.85,97.88,97.21,0.0,0.01
1629645618.99969101,107628598,-3.1,-2.87,-16.8,-16.85,97.74,97.05,0.0,0.01
1629645619.09965110,107728558,-3.12,-2.91,-16.81,-16.85,97.6,96.98,0.0,0.01
1629645619.19961095,107828518,-3.17,-3.0,-16.83,-16.85,97.46,96.99,0.0,0.01
1629645619.29957104,107928478,-3.23,-3.13,-16.84,-16.85,97.33,97.04,0.0,0.01
1629645619.39953113,108028438,-3.28,-3.25,-16.88,-16.87,97.19,97.1,0.0,0.01
1629645619.49949098,108128398,-3.29,-3.34,-16.92,-16.91,97.06,97.16,0.0,0.01
1629645619.59945107,108228358,-3.3,-3.41,-16.96,-16.94,96.94,97.19,0.0,0.01
1629645619.69941115,108328318,-3.31,-3.46,-16.98,-16.98,96.82,97.17,0.0,0.01
1629645619.79937100,108428278,-3.26,-3.45,-17.01,-17.01,96.71,97.11,0.0,0.01
1629645619.89933109,108528238,-3.19,-3.37,-17.03,-17.02,96.6,97.01,0.0,0.01
1629645619.99929094,108628198,-3.15,-3.28,-17.04,-17.03,96.5,96.87,0.0,0.01
1629645620.09925103,108728158,-3.12,-3.21,-17.05,-17.04,96.4,96.71,0.0,0.01
1629645620.20004392,108828951,-3.1,-3.14,-17.05,-17.05,96.31,96.53,0.0,0.01
1629645620.30000401,108928911,-3.09,-3.1,-17.06,-17.05,96.22,96.36,0.0,0.01
1629645620.39996409,109028871,-3.08,-3.07,-17.08,-17.07,96.14,96.2,0.0,0.01
1629645620.49992394,109128831,-3.04,-3.04,-17.11,-17.1,96.06,96.05,0.0,0.01
1629645620.59988403,109228791,-3.0,-2.99,-17.15,-17.14,95.98,95.93,0.0,0.01
1629645620.69984412,109328751,-2.96,-2.94,-17.2,-17.19,95.9,95.84,0.0,0.01
1629645620.79980397,109428711,-2.92,-2.9,-17.25,-17.24,95.83,95.76,0.0,0.01
1629645620.89976406,109528671,-2.9,-2.87,-17.28,-17.28,95.76,95.7,0.0,0.01
1629645620.99972415,109628631,-2.89,-2.85,-17.26,-17.29,95.69,95.66,0.0,0.01
1629645621.09968400,109728591,-2.91,-2.87,-17.24,-17.27,95.63,95.63,0.0,0.01
1629645621.19964409,109828551,-2.92,-2.91,-17.26,-17.25,95.57,95.6,0.0,0.01
1629645621.29960394,109928511,-2.92,-2.94,-17.31,-17.28,95.51,95.57,0.0,0.01
1629645621.39956403,110028471,-2.91,-2.95,-17.36,-17.33,95.45,95.54,0.0,0.01
1629645621.49952412,110128431,-2.89,-2.95,-17.41,-17.39,95.39,95.51,0.0,0.01
1629645621.59948397,110228391,-2.86,-2.93,-17.46,-17.45,95.34,95.47,0.0,0.01
1629645621.69944406,110328351,-2.86,-2.92,-17.49,-17.5,95.29,95.42,0.0,0.01
1629645621.79940414,110428311,-2.86,-2.91,-17.49,-17.52,95.24,95.37,0.0,0.0
1629645621.89936399,110528271,-2.85,-2.89,-17.48,-17.52,95.19,95.3,0.0,0.0
1629645621.99932408,110628231,-2.84,-2.88,-17.49,-17.51,95.15,95.24,0.0,0.01
1629645622.09928393,110728191,-2.84,-2.87,-17.51,-17.52,95.1,95.18,0.0,0.01
1629645622.20007706,110828984,-2.85,-2.88,-17.52,-17.53,95.06,95.13,0.0,0.01
1629645622.30003715,110928944,-2.85,-2.88,-17.52,-17.53,95.02,95.08,0.0,0.01
1629645622.39999700,111028904,-2.84,-2.88,-17.5,-17.53,94.98,95.03,0.0,0.0
1629645622.49995708,111128864,-2.82,-2.87,-17.53,-17.53,94.94,94.99,0.0,0.0
1629645622.59991693,111228824,-2.79,-2.84,-17.55,-17.55,94.91,94.95,0.0,0.0
1629645622.69987702,111328784,-2.78,-2.81,-17.57,-17.57,94.87,94.91,0.0,0.0
1629645622.79983711,111428744,-2.76,-2.79,-17.58,-17.59,94.84,94.88,0.0,0.0
1629645622.89979696,111528704,-2.79,-2.79,-17.59,-17.6,94.81,94.85,0.0,0.0
1629645622.99975705,111628664,-2.8,-2.81,-17.59,-17.61,94.78,94.83,0.0,0.0
1629645623.09971714,111728624,-2.79,-2.81,-17.59,-17.6,94.75,94.8,0.0,0.0
1629645623.19967699,111828584,-2.77,-2.8,-17.59,-17.61,94.72,94.78,0.0,0.0
1629645623.29963708,111928544,-2.76,-2.79,-17.61,-17.62,94.69,94.76,0.0,0.0
1629645623.39959693,112028504,-2.76,-2.78,-17.65,-17.64,94.66,94.74,0.0,0.0
1629645623.49955702,112128464,-2.76,-2.78,-17.68,-17.67,94.64,94.71,0.0,0.0
1629645623.59951711,112228424,-2.73,-2.77,-17.69,-17.7,94.61,94.68,0.0,0.0
1629645623.69947696,112328384,-2.71,-2.75,-17.67,-17.7,94.59,94.66,0.0,0.0
1629645623.79943705,112428344,-2.68,-2.72,-17.67,-17.69,94.57,94.63,0.0,0.0
1629645623.89939713,112528304,-2.67,-2.7,-17.7,-17.7,94.55,94.6,0.0,0.0
1629645623.99935699,112628264,-2.68,-2.69,-17.71,-17.72,94.53,94.58,0.0,0.0
1629645624.09931707,112728224,-2.7,-2.7,-17.73,-17.73,94.51,94.56,0.0,0.0
1629645624.19927692,112828184,-2.71,-2.72,-17.73,-17.74,94.5,94.55,0.0,0.0
1629645624.30007005,112928977,-2.71,-2.73,-17.73,-17.74,94.48,94.53,0.0,0.0
1629645624.40003014,113028937,-2.7,-2.73,-17.72,-17.74,94.46,94.52,0.0,0.0
1629645624.49998999,113128897,-2.68,-2.71,-17.74,-17.74,94.44,94.5,0.0,0.0
1629645624.59995008,113228857,-2.66,-2.69,-17.74,-17.74,94.43,94.49,0.0,0.0
1629645624.69990993,113328817,-2.65,-2.68,-17.73,-17.74,94.41,94.47,0.0,0.0
1629645624.79987001,113428777,-2.67,-2.67,-17.74,-17.73,94.4,94.46,0.0,0.0
1629645624.89983010,113528737,-2.69,-2.68,-17.75,-17.73,94.38,94.45,0.0,0.0
1629645624.99978995,113628697,-2.72,-2.71,-17.76,-17.75,94.37,94.43,0.0,0.0
1629645625.09975004,113728657,-2.72,-2.74,-17.74,-17.75,94.36,94.42,0.0,0.0
1629645625.19971013,113828617,-2.69,-2.75,-17.75,-17.75,94.34,94.41,0.0,0.0
1629645625.29966998,113928577,-2.64,-2.71,-17.74,-17.75,94.33,94.4,0.0,0.0
1629645625.39963007,114028537,-2.61,-2.66,-17.74,-17.76,94.32,94.39,0.0,0.0
1629645625.49958992,114128497,-2.61,-2.64,-17.76,-17.76,94.32,94.38,0.0,0.0
1629645625.59955001,114228457,-2.58,-2.62,-17.8,-17.79,94.31,94.37,0.0,0.0
1629645625.69951010,114328417,-2.56,-2.59,-17.82,-17.82,94.3,94.35,0.0,0.0
1629645625.79946995,114428377,-2.55,-2.58,-17.85,-17.85,94.3,94.34,0.0,0.0
1629645625.89943004,114528337,-2.53,-2.56,-17.88,-17.88,94.29,94.33,0.0,0.0
1629645625.99939013,114628297,-2.54,-2.55,-17.89,-17.9,94.29,94.33,0.0,0.0
1629645626.09934998,114728257,-2.55,-2.56,-17.89,-17.91,94.28,94.32,0.0,0.0
1629645626.19931006,114828217,-2.58,-2.58,-17.88,-17.91,94.27,94.31,0.0,0.0
1629645626.29927015,114928177,-2.61,-2.61,-17.86,-17.88,94.27,94.31,0.0,0.0
1629645626.40006304,115028970,-2.62,-2.63,-17.84,-17.86,94.26,94.3,0.0,0.0
1629645626.50002313,115128930,-2.61,-2.64,-17.85,-17.84,94.25,94.3,0.0,0.0
1629645626.59998298,115228890,-2.59,-2.63,-17.86,-17.85,94.25,94.3,0.0,0.0
1629645626.69994307,115328850,-2.56,-2.6,-17.87,-17.86,94.24,94.29,0.0,0.0
1629645626.79990292,115428810,-2.53,-2.57,-17.88,-17.88,94.24,94.29,0.0,0.0
1629645626.89986300,115528770,-2.52,-2.54,-17.9,-17.9,94.23,94.29,0.0,0.0
1629645626.99982309,115628730,-2.55,-2.54,-17.91,-17.91,94.23,94.28,0.0,0.0
1629645627.09978294,115728690,-2.57,-2.56,-17.89,-17.92,94.22,94.28,0.0,0.0
1629645627.19974303,115828650,-2.57,-2.58,-17.89,-17.91,94.22,94.27,0.0,0.0
1629645627.29970312,115928610,-2.54,-2.58,-17.89,-17.9,94.22,94.27,0.0,0.0
1629645627.39966297,116028570,-2.53,-2.56,-17.9,-17.91,94.21,94.26,0.0,0.0
1629645627.49962306,116128530,-2.54,-2.57,-17.93,-17.92,94.21,94.26,0.0,0.0
1629645627.59958315,116228490,-2.53,-2.56,-17.96,-17.95,94.21,94.25,0.0,0.0
1629645627.69954300,116328450,-2.53,-2.55,-17.95,-17.97,94.2,94.25,0.0,0.0
1629645627.79950309,116428410,-2.54,-2.56,-17.93,-17.96,94.2,94.24,0.0,0.0
1629645627.89946294,116528370,-2.56,-2.58,-17.93,-17.94,94.19,94.24,0.0,0.0
1629645627.99942303,116628330,-2.53,-2.57,-17.94,-17.95,94.19,94.23,0.0,0.0
1629645628.09938312,116728290,-2.51,-2.55,-17.92,-17.95,94.19,94.22,0.0,0.0
1629645628.19934297,116828250,-2.51,-2.54,-17.91,-17.94,94.19,94.22,0.0,0.0
1629645628.29930305,116928210,-2.5,-2.52,-17.9,-17.93,94.19,94.22,0.0,0.0
1629645628.39926314,117028170,-2.5,-2.51,-17.92,-17.93,94.18,94.21,0.0,0.0
1629645628.50005603,117128963,-2.48,-2.5,-17.91,-17.92,94.18,94.21,0.0,0.0
1629645628.60001612,117228923,-2.48,-2.5,-17.91,-17.93,94.18,94.21,0.0,0.0
1629645628.69997597,117328883,-2.48,-2.5,-17.94,-17.94,94.18,94.21,0.0,0.0
1629645628.79993606,117428843,-2.47,-2.49,-17.97,-17.96,94.18,94.22,0.0,0.0
1629645628.89989614,117528803,-2.48,-2.5,-17.94,-17.96,94.18,94.21,0.0,0.0
1629645628.99985600,117628763,-2.49,-2.51,-17.93,-17.95,94.18,94.21,0.0,0.0
1629645629.09981608,117728723,-2.49,-2.51,-17.93,-17.94,94.17,94.21,0.0,0.0
1629645629.19977593,117828683,-2.51,-2.53,-17.94,-17.95,94.17,94.21,0.0,0.0
1629645629.29973602,117928643,-2.53,-2.54,-17.96,-17.96,94.17,94.21,0.0,0.0
1629645629.39969611,118028603,-2.52,-2.55,-17.97,-17.98,94.16,94.2,0.0,0.0
1629645629.49965596,118128563,-2.52,-2.55,-17.95,-17.98,94.16,94.2,0.0,0.0
1629645629.59961605,118228523,-2.5,-2.53,-17.94,-17.96,94.16,94.19,0.0,0.0
1629645629.69957614,118328483,-2.49,-2.5,-17.92,-17.93,94.15,94.19,0.0,0.0
1629645629.79953599,118428443,-2.47,-2.48,-17.92,-17.93,94.15,94.18,0.0,0.0
1629645629.89949608,118528403,-2.48,-2.47,-17.94,-17.93,94.15,94.18,0.0,0.0
1629645629.99945593,118628363,-2.49,-2.48,-17.98,-17.96,94.15,94.18,0.0,0.0
1629645630.09941602,118728323,-2.51,-2.5,-17.99,-17.99,94.15,94.18,0.0,0.0
1629645630.19937611,118828283,-2.54,-2.54,-17.98,-18.0,94.14,94.18,0.0,0.0
1629645630.29933596,118928243,-2.54,-2.56,-17.99,-18.0,94.14,94.17,0.0,0.0
1629645630.39929605,119028203,-2.55,-2.57,-18.01,-18.0,94.13,94.17,0.0,0.0
1629645630.49925613,119128163,-2.57,-2.59,-18.02,-18.01,94.13,94.17,0.0,0.0
1629645630.60004902,119228956,-2.59,-2.62,-18.03,-18.04,94.13,94.16,0.0,0.0
1629645630.70000911,119328916,-2.57,-2.62,-17.98,-18.03,94.12,94.16,0.0,0.0
1629645630.79996896,119428876,-2.51,-2.57,-17.94,-17.98,94.12,94.15,0.0,0.0
1629645630.89992905,119528836,-2.46,-2.5,-17.95,-17.96,94.12,94.14,0.0,0.0
1629645630.99988914,119628796,-2.46,-2.46,-17.97,-17.96,94.12,94.14,0.0,0.0
1629645631.09984899,119728756,-2.46,-2.45,-17.97,-17.97,94.11,94.14,0.0,0.0
1629645631.19980907,119828716,-2.47,-2.45,-17.94,-17.96,94.11,94.13,0.0,0.0
1629645631.29976892,119928676,-2.46,-2.47,-17.92,-17.93,94.11,94.13,0.0,0.0
1629645631.39972901,120028636,-2.45,-2.46,-17.93,-17.94,94.11,94.13,0.0,0.0
1629645631.49968910,120128596,-2.46,-2.47,-17.96,-17.95,94.11,94.14,0.0,0.0
1629645631.59964895,120228556,-2.48,-2.49,-18.0,-17.99,94.11,94.14,0.0,0.0
1629645631.69960904,120328516,-2.48,-2.5,-18.02,-18.03,94.11,94.14,0.0,0.0
1629645631.79956913,120428476,-2.46,-2.5,-18.01,-18.04,94.11,94.14,0.0,0.0
1629645631.89952898,120528436,-2.43,-2.48,-17.98,-18.02,94.11,94.14,0.0,0.0
1629645631.99948907,120628396,-2.39,-2.44,-17.96,-17.99,94.11,94.14,0.0,0.0
1629645632.09944892,120728356,-2.4,-2.42,-17.98,-17.98,94.11,94.13,0.0,0.0
1629645632.19940901,120828316,-2.42,-2.42,-18.0,-18.0,94.11,94.13,0.0,0.0
1629645632.29936910,120928276,-2.43,-2.43,-18.0,-18.01,94.11,94.13,0.0,0.0
1629645632.39932895,121028236,-2.41,-2.43,-18.0,-18.02,94.12,94.14,0.0,0.0
1629645632.49928904,121128196,-2.43,-2.43,-17.99,-18.02,94.12,94.13,0.0,0.0
1629645632.59924912,121228156,-2.46,-2.46,-17.97,-18.0,94.12,94.13,0.0,0.0
1629645632.70004201,121328949,-2.48,-2.49,-17.96,-17.97,94.12,94.14,0.0,0.0
1629645632.80000210,121428909,-2.48,-2.51,-17.95,-17.96,94.12,94.14,0.0,0.0
1629645632.89996195,121528869,-2.46,-2.5,-17.96,-17.96,94.11,94.14,0.0,0.0
1629645632.99992204,121628829,-2.43,-2.47,-17.97,-17.97,94.12,94.14,0.0,0.0
1629645633.09988213,121728789,-2.4,-2.43,-18.0,-17.99,94.12,94.14,0.0,0.0
1629645633.19984198,121828749,-2.38,-2.4,-18.0,-18.01,94.12,94.14,0.0,0.0
1629645633.29980206,121928709,-2.4,-2.4,-18.02,-18.02,94.12,94.14,0.0,0.0
1629645633.39976215,122028669,-2.41,-2.41,-18.04,-18.05,94.12,94.14,0.0,0.0
1629645633.49972200,122128629,-2.43,-2.42,-18.05,-18.06,94.12,94.14,0.0,0.0
1629645633.59968209,122228589,-2.46,-2.45,-18.05,-18.08,94.12,94.14,0.0,0.0
1629645633.69964194,122328549,-2.46,-2.48,-18.05,-18.09,94.12,94.14,0.0,0.0
1629645633.79960203,122428509,-2.44,-2.47,-18.02,-18.06,94.12,94.14,0.0,0.0
1629645633.89956212,122528469,-2.41,-2.44,-17.99,-18.01,94.12,94.14,0.0,0.0
1629645633.99952197,122628429,-2.38,-2.41,-17.99,-17.99,94.12,94.14,0.0,0.0
1629645634.09948206,122728389,-2.39,-2.39,-18.01,-18.0,94.12,94.14,0.0,0.0
1629645634.19944215,122828349,-2.41,-2.41,-18.04,-18.03,94.12,94.14,0.0,0.0
1629645634.29940200,122928309,-2.44,-2.43,-18.07,-18.06,94.12,94.14,0.0,0.0
1629645634.39936209,123028269,-4.24,-2.96,-17.74,-17.99,93.65,94.14,0.0,0.0
1629645634.49932194,123128229,-10.02,-7.91,-16.67,-17.05,90.92,93.88,0.0,0.0
1629645634.59928203,123228189,-9.95,-11.49,-16.34,-16.04,89.29,92.96,0.0,0.01
1629645634.70007515,123328982,-6.51,-10.45,-16.6,-15.72,89.17,91.62,0.0,0.01
1629645634.80003500,123428942,-2.26,-6.05,-17.02,-16.01,89.9,90.25,0.0,0.01
1629645634.89999509,123528902,1.3,-0.51,-17.38,-16.57,91.11,89.11,0.0,0.01
1629645634.99995494,123628862,3.55,4.26,-17.6,-17.11,92.61,88.49,0.0,0.02
1629645635.09991503,123728822,4.37,7.18,-17.66,-17.44,94.24,88.63,0.0,0.03
1629645635.19987512,123828782,4.13,8.03,-17.59,-17.55,95.92,89.65,0.0,0.03
1629645635.29983497,123928742,3.3,7.23,-17.45,-17.47,97.58,91.48,0.0,0.03
1629645635.39979506,124028702,2.36,5.53,-17.33,-17.32,99.2,93.94,0.0,0.02
1629645635.49975514,124128662,1.62,3.63,-17.26,-17.2,100.78,96.81,0.0,0.02
1629645635.59971499,124228622,1.16,2.02,-17.3,-17.17,102.31,99.87,0.0,0.02
1629645635.69967508,124328582,0.95,0.91,-17.43,-17.26,103.79,102.91,0.0,0.02
1629645635.79963493,124428542,0.88,0.24,-17.57,-17.43,105.23,105.75,0.0,0.02
1629645635.89959502,124528502,0.89,-0.06,-17.67,-17.59,106.63,108.27,0.0,0.02
1629645635.99955511,124628462,0.91,-0.15,-17.74,-17.71,108.0,110.39,0.0,0.02
1629645636.09951496,124728422,0.94,-0.12,-17.78,-17.78,109.32,112.09,0.0,0.02
1629645636.19947505,124828382,0.99,0.0,-17.81,-17.81,110.6,113.4,0.0,0.02
1629645636.29943514,124928342,1.03,0.2,-17.82,-17.82,111.83,114.36,0.0,0.02
1629645636.39939499,125028302,1.08,0.43,-17.83,-17.82,113.02,115.07,0.0,0.02
1629645636.49935508,125128262,1.14,0.68,-17.84,-17.83,114.15,115.61,0.0,0.02
1629645636.59931493,125228222,1.22,0.95,-17.87,-17.85,115.24,116.08,0.0,0.01
1629645636.69927502,125328182,1.27,1.2,-17.89,-17.88,116.27,116.55,0.0,0.01
1629645636.80006814,125428975,1.27,1.36,-17.9,-17.9,117.26,117.08,0.0,0.01
1629645636.90002799,125528935,1.23,1.44,-17.89,-17.9,118.19,117.69,0.0,0.01
1629645636.99998808,125628895,1.16,1.42,-17.88,-17.9,119.08,118.41,0.0,0.01
1629645637.09994793,125728855,1.06,1.32,-17.88,-17.9,119.91,119.22,0.0,0.01
1629645637.19990802,125828815,0.91,1.14,-17.88,-17.89,120.7,120.1,0.0,0.01
1629645637.29986811,125928775,0.74,0.9,-17.9,-17.9,121.44,121.03,0.0,0.01
1629645637.39982796,126028735,0.56,0.63,-17.92,-17.92,122.14,121.96,0.0,0.01
1629645637.49978805,126128695,0.39,0.36,-17.94,-17.95,122.79,122.86,0.0,0.01
1629645637.59974813,126228655,0.24,0.11,-17.94,-17.96,123.41,123.7,0.0,0.01
1629645637.69970798,126328615,0.11,-0.09,-17.94,-17.95,123.99,124.47,0.0,0.01
1629645637.79966807,126428575,0.0,-0.25,-17.95,-17.95,124.54,125.14,0.0,0.01
1629645637.89962792,126528535,-0.13,-0.38,-17.96,-17.96,125.05,125.72,0.0,0.01
1629645637.99958801,126628495,-0.24,-0.49,-17.99,-17.98,125.54,126.21,0.0,0.01
1629645638.09954810,126728455,-0.31,-0.57,-18.01,-18.0,125.99,126.61,0.0,0.01
1629645638.19950795,126828415,-0.33,-0.57,-18.0,-18.01,126.41,126.95,0.0,0.01
1629645638.29946804,126928375,-0.35,-0.54,-17.99,-18.01,126.81,127.24,0.0,0.01
1629645638.39942813,127028335,-0.38,-0.52,-17.99,-18.01,127.19,127.5,0.0,0.01
1629645638.49938798,127128295,-0.43,-0.51,-18.01,-18.01,127.54,127.75,0.0,0.01
1629645638.59934807,127228255,-0.52,-0.55,-18.02,-18.02,127.87,127.98,0.0,0.01
1629645638.69930792,127328215,-0.6,-0.61,-18.01,-18.03,128.18,128.23,0.0,0.01
1629645638.79926801,127428175,-0.66,-0.68,-17.97,-18.01,128.46,128.47,0.0,0.01
1629645638.90006113,127528968,-0.72,-0.74,-17.92,-17.96,128.73,128.73,0.0,0.0
1629645639.00002098,127628928,-0.8,-0.81,-17.88,-17.91,128.98,128.98,0.0,0.0
1629645639.09998107,127728888,-0.88,-0.9,-17.88,-17.87,129.21,129.23,0.0,0.0
1629645639.19994092,127828848,-0.95,-1.0,-17.89,-17.88,129.42,129.48,0.0,0.0
1629645639.29990101,127928808,-1.0,-1.07,-17.86,-17.87,129.63,129.72,0.0,0.0
1629645639.39986110,128028768,-1.05,-1.12,-17.78,-17.82,129.82,129.93,0.0,0.0
1629645639.49982095,128128728,-1.09,-1.16,-17.73,-17.75,130.0,130.14,0.0,0.0
1629645639.59978104,128228688,-1.13,-1.19,-17.71,-17.71,130.17,130.32,0.0,0.0
1629645639.69974113,128328648,-1.2,-1.25,-17.68,-17.68,130.32,130.49,0.0,0.0
1629645639.79970098,128428608,-1.24,-1.31,-17.68,-17.66,130.47,130.64,0.0,0.0
1629645639.89966106,128528568,-1.26,-1.34,-17.67,-17.66,130.61,130.77,0.0,0.0
1629645639.99962115,128628528,-1.28,-1.37,-17.64,-17.65,130.74,130.89,0.0,0.0
1629645640.09958100,128728488,-1.29,-1.38,-17.6,-17.64,130.85,131.0,0.0,0.0
1629645640.19954109,128828448,-1.27,-1.37,-17.56,-17.59,130.97,131.09,0.0,0.0
1629645640.29950094,128928408,-1.28,-1.35,-17.54,-17.56,131.07,131.18,0.0,0.0
1629645640.39946103,129028368,-1.34,-1.36,-17.53,-17.53,131.17,131.26,0.0,0.0
1629645640.49942112,129128328,-1.4,-1.41,-17.53,-17.52,131.25,131.34,0.0,0.0
1629645640.59938097,129228288,-1.44,-1.45,-17.53,-17.52,131.33,131.41,0.0,0.0
1629645640.69934106,129328248,-1.47,-1.49,-17.5,-17.51,131.41,131.48,0.0,0.0
1629645640.79930115,129428208,-1.5,-1.53,-17.49,-17.5,131.48,131.54,0.0,0.0
1629645640.89926100,129528168,-1.53,-1.57,-17.52,-17.52,131.54,131.6,0.0,0.0
1629645641.00005412,129628961,-1.54,-1.6,-17.54,-17.54,131.59,131.66,0.0,0.0
1629645641.10001397,129728921,-1.54,-1.59,-17.55,-17.56,131.65,131.72,0.0,0.0
1629645641.19997406,129828881,-1.57,-1.6,-17.55,-17.56,131.69,131.77,0.0,0.0
1629645641.29993415,129928841,-1.62,-1.64,-17.54,-17.55,131.74,131.81,0.0,0.0
1629645641.39989400,130028801,-1.67,-1.69,-17.53,-17.55,131.78,131.85,0.0,0.0
1629645641.49985409,130128761,-1.67,-1.72,-17.52,-17.53,131.81,131.89,0.0,0.0
1629645641.59981394,130228721,-1.66,-1.72,-17.51,-17.52,131.84,131.92,0.0,0.0
1629645641.69977403,130328681,-1.68,-1.71,-17.52,-17.52,131.87,131.94,0.0,0.0
1629645641.79973412,130428641,-1.69,-1.72,-17.52,-17.53,131.9,131.97,0.0,0.0
1629645641.89969397,130528601,-1.7,-1.72,-17.52,-17.52,131.92,131.99,0.0,0.0
1629645641.99965405,130628561,-1.73,-1.74,-17.53,-17.54,131.94,132.0,0.0,0.0
1629645642.09961414,130728521,-1.75,-1.77,-17.53,-17.54,131.96,132.02,0.0,0.0
1629645642.19957399,130828481,-1.77,-1.79,-17.53,-17.54,131.98,132.03,0.0,0.0
1629645642.29953408,130928441,-1.77,-1.81,-17.52,-17.54,131.99,132.04,0.0,0.0
1629645642.39949393,131028401,-1.77,-1.82,-17.5,-17.53,132.0,132.06,0.0,0.0
1629645642.49945402,131128361,-1.76,-1.81,-17.49,-17.51,132.01,132.07,0.0,0.0
1629645642.59941411,131228321,-1.78,-1.81,-17.49,-17.49,132.03,132.07,0.0,0.0
1629645642.69937396,131328281,-1.8,-1.82,-17.49,-17.49,132.03,132.08,0.0,0.0
1629645642.79933405,131428241,-1.84,-1.85,-17.5,-17.49,132.04,132.09,0.0,0.0
1629645642.89929414,131528201,-1.84,-1.87,-17.5,-17.5,132.05,132.1,0.0,0.0
1629645642.99925399,131628161,-1.82,-1.86,-17.48,-17.5,132.05,132.1,0.0,0.0
1629645643.10004711,131728954,-1.81,-1.84,-17.47,-17.48,132.06,132.1,0.0,0.0
1629645643.20000696,131828914,-1.78,-1.82,-17.46,-17.47,132.07,132.11,0.0,0.0
1629645643.29996705,131928874,-1.78,-1.8,-17.46,-17.46,132.07,132.11,0.0,0.0
1629645643.39992714,132028834,-1.78,-1.79,-17.47,-17.46,132.08,132.12,0.0,0.0
1629645643.49988699,132128794,-1.79,-1.79,-17.46,-17.46,132.09,132.12,0.0,0.0
1629645643.59984708,132228754,-1.8,-1.8,-17.45,-17.45,132.09,132.13,0.0,0.0
1629645643.69980693,132328714,-1.79,-1.8,-17.44,-17.44,132.1,132.13,0.0,0.0
1629645643.79976702,132428674,-1.79,-1.81,-17.43,-17.44,132.1,132.14,0.0,0.0
1629645643.89972711,132528634,-1.76,-1.8,-17.43,-17.43,132.11,132.15,0.0,0.0
1629645643.99968696,132628594,-1.74,-1.78,-17.45,-17.44,132.11,132.15,0.0,0.0
1629645644.09964705,132728554,-1.75,-1.77,-17.48,-17.46,132.12,132.16,0.0,0.0
