timestamp,TimeUS,DesRoll,Roll,DesPitch,Pitch,DesYaw,Yaw,ErrRP,ErrYaw
1629640178.00000000,40228902,0.0,0.08,0.0,0.06,352.89,352.9,0.0,0.0
1629640178.09995985,40328862,0.0,0.08,0.0,0.06,352.89,352.9,0.0,0.0
1629640178.19991994,40428822,0.0,0.08,0.0,0.06,352.89,352.9,0.0,0.0
1629640178.29987979,40528782,0.0,0.08,0.0,0.07,352.89,352.9,0.0,0.0
1629640178.39983988,40628742,0.0,0.09,0.0,0.07,352.89,352.9,0.0,0.0
1629640178.49979997,40728702,0.0,0.09,0.0,0.07,352.89,352.9,0.0,0.0
1629640178.59975982,40828662,0.0,0.09,0.0,0.07,352.89,352.9,0.0,0.0
1629640178.69971991,40928622,0.0,0.09,0.0,0.07,352.89,352.9,0.0,0.0
1629640178.79967999,41028582,0.0,0.09,0.0,0.07,352.89,352.9,0.0,0.0
1629640178.89963984,41128542,0.0,0.09,0.0,0.08,352.89,352.9,0.0,0.0
1629640178.99959993,41228502,0.0,0.09,0.0,0.08,352.89,352.9,0.0,0.0
1629640179.09955978,41328462,0.0,0.1,0.0,0.08,352.89,352.9,0.0,0.0
1629640179.19951987,41428422,0.0,0.1,0.0,0.08,352.89,352.9,0.0,0.0
1629640179.29947996,41528382,0.0,0.1,0.0,0.08,352.89,352.9,0.0,0.0
1629640179.39943981,41628342,0.0,0.1,0.0,0.08,352.89,352.9,0.0,0.0
1629640179.49939990,41728302,0.0,0.1,0.0,0.08,352.88,352.89,0.0,0.0
1629640179.59935999,41828262,0.0,0.1,0.0,0.08,352.88,352.89,0.0,0.0
1629640179.69931984,41928222,0.0,0.1,0.0,0.08,352.88,352.89,0.0,0.0
1629640179.79927993,42028182,0.0,0.1,0.0,0.08,352.88,352.89,0.0,0.0
1629640179.90007281,42128975,0.0,0.1,0.0,0.08,352.88,352.89,0.0,0.0
1629640180.00003290,42228935,0.0,0.1,0.0,0.08,352.88,352.89,0.0,0.0
1629640180.09999299,42328895,0.0,0.1,0.0,0.09,352.88,352.89,0.0,0.0
1629640180.19995284,42428855,0.0,0.1,0.0,0.09,352.88,352.89,0.0,0.0
1629640180.29991293,42528815,0.0,0.1,0.0,0.09,352.88,352.89,0.0,0.0
1629640180.39987278,42628775,0.0,0.1,0.0,0.08,352.88,352.89,0.0,0.0
1629640180.49983287,42728735,0.0,0.1,0.0,0.09,352.88,352.89,0.0,0.0
1629640180.59979296,42828695,0.0,0.1,0.0,0.08,352.88,352.89,0.0,0.0
1629640180.69975281,42928655,0.0,0.1,0.0,0.08,352.88,352.89,0.0,0.0
1629640180.79971290,43028615,0.0,0.1,0.0,0.08,352.87,352.88,0.0,0.0
1629640180.89967299,43128575,0.0,0.1,0.0,0.08,352.87,352.88,0.0,0.0
1629640180.99963284,43228535,0.0,0.1,0.0,0.08,352.87,352.88,0.0,0.0
1629640181.09959292,43328495,0.0,0.1,0.0,0.08,352.87,352.88,0.0,0.0
1629640181.19955301,43428455,0.0,0.1,0.0,0.08,352.87,352.88,0.0,0.0
1629640181.29951286,43528415,-0.02,0.1,-0.02,0.08,352.87,352.88,0.0,0.0
1629640181.39947295,43628375,-0.07,0.1,-0.07,0.08,352.87,352.88,0.0,0.0
1629640181.49943280,43728335,-0.08,0.1,-0.08,0.08,352.87,352.88,0.0,0.0
1629640181.59939289,43828295,-0.14,0.1,-0.14,0.08,352.87,352.88,0.0,0.0
1629640181.69935298,43928255,-0.2,0.1,-0.2,0.08,352.87,352.88,0.0,0.0
1629640181.79931283,44028215,-0.25,0.1,-0.24,0.08,352.87,352.88,0.0,0.0
1629640181.89927292,44128175,-0.29,0.1,-0.27,0.08,352.87,352.88,0.0,0.0
1629640182.00006580,44228968,-0.32,0.1,-0.29,0.08,352.87,352.88,0.0,0.0
1629640182.10002589,44328928,-0.33,0.09,-0.31,0.08,352.87,352.88,0.0,0.0
1629640182.19998598,44428888,-0.35,0.09,-0.34,0.07,352.87,352.88,0.0,0.0
1629640182.29994583,44528848,-0.36,0.09,-0.34,0.07,352.87,352.88,0.0,0.0
1629640182.39990592,44628808,-0.39,0.09,-0.34,0.07,352.87,352.88,0.0,0.0
1629640182.49986601,44728768,-0.42,0.09,-0.37,0.07,352.87,352.88,0.0,0.0
1629640182.59982586,44828728,-0.44,0.09,-0.41,0.07,352.87,352.88,0.0,0.0
1629640182.69978595,44928688,-0.45,0.09,-0.43,0.07,352.87,352.88,0.0,0.0
1629640182.79974580,45028648,-0.45,0.09,-0.45,0.07,352.87,352.88,0.0,0.0
1629640182.89970589,45128608,-0.46,0.04,-0.5,0.02,352.87,352.88,0.0,0.0
1629640182.99966598,45228568,-0.48,-0.25,-0.5,-0.25,352.87,352.88,0.0,0.0
1629640183.09962583,45328528,-0.42,-0.55,-0.4,-0.52,352.87,352.88,0.0,0.0
1629640183.19958591,45428488,-0.26,-0.68,-0.24,-0.63,352.87,352.88,0.0,0.0
1629640183.29954600,45528448,-0.08,-0.64,-0.05,-0.58,352.87,352.88,0.0,0.0
1629640183.39950585,45628408,0.12,-0.46,0.14,-0.4,352.87,352.88,0.0,0.0
1629640183.49946594,45728368,0.3,-0.22,0.29,-0.18,352.87,352.88,0.0,0.0
1629640183.59942579,45828328,0.43,0.0,0.4,0.0,352.87,352.88,0.0,0.0
1629640183.69938588,45928288,0.49,0.15,0.43,0.13,352.87,352.88,0.0,0.0
1629640183.79934597,46028248,0.49,0.23,0.41,0.18,352.87,352.88,0.0,0.0
1629640183.89930582,46128208,0.49,0.26,0.4,0.18,352.87,352.88,0.0,0.0
1629640183.99926591,46228168,0.48,0.25,0.41,0.17,352.87,352.88,0.0,0.0
1629640184.10005879,46328961,0.43,0.22,0.4,0.17,352.87,352.88,0.0,0.0
1629640184.20001888,46428921,1.64,0.66,-4.43,-1.51,352.87,352.87,0.0,0.0
1629640184.29997897,46528881,2.79,1.99,-16.84,-10.63,352.87,352.71,0.0,0.0
1629640184.39993882,46628841,2.91,2.94,-20.42,-19.93,352.87,352.48,0.0,0.01
1629640184.49989891,46728801,2.39,2.99,-16.78,-22.14,352.87,352.62,0.0,0.01
1629640184.59985900,46828761,1.58,2.25,-10.9,-18.22,352.87,353.05,0.0,0.01
1629640184.69981885,46928721,0.86,1.24,-5.06,-11.1,352.95,353.48,0.0,0.01
1629640184.79977894,47028681,0.5,0.41,-1.49,-4.07,352.95,353.6,0.0,0.02
1629640184.89973879,47128641,0.42,-0.01,-0.23,0.55,352.95,353.54,0.0,0.02
1629640184.99969888,47228601,0.53,-0.06,-0.65,2.14,352.95,353.41,0.0,0.02
1629640185.09965897,47328561,0.7,0.15,-1.76,1.39,352.95,353.26,0.01,0.02
1629640185.19961882,47428521,0.82,0.45,-2.68,-0.37,352.95,353.09,0.01,0.01
1629640185.29957891,47528481,0.84,0.68,-2.89,-1.93,352.95,352.94,0.01,0.01
1629640185.39953899,47628441,0.68,0.73,-2.3,-2.54,352.95,352.82,0.01,0.01
1629640185.49949884,47728401,0.45,0.58,-1.22,-2.09,352.95,352.74,0.01,0.01
1629640185.59945893,47828361,0.22,0.32,-0.05,-0.95,352.95,352.71,0.01,0.0
1629640185.69941878,47928321,0.09,0.08,0.87,0.36,352.95,352.7,0.01,0.0
1629640185.79937887,48028281,0.03,-0.05,1.42,1.41,352.95,352.73,0.01,0.0
1629640185.89933896,48128241,0.01,-0.11,1.63,2.0,352.95,352.77,0.0,0.0
1629640185.99929881,48228201,0.01,-0.11,1.61,2.13,352.95,352.83,0.0,0.0
1629640186.09925890,48328161,0.0,-0.09,1.49,1.97,352.95,352.89,0.0,0.0
1629640186.20005178,48428954,-0.03,-0.09,1.4,1.7,352.95,352.96,0.0,0.0
1629640186.30001187,48528914,-0.06,-0.11,1.4,1.49,352.95,353.01,0.0,0.0
1629640186.39997196,48628874,-0.09,-0.12,1.45,1.39,352.95,353.06,0.0,0.0
1629640186.49993181,48728834,-0.12,-0.14,1.54,1.41,352.95,353.08,0.0,0.0
1629640186.59989190,48828794,-0.12,-0.16,1.61,1.48,352.95,353.09,0.0,0.0
1629640186.69985199,48928754,-0.1,-0.15,1.62,1.54,352.95,353.09,0.0,0.0
1629640186.79981184,49028714,-0.06,-0.12,1.6,1.57,352.95,353.07,0.0,0.0
1629640186.89977193,49128674,-0.02,-0.06,1.55,1.55,352.95,353.05,0.0,0.0
1629640186.99973202,49228634,0.0,-0.01,1.48,1.49,352.95,353.02,0.0,0.0
1629640187.09969187,49328594,0.0,0.01,1.38,1.4,352.95,352.99,0.0,0.0
1629640187.19965196,49428554,-0.02,0.0,1.26,1.28,352.95,352.96,0.0,0.0
1629640187.29961181,49528514,-0.04,-0.01,1.13,1.14,352.95,352.94,0.0,0.0
1629640187.39957190,49628474,-0.05,-0.04,1.03,1.01,352.95,352.92,0.0,0.0
1629640187.49953198,49728434,-0.06,-0.07,0.97,0.9,352.95,352.92,0.0,0.0
1629640187.59949183,49828394,-0.09,-0.1,0.97,0.87,352.95,352.92,0.0,0.0
1629640187.69945192,49928354,-0.08,-0.11,0.97,0.89,352.95,352.92,0.0,0.0
1629640187.79941201,50028314,-0.05,-0.1,0.92,0.88,352.95,352.93,0.0,0.0
1629640187.89937186,50128274,-0.02,-0.06,0.81,0.82,352.95,352.94,0.0,0.0
1629640187.99933195,50228234,0.0,-0.02,0.68,0.71,352.95,352.95,0.0,0.0
1629640188.09929180,50328194,0.01,0.0,0.54,0.57,352.95,352.96,0.0,0.0
1629640188.19925189,50428154,0.02,0.01,0.41,0.42,352.95,352.97,0.0,0.0
1629640188.30004501,50528947,0.02,0.02,0.31,0.29,352.95,352.97,0.0,0.0
1629640188.40000486,50628907,0.01,0.01,0.26,0.2,352.95,352.98,0.0,0.0
1629640188.49996495,50728867,0.0,0.01,0.26,0.17,352.95,352.98,0.0,0.0
1629640188.59992480,50828827,0.01,0.0,0.3,0.21,352.95,352.97,0.0,0.0
1629640188.69988489,50928787,0.06,0.02,0.32,0.26,352.95,352.97,0.0,0.0
1629640188.79984498,51028747,0.09,0.07,0.28,0.29,352.95,352.97,0.0,0.0
1629640188.89980483,51128707,0.1,0.09,0.21,0.25,352.95,352.97,0.0,0.0
1629640188.99976492,51228667,0.12,0.12,0.13,0.17,352.95,352.96,0.0,0.0
1629640189.09972501,51328627,0.16,0.16,0.08,0.1,352.95,352.96,0.0,0.0
1629640189.19968486,51428587,0.15,0.18,0.07,0.04,352.95,352.95,0.0,0.0
1629640189.29964495,51528547,0.09,0.15,0.08,0.04,352.95,352.95,0.0,0.0
1629640189.39960480,51628507,0.05,0.1,0.07,0.05,352.95,352.95,0.0,0.0
1629640189.49956489,51728467,0.01,0.03,0.04,0.05,352.95,352.95,0.0,0.0
1629640189.59952497,51828427,0.0,-0.01,0.02,0.03,352.95,352.95,0.0,0.0
1629640189.69948483,51928387,0.0,-0.02,0.02,0.02,352.95,352.95,0.0,0.0
1629640189.79944491,52028347,0.0,-0.01,0.02,0.02,352.95,352.95,0.0,0.0
1629640189.89940500,52128307,0.0,0.0,0.01,0.01,352.95,352.96,0.0,0.0
1629640189.99936485,52228267,-0.02,-0.01,-0.02,0.0,352.95,352.96,0.0,0.0
1629640190.09932494,52328227,0.0,-0.01,-0.04,-0.02,352.95,352.96,0.0,0.0
1629640190.19928479,52428187,0.01,0.0,-0.04,-0.04,352.95,352.96,0.0,0.0
1629640190.30007792,52528980,0.02,0.0,-0.05,-0.05,352.95,352.96,0.0,0.0
1629640190.40003800,52628940,0.01,0.01,-0.07,-0.07,352.95,352.96,0.0,0.0
1629640190.49999785,52728900,0.0,0.0,-0.05,-0.08,352.95,352.96,0.0,0.0
1629640190.59995794,52828860,0.02,0.01,-0.03,-0.06,352.95,352.96,0.0,0.0
1629640190.69991779,52928820,0.02,0.01,0.01,-0.01,352.95,352.96,0.0,0.0
1629640190.79987788,53028780,0.01,0.0,0.05,0.04,352.95,352.96,0.0,0.0
1629640190.89983797,53128740,0.02,0.0,0.03,0.05,352.95,352.96,0.0,0.0
1629640190.99979782,53228700,0.01,0.01,0.01,0.04,352.95,352.95,0.0,0.0
1629640191.09975791,53328660,0.0,0.0,-0.01,0.01,352.95,352.95,0.0,0.0
1629640191.19971800,53428620,0.0,0.0,-0.02,-0.02,352.95,352.95,0.0,0.0
1629640191.29967785,53528580,0.01,0.0,0.0,-0.02,352.95,352.95,0.0,0.0
1629640191.39963794,53628540,0.02,0.01,0.05,0.02,352.95,352.96,0.0,0.0
1629640191.49959779,53728500,0.06,0.03,0.07,0.07,352.95,352.96,0.0,0.0
1629640191.59955788,53828460,0.1,0.07,0.1,0.1,352.95,352.96,0.0,0.0
1629640191.69951797,53928420,0.12,0.1,0.08,0.11,352.95,352.96,0.0,0.0
1629640191.79947782,54028380,0.12,0.12,0.05,0.08,352.95,352.96,0.0,0.0
1629640191.89943790,54128340,0.08,0.11,0.01,0.04,352.95,352.96,0.0,0.0
1629640191.99939799,54228300,0.03,0.05,-0.02,0.0,352.95,352.96,0.0,0.0
1629640192.09935784,54328260,0.0,0.0,-0.04,-0.04,352.95,352.96,0.0,0.0
1629640192.19931793,54428220,0.0,-0.01,-0.01,-0.05,352.95,352.96,0.0,0.0
1629640192.29927778,54528180,0.04,0.0,0.03,-0.01,352.95,352.96,0.0,0.0
1629640192.40007091,54628973,0.06,0.02,0.05,0.02,352.95,352.96,0.0,0.0
1629640192.50003099,54728933,0.08,0.06,0.03,0.03,352.95,352.96,0.0,0.0
1629640192.59999084,54828893,0.12,0.11,0.02,0.02,352.95,352.96,0.0,0.0
1629640192.69995093,54928853,0.13,0.15,0.01,0.0,352.95,352.96,0.0,0.0
1629640192.79991078,55028813,0.11,0.15,0.0,0.0,352.95,352.96,0.0,0.0
1629640192.89987087,55128773,0.06,0.11,0.01,0.0,352.95,352.95,0.0,0.0
1629640192.99983096,55228733,0.02,0.06,0.0,0.0,352.95,352.95,0.0,0.0
1629640193.09979081,55328693,0.02,0.02,0.02,0.01,352.95,352.95,0.0,0.0
1629640193.19975090,55428653,0.04,0.01,0.09,0.06,352.95,352.95,0.0,0.0
1629640193.29971099,55528613,0.08,0.04,0.09,0.09,352.95,352.95,0.0,0.0
1629640193.39967084,55628573,0.1,0.08,0.08,0.09,352.95,352.95,0.0,0.0
1629640193.49963093,55728533,0.09,0.09,0.06,0.08,352.95,352.95,0.0,0.0
1629640193.59959102,55828493,0.07,0.07,0.06,0.07,352.95,352.95,0.0,0.0
1629640193.69955087,55928453,0.07,0.06,0.07,0.06,352.95,352.95,0.0,0.0
1629640193.79951096,56028413,0.09,0.08,0.07,0.06,352.95,352.95,0.0,0.0
1629640193.89947081,56128373,0.09,0.09,0.08,0.07,352.95,352.95,0.0,0.0
1629640193.99943089,56228333,0.09,0.09,0.06,0.06,352.95,352.95,0.0,0.0
1629640194.09939098,56328293,0.08,0.08,0.04,0.05,352.95,352.95,0.0,0.0
1629640194.19935083,56428253,0.06,0.05,0.06,0.06,352.95,352.95,0.0,0.0
1629640194.29931092,56528213,0.06,0.04,0.06,0.07,352.95,352.95,0.0,0.0
1629640194.39927101,56628173,0.09,0.05,0.06,0.06,352.95,352.96,0.0,0.0
1629640194.50006390,56728966,0.11,0.08,0.04,0.05,352.95,352.95,0.0,0.0
1629640194.60002398,56828926,0.12,0.11,0.04,0.05,352.95,352.95,0.0,0.0
1629640194.69998384,56928886,0.1,0.11,0.05,0.05,352.95,352.95,0.0,0.0
1629640194.79994392,57028846,0.08,0.1,0.06,0.05,352.95,352.95,0.0,0.0
1629640194.89990401,57128806,0.06,0.08,0.09,0.06,352.95,352.95,0.0,0.0
1629640194.99986386,57228766,0.05,0.06,0.09,0.07,352.95,352.95,0.0,0.0
1629640195.09982395,57328726,0.06,0.05,0.12,0.1,352.95,352.95,0.0,0.0
1629640195.19978380,57428686,0.06,0.05,0.15,0.13,352.95,352.95,0.0,0.0
1629640195.29974389,57528646,0.04,0.03,0.17,0.17,352.95,352.95,0.0,0.0
1629640195.39970398,57628606,0.03,0.02,0.16,0.18,352.95,352.95,0.0,0.0
1629640195.49966383,57728566,0.08,0.04,0.17,0.18,352.95,352.95,0.0,0.0
1629640195.59962392,57828526,0.1,0.08,0.18,0.18,352.95,352.95,0.0,0.0
1629640195.69958401,57928486,0.1,0.1,0.17,0.18,352.95,352.95,0.0,0.0
1629640195.79954386,58028446,0.09,0.11,0.14,0.16,352.95,352.95,0.0,0.0
1629640195.89950395,58128406,0.05,0.08,0.11,0.11,352.95,352.95,0.0,0.0
1629640195.99946380,58228366,0.03,0.04,0.09,0.08,352.95,352.95,0.0,0.0
1629640196.09942389,58328326,0.01,0.01,0.08,0.06,352.95,352.95,0.0,0.0
1629640196.19938397,58428286,0.02,0.0,0.09,0.06,352.95,352.95,0.0,0.0
1629640196.29934382,58528246,0.04,0.02,0.1,0.08,352.95,352.95,0.0,0.0
1629640196.39930391,58628206,0.05,0.03,0.1,0.08,352.95,352.95,0.0,0.0
1629640196.49926400,58728166,0.06,0.05,0.12,0.09,352.95,352.95,0.0,0.0
1629640196.60005689,58828959,0.05,0.06,0.11,0.1,352.95,352.96,0.0,0.0
1629640196.70001698,58928919,0.06,0.07,0.08,0.09,352.95,352.96,0.0,0.0
1629640196.79997683,59028879,0.09,0.08,0.04,0.07,352.95,352.96,0.0,0.0
1629640196.89993691,59128839,0.11,0.09,0.02,0.04,352.95,352.95,0.0,0.0
1629640196.99989700,59228799,0.12,0.1,0.01,0.01,352.95,352.95,0.0,0.0
1629640197.09985685,59328759,0.14,0.12,0.03,0.01,352.95,352.95,0.0,0.0
1629640197.19981694,59428719,0.15,0.14,0.06,0.04,352.95,352.95,0.0,0.0
1629640197.29977679,59528679,0.14,0.15,0.06,0.05,352.95,352.95,0.0,0.0
1629640197.39973688,59628639,0.13,0.14,0.05,0.04,352.95,352.95,0.0,0.0
1629640197.49969697,59728599,0.1,0.12,0.04,0.03,352.95,352.95,0.0,0.0
1629640197.59965682,59828559,0.08,0.08,0.05,0.03,352.95,352.95,0.0,0.0
1629640197.69961691,59928519,0.08,0.06,0.04,0.04,352.95,352.95,0.0,0.0
1629640197.79957700,60028479,0.12,0.08,0.04,0.04,352.95,352.95,0.0,0.0
1629640197.89953685,60128439,0.11,0.09,0.02,0.03,352.95,352.95,0.0,0.0
1629640197.99949694,60228399,0.11,0.09,0.04,0.02,352.95,352.95,0.0,0.0
1629640198.09945679,60328359,0.11,0.09,0.08,0.04,352.95,352.95,0.0,0.0
1629640198.19941688,60428319,0.11,0.09,0.1,0.07,352.95,352.96,0.0,0.0
1629640198.29937696,60528279,0.1,0.11,0.11,0.1,352.95,352.96,0.0,0.0
1629640198.39933681,60628239,0.09,0.1,0.09,0.11,352.95,352.96,0.0,0.0
1629640198.49929690,60728199,0.1,0.1,0.06,0.09,352.95,352.96,0.0,0.0
1629640198.59925699,60828159,0.13,0.12,0.07,0.07,352.95,352.95,0.0,0.0
1629640198.70004988,60928952,0.13,0.13,0.04,0.05,352.95,352.95,0.0,0.0
1629640198.80000997,61028912,0.1,0.13,0.03,0.03,352.95,352.95,0.0,0.0
1629640198.89996982,61128872,0.08,0.1,0.04,0.03,352.95,352.95,0.0,0.0
1629640198.99992990,61228832,0.09,0.08,0.06,0.04,352.95,352.95,0.0,0.0
1629640199.09988999,61328792,0.12,0.09,0.07,0.05,352.95,352.95,0.0,0.0
1629640199.19984984,61428752,0.14,0.12,0.08,0.07,352.95,352.95,0.0,0.0
1629640199.29980993,61528712,0.13,0.14,0.08,0.07,352.95,352.95,0.0,0.0
1629640199.39976978,61628672,0.13,0.14,0.07,0.06,352.95,352.95,0.0,0.0
1629640199.49972987,61728632,0.14,0.14,0.09,0.06,352.95,352.95,0.0,0.0
1629640199.59968996,61828592,0.14,0.14,0.11,0.09,352.95,352.95,0.0,0.0
1629640199.69964981,61928552,0.15,0.14,0.1,0.1,352.95,352.95,0.0,0.0
1629640199.79960990,62028512,0.15,0.15,0.04,0.07,352.95,352.95,0.0,0.0
1629640199.89956999,62128472,0.11,0.14,0.02,0.03,352.95,352.95,0.0,0.0
1629640199.99952984,62228432,0.11,0.12,0.04,0.02,352.95,352.95,0.0,0.0
1629640200.09948993,62328392,0.14,0.12,0.06,0.03,352.95,352.95,0.0,0.0
1629640200.19945002,62428352,0.15,0.14,0.09,0.06,352.95,352.95,0.0,0.0
1629640200.29940987,62528312,0.15,0.15,0.1,0.09,352.95,352.95,0.0,0.0
1629640200.39936996,62628272,0.13,0.14,0.09,0.1,352.95,352.95,0.0,0.0
1629640200.49932981,62728232,0.08,0.1,0.06,0.09,352.95,352.95,0.0,0.0
1629640200.59928989,62828192,0.07,0.07,0.05,0.05,352.95,352.96,0.0,0.0
1629640200.70008302,62928985,0.08,0.06,0.05,0.05,352.95,352.96,0.0,0.0
1629640200.80004287,63028945,0.09,0.07,0.06,0.04,352.95,352.96,0.0,0.0
1629640200.90000296,63128905,0.08,0.08,0.09,0.06,352.95,352.96,0.0,0.0
1629640200.99996281,63228865,0.07,0.09,0.1,0.08,352.95,352.96,0.0,0.0
1629640201.09992290,63328825,0.05,0.07,0.15,0.12,352.95,352.96,0.0,0.0
1629640201.19988298,63428785,0.05,0.05,0.2,0.18,352.95,352.96,0.0,0.0
1629640201.29984283,63528745,0.07,0.06,0.2,0.21,352.95,352.96,0.0,0.0
1629640201.39980292,63628705,0.09,0.06,0.18,0.21,352.95,352.96,0.0,0.0
1629640201.49976301,63728665,0.11,0.09,0.17,0.19,352.95,352.96,0.0,0.0
1629640201.59972286,63828625,0.13,0.1,0.16,0.17,352.95,352.96,0.0,0.0
1629640201.69968295,63928585,0.13,0.12,0.14,0.14,352.95,352.96,0.0,0.0
1629640201.79964280,64028545,0.12,0.12,0.12,0.12,352.95,352.96,0.0,0.0
1629640201.89960289,64128505,0.11,0.11,0.14,0.12,352.95,352.96,0.0,0.0
1629640201.99956298,64228465,0.1,0.09,0.13,0.12,352.95,352.95,0.0,0.0
1629640202.09952283,64328425,0.09,0.08,0.1,0.09,352.95,352.95,0.0,0.0
1629640202.19948292,64428385,0.09,0.08,0.08,0.07,352.95,352.95,0.0,0.0
1629640202.29944301,64528345,0.09,0.08,0.07,0.06,352.95,352.95,0.0,0.0
1629640202.39940286,64628305,0.11,0.09,0.07,0.05,352.95,352.95,0.0,0.0
1629640202.49936295,64728265,0.13,0.12,0.08,0.06,352.95,352.96,0.0,0.0
1629640202.59932280,64828225,0.12,0.12,0.07,0.06,352.95,352.96,0.0,0.0
1629640202.69928288,64928185,0.14,0.12,0.06,0.06,352.95,352.96,0.0,0.0
1629640202.80007601,65028978,0.14,0.13,0.07,0.07,352.95,352.96,0.0,0.0
1629640202.90003586,65128938,0.15,0.13,0.08,0.08,352.95,352.96,0.0,0.0
1629640202.99999595,65228898,0.17,0.15,0.08,0.08,352.95,352.96,0.0,0.0
1629640203.09995580,65328858,0.15,0.15,0.09,0.09,352.95,352.96,0.0,0.0
1629640203.19991589,65428818,0.09,0.12,0.12,0.11,352.95,352.96,0.0,0.0
1629640203.29987597,65528778,0.06,0.07,0.15,0.13,352.95,352.96,0.0,0.0
1629640203.39983582,65628738,0.05,0.04,0.16,0.15,352.95,352.96,0.0,0.0
1629640203.49979591,65728698,0.06,0.04,0.12,0.13,352.95,352.96,0.0,0.0
1629640203.59975600,65828658,0.06,0.04,0.11,0.11,352.95,352.96,0.0,0.0
1629640203.69971585,65928618,0.06,0.05,0.09,0.09,352.95,352.95,0.0,0.0
1629640203.79967594,66028578,0.07,0.05,0.07,0.07,352.95,352.95,0.0,0.0
1629640203.89963579,66128538,0.06,0.05,0.04,0.04,352.95,352.95,0.0,0.0
1629640203.99959588,66228498,0.04,0.04,0.04,0.01,352.95,352.95,0.0,0.0
1629640204.09955597,66328458,0.03,0.03,0.06,0.02,352.95,352.95,0.0,0.0
1629640204.19951582,66428418,0.05,0.04,0.08,0.06,352.95,352.95,0.0,0.0
1629640204.29947591,66528378,0.05,0.05,0.1,0.09,352.95,352.96,0.0,0.0
1629640204.39943600,66628338,0.06,0.05,0.11,0.12,352.95,352.96,0.0,0.0
1629640204.49939585,66728298,0.07,0.05,0.1,0.12,352.95,352.96,0.0,0.0
1629640204.59935594,66828258,0.08,0.07,0.1,0.11,352.95,352.96,0.0,0.0
1629640204.69931579,66928218,0.1,0.09,0.07,0.08,352.95,352.96,0.0,0.0
1629640204.79927588,67028178,0.1,0.1,0.04,0.04,352.95,352.96,0.0,0.0
1629640204.90006900,67128971,0.09,0.09,0.04,0.02,352.95,352.96,0.0,0.0
1629640205.00002885,67228931,0.09,0.09,0.08,0.04,352.95,352.96,0.0,0.0
1629640205.09998894,67328891,0.15,0.12,0.12,0.08,352.95,352.96,0.0,0.0
1629640205.19994879,67428851,0.19,0.16,0.15,0.12,352.95,352.96,0.0,0.0
1629640205.29990888,67528811,0.22,0.21,0.14,0.14,352.95,352.96,0.0,0.0
1629640205.39986897,67628771,0.2,0.22,0.13,0.14,352.95,352.96,0.0,0.0
1629640205.49982882,67728731,0.19,0.2,0.13,0.14,352.95,352.96,0.0,0.0
1629640205.59978890,67828691,0.18,0.18,0.11,0.12,352.95,352.96,0.0,0.0
1629640205.69974899,67928651,0.16,0.17,0.09,0.09,352.95,352.96,0.0,0.0
1629640205.79970884,68028611,0.13,0.15,0.11,0.08,352.95,352.96,0.0,0.0
1629640205.89966893,68128571,0.1,0.12,0.12,0.09,352.95,352.96,0.0,0.0
1629640205.99962878,68228531,0.1,0.09,0.14,0.11,352.95,352.96,0.0,0.0
1629640206.09958887,68328491,0.13,0.09,0.16,0.14,352.95,352.96,0.0,0.0
1629640206.19954896,68428451,0.17,0.12,0.15,0.16,352.95,352.96,0.0,0.0
1629640206.29950881,68528411,0.19,0.16,0.15,0.16,352.95,352.96,0.0,0.0
1629640206.39946890,68628371,0.19,0.17,0.14,0.15,352.95,352.96,0.0,0.0
1629640206.49942899,68728331,0.19,0.18,0.11,0.12,352.95,352.96,0.0,0.0
1629640206.59938884,68828291,0.15,0.16,0.07,0.08,352.95,352.96,0.0,0.0
1629640206.69934893,68928251,0.15,0.15,0.07,0.06,352.95,352.96,0.0,0.0
1629640206.79930902,69028211,0.15,0.14,0.1,0.07,352.95,352.96,0.0,0.0
1629640206.89926887,69128171,0.15,0.15,0.11,0.1,352.95,352.96,0.0,0.0
1629640207.00006199,69228964,0.16,0.15,0.12,0.11,352.95,352.96,0.0,0.0
1629640207.10002184,69328924,0.15,0.15,0.15,0.13,352.95,352.96,0.0,0.0
1629640207.19998193,69428884,0.1,0.13,0.16,0.16,352.95,352.96,0.0,0.0
1629640207.29994202,69528844,0.07,0.09,0.14,0.17,352.95,352.96,0.0,0.0
1629640207.39990187,69628804,0.09,0.07,0.13,0.16,352.95,352.96,0.0,0.0
1629640207.49986196,69728764,0.12,0.08,0.11,0.14,352.95,352.96,0.0,0.0
1629640207.59982181,69828724,0.13,0.09,0.1,0.11,352.95,352.95,0.0,0.0
1629640207.69978189,69928684,0.12,0.1,0.12,0.11,352.95,352.95,0.0,0.0
1629640207.79974198,70028644,0.09,0.08,0.13,0.12,352.95,352.95,0.0,0.0
1629640207.89970183,70128604,0.09,0.07,0.1,0.1,352.95,352.95,0.0,0.0
1629640207.99966192,70228564,0.11,0.08,0.07,0.07,352.95,352.95,0.0,0.0
1629640208.09962201,70328524,0.16,0.13,0.07,0.05,352.95,352.95,0.0,0.0
1629640208.19958186,70428484,0.17,0.17,0.06,0.04,352.95,352.95,0.0,0.0
1629640208.29954195,70528444,0.16,0.17,0.07,0.04,352.95,352.95,0.0,0.0
1629640208.39950180,70628404,0.14,0.16,0.09,0.06,352.95,352.96,0.0,0.0
1629640208.49946189,70728364,0.13,0.14,0.08,0.07,352.95,352.96,0.0,0.0
1629640208.59942198,70828324,0.11,0.11,0.06,0.06,352.95,352.96,0.0,0.0
1629640208.69938183,70928284,0.1,0.1,0.07,0.05,352.95,352.96,0.0,0.0
1629640208.79934192,71028244,0.09,0.08,0.08,0.06,352.95,352.96,0.0,0.0
1629640208.89930201,71128204,0.06,0.07,0.11,0.09,352.95,352.96,0.0,0.0
1629640208.99926186,71228164,0.03,0.04,0.11,0.11,352.95,352.95,0.0,0.0
1629640209.10005498,71328957,0.03,0.02,0.1,0.1,352.95,352.95,0.0,0.0
1629640209.20001483,71428917,0.04,0.02,0.09,0.08,352.95,352.95,0.0,0.0
1629640209.29997492,71528877,0.08,0.04,0.07,0.06,352.95,352.95,0.0,0.0
1629640209.39993501,71628837,0.09,0.06,0.09,0.06,352.95,352.95,0.0,0.0
1629640209.49989486,71728797,0.11,0.09,0.11,0.08,352.95,352.95,0.0,0.0
1629640209.59985495,71828757,0.14,0.13,0.14,0.11,352.95,352.95,0.0,0.0
1629640209.69981480,71928717,0.12,0.15,0.15,0.14,352.95,352.94,0.0,0.0
1629640209.79977489,72028677,0.08,0.11,0.11,0.14,352.95,352.95,0.0,0.0
1629640209.89973497,72128637,0.05,0.07,0.07,0.09,352.95,352.95,0.0,0.0
1629640209.99969482,72228597,0.04,0.04,0.07,0.07,352.95,352.95,0.0,0.0
1629640210.09965491,72328557,0.04,0.02,0.08,0.07,352.95,352.96,0.0,0.0
1629640210.19961500,72428517,0.06,0.04,0.08,0.07,352.95,352.96,0.0,0.0
1629640210.29957485,72528477,0.09,0.07,0.09,0.08,352.95,352.96,0.0,0.0
1629640210.39953494,72628437,0.08,0.09,0.08,0.09,352.95,352.96,0.0,0.0
1629640210.49949479,72728397,0.03,0.06,0.11,0.1,352.95,352.96,0.0,0.0
1629640210.59945488,72828357,-0.02,0.0,0.13,0.12,352.95,352.96,0.0,0.0
1629640210.69941497,72928317,-0.03,-0.04,0.11,0.12,352.95,352.96,0.0,0.0
1629640210.79937482,73028277,0.01,-0.04,0.08,0.09,352.95,352.96,0.0,0.0
1629640210.89933491,73128237,0.05,0.0,0.08,0.08,352.95,352.96,0.0,0.0
1629640210.99929500,73228197,0.08,0.03,0.06,0.06,352.95,352.96,0.0,0.0
1629640211.09925485,73328157,0.1,0.08,0.05,0.04,352.95,352.96,0.0,0.0
1629640211.20004797,73428950,0.13,0.11,0.08,0.05,352.95,352.96,0.0,0.0
1629640211.30000782,73528910,0.14,0.14,0.1,0.07,352.95,352.96,0.0,0.0
1629640211.39996791,73628870,0.14,0.14,0.1,0.09,352.95,352.96,0.0,0.0
1629640211.49992800,73728830,0.17,0.16,0.07,0.09,352.95,352.96,0.0,0.0
1629640211.59988785,73828790,0.19,0.19,0.04,0.07,352.95,352.95,0.0,0.0
1629640211.69984794,73928750,0.18,0.2,0.05,0.05,352.95,352.95,0.0,0.0
1629640211.79980779,74028710,0.15,0.18,0.05,0.05,352.95,352.95,0.0,0.0
1629640211.89976788,74128670,0.16,0.15,0.08,0.05,352.95,352.95,0.0,0.0
1629640211.99972796,74228630,0.18,0.16,0.12,0.08,352.95,352.95,0.0,0.0
1629640212.09968781,74328590,0.19,0.18,0.12,0.1,352.95,352.95,0.0,0.0
1629640212.19964790,74428550,0.18,0.19,0.11,0.11,352.95,352.95,0.0,0.0
1629640212.29960799,74528510,0.19,0.19,0.08,0.1,352.95,352.95,0.0,0.0
1629640212.39956784,74628470,0.19,0.19,0.03,0.06,352.95,352.95,0.0,0.0
1629640212.49952793,74728430,0.19,0.2,0.01,0.02,352.95,352.95,0.0,0.0
1629640212.59948778,74828390,0.2,0.2,0.0,0.0,352.95,352.95,0.0,0.0
1629640212.69944787,74928350,0.16,0.19,0.0,-0.01,352.95,352.95,0.0,0.0
1629640212.79940796,75028310,0.12,0.14,0.01,-0.01,352.95,352.95,0.0,0.0
1629640212.89936781,75128270,0.11,0.11,0.03,0.0,352.95,352.95,0.0,0.0
1629640212.99932790,75228230,0.15,0.12,0.02,0.01,352.95,352.95,0.0,0.0
1629640213.09928799,75328190,0.17,0.14,0.04,0.02,352.95,352.95,0.0,0.0
1629640213.20008087,75428983,0.21,0.17,0.06,0.04,352.95,352.95,0.0,0.0
1629640213.30004096,75528943,0.24,0.21,0.06,0.06,352.95,352.95,0.0,0.0
1629640213.40000081,75628903,0.23,0.23,0.02,0.04,352.95,352.94,0.0,0.0
1629640213.49996090,75728863,0.18,0.21,0.03,0.02,352.95,352.94,0.0,0.0
1629640213.59992099,75828823,0.15,0.18,0.05,0.02,352.95,352.94,0.0,0.0
1629640213.69988084,75928783,0.15,0.15,0.05,0.03,352.95,352.94,0.0,0.0
1629640213.79984093,76028743,0.17,0.15,0.07,0.04,352.95,352.94,0.0,0.0
1629640213.89980102,76128703,0.15,0.16,0.09,0.06,352.95,352.94,0.0,0.0
1629640213.99976087,76228663,0.14,0.14,0.11,0.09,352.95,352.94,0.0,0.0
1629640214.09972095,76328623,0.15,0.13,0.09,0.1,352.95,352.94,0.0,0.0
1629640214.19968081,76428583,0.18,0.14,0.08,0.1,352.95,352.95,0.0,0.0
1629640214.29964089,76528543,0.19,0.16,0.1,0.11,352.95,352.95,0.0,0.0
1629640214.39960098,76628503,0.2,0.18,0.1,0.11,352.95,352.95,0.0,0.0
1629640214.49956083,76728463,0.18,0.18,0.11,0.11,352.95,352.95,0.0,0.0
1629640214.59952092,76828423,0.15,0.16,0.12,0.11,352.95,352.96,0.0,0.0
1629640214.69948101,76928383,0.12,0.13,0.15,0.12,352.95,352.96,0.0,0.0
1629640214.79944086,77028343,0.1,0.1,0.15,0.14,352.95,352.97,0.0,0.0
1629640214.89940095,77128303,0.12,0.1,0.15,0.15,352.95,352.97,0.0,0.0
1629640214.99936080,77228263,0.16,0.13,0.18,0.16,352.95,352.97,0.0,0.0
1629640215.09932089,77328223,0.2,0.18,0.17,0.17,352.95,352.96,0.0,0.0
1629640215.19928098,77428183,0.19,0.2,0.15,0.16,352.95,352.96,0.0,0.0
1629640215.30007386,77528976,0.15,0.19,0.16,0.14,352.95,352.96,0.0,0.0
1629640215.40003395,77628936,0.11,0.14,0.16,0.14,352.95,352.96,0.0,0.0
1629640215.49999380,77728896,0.1,0.1,0.14,0.13,352.95,352.95,0.0,0.0
1629640215.59995389,77828856,0.12,0.09,0.15,0.12,352.95,352.95,0.0,0.0
1629640215.69991398,77928816,0.13,0.11,0.19,0.15,352.95,352.95,0.0,0.0
1629640215.79987383,78028776,0.15,0.12,0.21,0.19,352.95,352.95,0.0,0.0
1629640215.89983392,78128736,0.16,0.14,0.18,0.2,352.95,352.95,0.0,0.0
1629640215.99979401,78228696,0.15,0.14,0.1,0.15,352.95,352.95,0.0,0.0
1629640216.09975386,78328656,0.12,0.13,0.05,0.09,352.95,352.96,0.0,0.0
1629640216.19971395,78428616,0.11,0.12,0.06,0.05,352.95,352.96,0.0,0.0
1629640216.29967380,78528576,0.11,0.11,0.12,0.08,352.95,352.96,0.0,0.0
1629640216.39963388,78628536,0.11,0.1,0.17,0.13,352.95,352.96,0.0,0.0
1629640216.49959397,78728496,0.1,0.09,0.19,0.17,352.95,352.96,0.0,0.0
1629640216.59955382,78828456,0.08,0.07,0.19,0.2,352.95,352.95,0.0,0.0
1629640216.69951391,78928416,0.09,0.07,0.18,0.19,352.95,352.95,0.0,0.0
1629640216.79947400,79028376,0.09,0.07,0.16,0.16,352.95,352.95,0.0,0.0
1629640216.89943385,79128336,0.11,0.08,0.14,0.14,352.95,352.95,0.0,0.0
1629640216.99939394,79228296,0.13,0.1,0.11,0.11,352.95,352.95,0.0,0.0
1629640217.09935379,79328256,0.1,0.1,0.11,0.09,352.95,352.95,0.0,0.0
1629640217.19931388,79428216,0.08,0.08,0.14,0.1,352.95,352.95,0.0,0.0
1629640217.29927397,79528176,0.07,0.06,0.17,0.14,352.95,352.95,0.0,0.0
1629640217.40006685,79628969,0.09,0.07,0.19,0.17,352.95,352.95,0.0,0.0
1629640217.50002694,79728929,0.12,0.1,0.18,0.18,352.95,352.95,0.0,0.0
1629640217.59998679,79828889,0.12,0.13,0.16,0.18,352.95,352.95,0.0,0.0
1629640217.69994688,79928849,0.08,0.12,0.13,0.17,352.95,352.95,0.0,0.0
1629640217.79990697,80028809,0.04,0.07,0.1,0.12,352.95,352.95,0.0,0.0
1629640217.89986682,80128769,0.02,0.02,0.07,0.08,352.95,352.95,0.0,0.0
1629640217.99982691,80228729,0.05,0.01,0.07,0.05,352.95,352.95,0.0,0.0
1629640218.09978700,80328689,0.09,0.04,0.09,0.05,352.95,352.95,0.0,0.0
1629640218.19974685,80428649,0.12,0.08,0.1,0.07,352.95,352.95,0.0,0.0
1629640218.29970694,80528609,0.15,0.13,0.08,0.06,352.95,352.95,0.0,0.0
1629640218.39966679,80628569,0.17,0.16,0.07,0.06,352.95,352.95,0.0,0.0
1629640218.49962687,80728529,0.19,0.18,0.09,0.06,352.95,352.95,0.0,0.0
1629640218.59958696,80828489,0.18,0.18,0.1,0.08,352.95,352.95,0.0,0.0
1629640218.69954681,80928449,0.15,0.16,0.11,0.1,352.95,352.96,0.0,0.0
1629640218.79950690,81028409,0.14,0.14,0.11,0.11,352.95,352.96,0.0,0.0
1629640218.89946699,81128369,0.14,0.13,0.1,0.11,352.95,352.96,0.0,0.0
1629640218.99942684,81228329,0.13,0.12,0.07,0.09,352.95,352.96,0.0,0.0
1629640219.09938693,81328289,0.12,0.12,0.04,0.06,352.95,352.96,0.0,0.0
1629640219.19934678,81428249,0.12,0.11,0.03,0.03,352.95,352.96,0.0,0.0
1629640219.29930687,81528209,0.14,0.12,0.06,0.02,352.95,352.96,0.0,0.0
1629640219.39926696,81628169,0.15,0.12,0.07,0.04,352.95,352.96,0.0,0.0
1629640219.50005984,81728962,0.15,0.13,0.1,0.08,352.95,352.96,0.0,0.0
1629640219.60001993,81828922,0.16,0.14,0.15,0.13,352.95,352.96,0.0,0.0
1629640219.69997978,81928882,0.14,0.13,0.19,0.18,352.95,352.96,0.0,0.0
1629640219.79993987,82028842,0.15,0.13,0.2,0.22,352.95,352.96,0.0,0.0
1629640219.89989996,82128802,0.12,0.13,0.19,0.23,352.95,352.95,0.0,0.0
1629640219.99985981,82228762,0.07,0.08,0.14,0.19,352.95,352.95,0.0,0.0
1629640220.09981990,82328722,0.06,0.04,0.11,0.15,352.95,352.95,0.0,0.0
1629640220.19977999,82428682,0.07,0.03,0.12,0.11,352.95,352.95,0.0,0.0
1629640220.29973984,82528642,0.08,0.03,0.16,0.13,352.95,352.95,0.0,0.0
1629640220.39969993,82628602,0.11,0.06,0.17,0.15,352.95,352.95,0.0,0.0
1629640220.49966002,82728562,0.14,0.1,0.19,0.18,352.95,352.95,0.0,0.0
1629640220.59961987,82828522,0.15,0.14,0.17,0.18,352.95,352.95,0.0,0.0
1629640220.69957995,82928482,0.16,0.17,0.14,0.16,352.95,352.95,0.0,0.0
1629640220.79953980,83028442,0.14,0.17,0.14,0.14,352.95,352.94,0.0,0.0
1629640220.89949989,83128402,0.09,0.14,0.13,0.12,352.95,352.94,0.0,0.0
1629640220.99945998,83228362,0.06,0.09,0.14,0.11,352.95,352.94,0.0,0.0
1629640221.09941983,83328322,0.06,0.06,0.15,0.12,352.95,352.95,0.0,0.0
1629640221.19937992,83428282,0.07,0.06,0.16,0.13,352.95,352.95,0.0,0.0
1629640221.29934001,83528242,0.07,0.06,0.19,0.16,352.95,352.95,0.0,0.0
1629640221.39929986,83628202,0.08,0.06,0.21,0.18,352.95,352.96,0.0,0.0
1629640221.49925995,83728162,0.09,0.07,0.22,0.21,352.95,352.96,0.0,0.0
1629640221.60005283,83828955,0.13,0.1,0.21,0.22,352.95,352.96,0.0,0.0
1629640221.70001292,83928915,0.15,0.12,0.19,0.21,352.95,352.96,0.0,0.0
1629640221.79997301,84028875,0.17,0.15,0.17,0.18,352.95,352.96,0.0,0.0
1629640221.89993286,84128835,0.21,0.19,0.15,0.15,352.95,352.96,0.0,0.0
1629640221.99989295,84228795,0.21,0.21,0.11,0.11,352.95,352.96,0.0,0.0
1629640222.09985280,84328755,0.19,0.21,0.11,0.08,352.95,352.96,0.0,0.0
1629640222.19981289,84428715,0.17,0.19,0.12,0.08,352.95,352.95,0.0,0.0
1629640222.29977298,84528675,0.15,0.17,0.12,0.1,352.95,352.95,0.0,0.0
1629640222.39973283,84628635,0.15,0.15,0.1,0.09,352.95,352.95,0.0,0.0
1629640222.49969292,84728595,0.14,0.13,0.08,0.08,352.95,352.95,0.0,0.0
1629640222.59965301,84828555,0.16,0.14,0.08,0.07,352.95,352.95,0.0,0.0
1629640222.69961286,84928515,0.17,0.15,0.1,0.08,352.95,352.95,0.0,0.0
1629640222.79957294,85028475,0.15,0.15,0.1,0.09,352.95,352.95,0.0,0.0
1629640222.89953279,85128435,0.14,0.14,0.13,0.11,352.95,352.95,0.0,0.0
1629640222.99949288,85228395,0.12,0.12,0.16,0.15,352.95,352.95,0.0,0.0
1629640223.09945297,85328355,0.13,0.11,0.19,0.18,352.95,352.95,0.0,0.0
1629640223.19941282,85428315,0.15,0.12,0.2,0.2,352.95,352.95,0.0,0.0
1629640223.29937291,85528275,0.17,0.15,0.16,0.19,352.95,352.95,0.0,0.0
1629640223.39933300,85628235,0.16,0.16,0.11,0.14,352.95,352.95,0.0,0.0
1629640223.49929285,85728195,0.14,0.15,0.08,0.09,352.95,352.95,0.0,0.0
1629640223.59925294,85828155,0.14,0.14,0.07,0.05,352.95,352.95,0.0,0.0
1629640223.70004582,85928948,0.15,0.14,0.07,0.05,352.95,352.95,0.0,0.0
1629640223.80000591,86028908,0.15,0.14,0.08,0.06,352.95,352.95,0.0,0.0
1629640223.89996600,86128868,0.15,0.14,0.1,0.08,352.95,352.95,0.0,0.0
1629640223.99992585,86228828,0.16,0.15,0.11,0.1,352.95,352.95,0.0,0.0
1629640224.09988594,86328788,0.17,0.16,0.09,0.1,352.95,352.96,0.0,0.0
1629640224.19984579,86428748,-0.07,0.62,0.47,0.61,352.87,352.96,0.0,0.0
1629640224.29980588,86528708,-1.21,6.13,7.67,11.02,350.88,353.53,0.0,0.0
1629640224.39976597,86628668,-2.59,11.88,12.28,24.95,346.19,355.26,0.0,0.06
1629640224.49972582,86728628,-5.22,13.82,11.59,34.01,340.19,355.56,0.0,0.1
1629640224.59968591,86828588,-8.99,10.98,6.42,35.91,334.19,352.1,0.0,0.09
1629640224.69964600,86928548,-12.32,5.55,-1.79,31.17,328.2,345.83,0.01,0.09
1629640224.79960585,87028508,-13.8,0.14,-10.5,21.84,322.2,338.8,0.01,0.1
1629640224.89956594,87128468,-13.33,-3.93,-17.47,10.54,316.2,331.65,0.01,0.13
1629640224.99952579,87228428,-11.36,-5.72,-21.98,0.05,310.19,323.76,0.01,0.15
1629640225.09948587,87328388,-8.2,-4.41,-24.22,-7.97,304.19,314.57,0.01,0.16
1629640225.19944596,87428348,-4.18,-0.04,-24.57,-12.92,298.19,304.37,0.01,0.17
1629640225.29940581,87528308,-0.15,5.99,-23.37,-14.76,292.19,294.04,0.02,0.15
1629640225.39936590,87628268,2.99,11.72,-21.12,-14.18,286.2,284.69,0.02,0.13
1629640225.49932599,87728228,4.66,15.56,-18.48,-12.19,280.2,276.95,0.02,0.11
1629640225.59928584,87828188,4.86,16.76,-16.0,-9.72,274.2,270.77,0.02,0.09
1629640225.70007896,87928981,4.07,15.51,-14.06,-7.53,268.2,265.73,0.01,0.07
1629640225.80003881,88028941,3.09,12.69,-12.7,-5.98,262.2,261.32,0.01,0.06
1629640225.89999890,88128901,2.58,9.48,-11.77,-5.11,256.2,257.16,0.01,0.06
1629640225.99995899,88228861,2.87,6.93,-11.04,-4.71,250.2,252.91,0.01,0.05
1629640226.09991884,88328821,3.94,5.66,-10.32,-4.5,244.2,248.29,0.01,0.04
1629640226.19987893,88428781,5.57,5.73,-9.44,-4.24,238.2,243.13,0.01,0.03
1629640226.29983878,88528741,7.42,6.88,-8.27,-3.76,232.2,237.37,0.01,0.03
1629640226.39979887,88628701,9.12,8.56,-6.78,-2.92,226.2,231.1,0.01,0.03
1629640226.49975896,88728661,10.35,10.27,-5.01,-1.72,220.2,224.47,0.01,0.04
1629640226.59971881,88828621,10.89,11.5,-3.05,-0.21,214.2,217.64,0.01,0.04
1629640226.69967890,88928581,10.78,12.03,-1.04,1.45,208.2,210.76,0.01,0.04
1629640226.79963899,89028541,10.2,11.89,0.88,3.14,202.2,203.93,0.01,0.04
1629640226.89959884,89128501,9.33,11.23,2.64,4.71,196.2,197.23,0.01,0.04
1629640226.99955893,89228461,8.31,10.23,4.23,6.13,190.91,190.72,0.01,0.04
1629640227.09951901,89328421,7.21,9.15,5.65,7.35,188.23,184.67,0.01,0.03
1629640227.19947886,89428381,6.15,8.3,6.87,8.04,188.27,179.78,0.01,0.03
1629640227.29943895,89528341,5.21,7.49,7.92,8.43,191.03,176.66,0.0,0.02
1629640227.39939880,89628301,4.49,6.28,8.81,8.91,196.37,175.33,0.0,0.02
1629640227.49935889,89728261,4.12,4.83,9.56,9.45,202.37,175.73,0.0,0.02
1629640227.59931898,89828221,3.9,3.69,10.28,9.84,205.02,177.81,0.0,0.03
1629640227.69927883,89928181,4.75,3.39,10.59,9.92,208.74,181.53,0.0,0.03
1629640227.80007195,90028974,6.5,4.12,10.45,9.85,214.1,186.86,0.0,0.03
1629640227.90003181,90128934,8.65,5.78,9.86,9.65,220.1,193.76,0.0,0.04
1629640227.99999189,90228894,10.89,8.16,8.71,9.09,226.1,202.16,0.0,0.03
1629640228.09995198,90328854,12.96,10.84,6.86,7.94,232.1,211.84,0.0,0.03
1629640228.19991183,90428814,14.52,13.18,4.28,6.12,238.1,222.25,0.0,0.03
1629640228.29987192,90528774,15.34,14.65,1.13,3.53,244.1,232.87,0.0,0.03
1629640228.39983201,90628734,15.32,14.97,-2.32,0.26,250.1,243.33,0.0,0.04
1629640228.49979186,90728694,14.57,14.09,-5.68,-3.23,256.1,253.43,0.0,0.04
1629640228.59975195,90828654,13.36,12.21,-8.7,-6.49,262.1,262.96,0.0,0.04
1629640228.69971180,90928614,11.94,9.79,-11.19,-9.1,268.1,271.7,0.0,0.04
1629640228.79967189,91028574,10.54,7.42,-13.16,-10.98,274.1,279.45,0.0,0.04
1629640228.89963198,91128534,9.29,5.56,-14.68,-12.29,280.1,286.1,0.0,0.04
1629640228.99959183,91228494,8.26,4.48,-15.83,-13.28,286.11,291.73,0.0,0.04
1629640229.09955192,91328454,7.37,4.18,-16.71,-14.17,292.11,296.54,0.0,0.04
1629640229.19951200,91428414,6.45,4.35,-17.37,-15.1,298.11,300.85,0.0,0.03
1629640229.29947186,91528374,5.34,4.6,-17.8,-16.05,304.11,304.96,0.0,0.03
1629640229.39943194,91628334,3.99,4.61,-17.99,-16.91,310.11,309.19,0.0,0.03
1629640229.49939179,91728294,2.32,4.02,-17.92,-17.54,315.53,313.74,0.0,0.03
1629640229.59935188,91828254,0.45,2.15,-17.66,-17.68,318.57,318.55,0.0,0.03
1629640229.69931197,91928214,-1.35,-0.91,-17.28,-16.99,320.08,322.96,0.0,0.03
1629640229.79927182,92028174,-2.74,-4.23,-16.92,-15.75,320.81,326.29,0.0,0.02
1629640229.90006495,92128967,-3.36,-6.67,-16.8,-14.59,321.16,328.24,0.0,0.02
1629640230.00002480,92228927,-3.12,-7.57,-16.98,-14.02,321.35,328.87,0.0,0.01
1629640230.09998488,92328887,-2.22,-6.84,-17.4,-14.23,321.48,328.41,0.0,0.01
1629640230.19994497,92428847,-1.03,-4.91,-17.88,-15.07,321.62,327.12,0.0,0.01
1629640230.29990482,92528807,0.09,-2.39,-18.23,-16.24,321.76,325.29,0.0,0.01
1629640230.39986491,92628767,0.94,0.15,-18.32,-17.34,321.92,323.26,0.0,0.01
1629640230.49982500,92728727,1.39,2.27,-18.15,-18.1,322.07,321.38,0.0,0.01
1629640230.59978485,92828687,1.41,3.63,-17.83,-18.48,322.21,319.92,0.0,0.01
1629640230.69974494,92928647,1.11,4.15,-17.39,-18.47,322.31,319.05,0.0,0.01
1629640230.79970479,93028607,0.61,3.92,-16.93,-18.14,322.38,318.79,0.0,0.01
1629640230.89966488,93128567,0.02,3.11,-16.56,-17.68,322.41,319.04,0.0,0.0
1629640230.99962497,93228527,-0.51,1.99,-16.29,-17.18,322.42,319.66,0.0,0.0
1629640231.09958482,93328487,-0.89,0.81,-16.18,-16.76,322.4,320.48,0.0,0.0
1629640231.19954491,93428447,-1.08,-0.21,-16.2,-16.49,322.36,321.34,0.0,0.0
1629640231.29950500,93528407,-1.1,-0.96,-16.31,-16.34,322.33,322.12,0.0,0.0
1629640231.39946485,93628367,-1.03,-1.42,-16.45,-16.29,322.29,322.71,0.0,0.0
1629640231.49942493,93728327,-0.87,-1.6,-16.6,-16.33,322.27,323.07,0.0,0.0
1629640231.59938478,93828287,-0.65,-1.5,-16.73,-16.41,322.25,323.2,0.0,0.0
1629640231.69934487,93928247,-0.41,-1.2,-16.85,-16.52,322.23,323.12,0.0,0.0
1629640231.79930496,94028207,-0.18,-0.78,-16.93,-16.67,322.23,322.88,0.0,0.0
1629640231.89926481,94128167,-0.02,-0.35,-16.97,-16.83,322.23,322.55,0.0,0.0
1629640232.00005794,94228960,0.1,0.04,-16.98,-16.97,322.24,322.2,0.0,0.0
1629640232.10001779,94328920,0.19,0.38,-16.97,-17.06,322.24,321.88,0.0,0.0
1629640232.19997787,94428880,0.2,0.61,-16.94,-17.12,322.25,321.63,0.0,0.0
1629640232.29993796,94528840,0.15,0.69,-16.9,-17.13,322.25,321.48,0.0,0.0
1629640232.39989781,94628800,0.07,0.65,-16.88,-17.12,322.24,321.42,0.0,0.0
1629640232.49985790,94728760,0.0,0.54,-16.89,-17.1,322.23,321.44,0.0,0.0
1629640232.59981799,94828720,-0.05,0.39,-16.91,-17.08,322.22,321.53,0.0,0.0
1629640232.69977784,94928680,-0.1,0.23,-16.94,-17.06,322.2,321.65,0.0,0.0
1629640232.79973793,95028640,-0.15,0.07,-16.98,-17.04,322.18,321.77,0.0,0.0
1629640232.89969778,95128600,-0.18,-0.06,-17.02,-17.04,322.16,321.89,0.0,0.0
1629640232.99965787,95228560,-0.19,-0.17,-17.08,-17.06,322.13,321.97,0.0,0.0
1629640233.09961796,95328520,-0.15,-0.2,-17.14,-17.09,322.11,322.02,0.0,0.0
1629640233.19957781,95428480,-0.09,-0.16,-17.18,-17.13,322.09,322.03,0.0,0.0
1629640233.29953790,95528440,-0.07,-0.1,-17.2,-17.15,322.07,322.0,0.0,0.0
1629640233.39949799,95628400,-0.06,-0.05,-17.21,-17.16,322.05,321.94,0.0,0.0
1629640233.49945784,95728360,-0.05,0.01,-17.24,-17.18,322.03,321.86,0.0,0.0
1629640233.59941792,95828320,-0.04,0.07,-17.26,-17.21,322.01,321.78,0.0,0.0
1629640233.69937801,95928280,-0.03,0.11,-17.3,-17.25,321.99,321.71,0.0,0.0
1629640233.79933786,96028240,-0.02,0.15,-17.35,-17.31,321.98,321.65,0.0,0.0
1629640233.89929795,96128200,-0.01,0.18,-17.38,-17.36,321.96,321.61,0.0,0.0
1629640233.99925780,96228160,-0.03,0.17,-17.38,-17.39,321.94,321.59,0.0,0.0
1629640234.10005093,96328953,-0.03,0.15,-17.39,-17.39,321.92,321.58,0.0,0.0
1629640234.20001101,96428913,-0.02,0.14,-17.39,-17.39,321.9,321.58,0.0,0.0
1629640234.29997087,96528873,-0.01,0.13,-17.39,-17.39,321.88,321.58,0.0,0.0
1629640234.39993095,96628833,0.0,0.12,-17.42,-17.4,321.86,321.59,0.0,0.0
1629640234.49989080,96728793,-0.01,0.1,-17.46,-17.43,321.84,321.6,0.0,0.0
1629640234.59985089,96828753,-0.01,0.07,-17.51,-17.47,321.83,321.6,0.0,0.0
1629640234.69981098,96928713,-0.04,0.04,-17.53,-17.5,321.81,321.6,0.0,0.0
1629640234.79977083,97028673,-0.06,0.0,-17.55,-17.54,321.79,321.58,0.0,0.0
1629640234.89973092,97128633,-0.07,-0.03,-17.58,-17.57,321.76,321.56,0.0,0.0
1629640234.99969101,97228593,-0.04,-0.01,-17.6,-17.6,321.75,321.54,0.0,0.0
1629640235.09965086,97328553,-0.01,0.02,-17.61,-17.62,321.73,321.51,0.0,0.0
1629640235.19961095,97428513,-0.01,0.06,-17.62,-17.61,321.71,321.48,0.0,0.0
1629640235.29957080,97528473,-0.01,0.08,-17.64,-17.62,321.69,321.46,0.0,0.0
1629640235.39953089,97628433,0.0,0.09,-17.66,-17.64,321.68,321.43,0.0,0.0
1629640235.49949098,97728393,0.0,0.1,-17.67,-17.66,321.66,321.41,0.0,0.0
1629640235.59945083,97828353,0.0,0.1,-17.69,-17.68,321.64,321.4,0.0,0.0
1629640235.69941092,97928313,0.0,0.08,-17.73,-17.72,321.63,321.39,0.0,0.0
1629640235.79937100,98028273,0.01,0.09,-17.79,-17.77,321.61,321.38,0.0,0.0
1629640235.89933085,98128233,0.02,0.11,-17.8,-17.79,321.6,321.37,0.0,0.0
1629640235.99929094,98228193,0.01,0.11,-17.79,-17.79,321.59,321.36,0.0,0.0
1629640236.10008383,98328986,0.01,0.1,-17.8,-17.79,321.57,321.36,0.0,0.0
1629640236.20004392,98428946,0.01,0.1,-17.78,-17.78,321.56,321.35,0.0,0.0
1629640236.30000401,98528906,0.01,0.09,-17.78,-17.77,321.55,321.34,0.0,0.0
1629640236.39996386,98628866,0.02,0.1,-17.81,-17.78,321.54,321.33,0.0,0.0
1629640236.49992394,98728826,0.03,0.12,-17.83,-17.79,321.52,321.32,0.0,0.0
1629640236.59988379,98828786,0.02,0.12,-17.86,-17.82,321.51,321.31,0.0,0.0
1629640236.69984388,98928746,0.03,0.12,-17.88,-17.84,321.5,321.3,0.0,0.0
1629640236.79980397,99028706,0.04,0.12,-17.9,-17.88,321.49,321.29,0.0,0.0
1629640236.89976382,99128666,0.03,0.11,-17.92,-17.91,321.48,321.28,0.0,0.0
1629640236.99972391,99228626,0.05,0.12,-17.93,-17.93,321.47,321.27,0.0,0.0
1629640237.09968400,99328586,0.06,0.13,-17.91,-17.93,321.46,321.26,0.0,0.0
1629640237.19964385,99428546,0.07,0.15,-17.92,-17.93,321.45,321.25,0.0,0.0
1629640237.29960394,99528506,0.09,0.16,-17.95,-17.96,321.45,321.25,0.0,0.0
1629640237.39956379,99628466,0.11,0.18,-17.96,-17.98,321.44,321.24,0.0,0.0
1629640237.49952388,99728426,0.12,0.19,-17.96,-17.99,321.44,321.24,0.0,0.0
1629640237.59948397,99828386,0.14,0.21,-17.95,-17.97,321.43,321.24,0.0,0.0
1629640237.69944382,99928346,0.13,0.22,-17.96,-17.95,321.43,321.24,0.0,0.0
1629640237.79940391,100028306,0.1,0.19,-17.98,-17.96,321.42,321.24,0.0,0.0
1629640237.89936399,100128266,0.08,0.16,-18.0,-17.98,321.41,321.23,0.0,0.0
1629640237.99932384,100228226,0.07,0.12,-18.02,-18.02,321.41,321.23,0.0,0.0
1629640238.09928393,100328186,0.08,0.12,-18.04,-18.04,321.4,321.23,0.0,0.0
1629640238.20007682,100428979,0.09,0.13,-18.03,-18.04,321.39,321.22,0.0,0.0
1629640238.30003691,100528939,0.1,0.15,-18.0,-18.01,321.39,321.22,0.0,0.0
1629640238.39999700,100628899,0.08,0.14,-17.97,-17.97,321.38,321.21,0.0,0.0
1629640238.49995685,100728859,0.07,0.13,-18.0,-17.96,321.37,321.21,0.0,0.0
1629640238.59991693,100828819,0.08,0.12,-18.04,-18.01,321.37,321.21,0.0,0.0
1629640238.69987679,100928779,0.11,0.14,-18.06,-18.05,321.36,321.2,0.0,0.0
1629640238.79983687,101028739,0.11,0.15,-18.06,-18.08,321.36,321.2,0.0,0.0
1629640238.89979696,101128699,0.1,0.14,-18.06,-18.08,321.36,321.19,0.0,0.0
1629640238.99975681,101228659,0.12,0.14,-18.05,-18.07,321.35,321.19,0.0,0.0
1629640239.09971690,101328619,0.15,0.18,-18.06,-18.07,321.35,321.19,0.0,0.0
1629640239.19967699,101428579,0.16,0.21,-18.08,-18.08,321.35,321.18,0.0,0.0
1629640239.29963684,101528539,0.14,0.21,-18.1,-18.09,321.35,321.18,0.0,0.0
1629640239.39959693,101628499,0.1,0.18,-18.12,-18.12,321.35,321.18,0.0,0.0
1629640239.49955678,101728459,0.1,0.16,-18.12,-18.12,321.35,321.19,0.0,0.0
1629640239.59951687,101828419,0.11,0.15,-18.09,-18.11,321.34,321.19,0.0,0.0
1629640239.69947696,101928379,0.13,0.18,-18.05,-18.06,321.34,321.19,0.0,0.0
1629640239.79943681,102028339,0.16,0.21,-18.05,-18.04,321.34,321.19,0.0,0.0
1629640239.89939690,102128299,0.16,0.22,-18.08,-18.05,321.33,321.19,0.0,0.0
1629640239.99935699,102228259,0.16,0.21,-18.12,-18.1,321.33,321.19,0.0,0.0
1629640240.09931684,102328219,0.15,0.21,-18.16,-18.14,321.33,321.19,0.0,0.0
1629640240.19927692,102428179,0.13,0.19,-18.18,-18.18,321.33,321.19,0.0,0.0
1629640240.30006981,102528972,0.1,0.16,-18.17,-18.19,321.33,321.19,0.0,0.0
1629640240.40002990,102628932,0.1,0.14,-18.15,-18.17,321.32,321.19,0.0,0.0
1629640240.49998999,102728892,0.1,0.13,-18.14,-18.15,321.32,321.18,0.0,0.0
1629640240.59994984,102828852,0.11,0.14,-18.14,-18.15,321.32,321.18,0.0,0.0
1629640240.69990993,102928812,0.15,0.17,-18.14,-18.15,321.32,321.18,0.0,0.0
1629640240.79987001,103028772,0.18,0.2,-18.17,-18.16,321.32,321.18,0.0,0.0
1629640240.89982986,103128732,0.19,0.23,-18.18,-18.18,321.32,321.18,0.0,0.0
1629640240.99978995,103228692,0.2,0.25,-18.19,-18.2,321.32,321.18,0.0,0.0
1629640241.09974980,103328652,0.2,0.25,-18.18,-18.2,321.32,321.18,0.0,0.0
1629640241.19970989,103428612,0.2,0.25,-18.17,-18.19,321.32,321.18,0.0,0.0
1629640241.29966998,103528572,0.22,0.26,-18.15,-18.18,321.32,321.18,0.0,0.0
1629640241.39962983,103628532,0.21,0.25,-18.16,-18.18,321.32,321.18,0.0,0.0
1629640241.49958992,103728492,0.19,0.23,-18.15,-18.17,321.32,321.19,0.0,0.0
1629640241.59955001,103828452,0.19,0.22,-18.14,-18.15,321.31,321.19,0.0,0.0
1629640241.69950986,103928412,0.19,0.23,-18.12,-18.13,321.31,321.19,0.0,0.0
1629640241.79946995,104028372,0.2,0.24,-18.14,-18.12,321.31,321.19,0.0,0.0
1629640241.89942980,104128332,0.2,0.25,-18.15,-18.13,321.31,321.19,0.0,0.0
1629640241.99938989,104228292,0.2,0.26,-18.16,-18.14,321.31,321.19,0.0,0.0
1629640242.09934998,104328252,0.2,0.27,-18.18,-18.15,321.31,321.19,0.0,0.0
1629640242.19930983,104428212,0.21,0.27,-18.19,-18.16,321.31,321.19,0.0,0.0
1629640242.29926991,104528172,0.2,0.27,-18.19,-18.17,321.31,321.19,0.0,0.0
1629640242.40006280,104628965,0.18,0.25,-18.17,-18.16,321.3,321.19,0.0,0.0
1629640242.50002289,104728925,0.17,0.23,-18.15,-18.15,321.3,321.19,0.0,0.0
1629640242.59998298,104828885,0.16,0.2,-18.16,-18.16,321.3,321.19,0.0,0.0
1629640242.69994283,104928845,0.17,0.18,-18.17,-18.18,321.3,321.19,0.0,0.0
1629640242.79990292,105028805,0.21,0.19,-18.19,-18.2,321.29,321.19,0.0,0.0
1629640242.89986300,105128765,0.27,0.25,-18.19,-18.21,321.29,321.19,0.0,0.0
1629640242.99982285,105228725,0.29,0.3,-18.19,-18.22,321.29,321.19,0.0,0.0
1629640243.09978294,105328685,0.29,0.32,-18.2,-18.21,321.29,321.19,0.0,0.0
1629640243.19974279,105428645,0.26,0.32,-18.2,-18.21,321.29,321.19,0.0,0.0
1629640243.29970288,105528605,0.24,0.29,-18.22,-18.22,321.29,321.19,0.0,0.0
1629640243.39966297,105628565,0.25,0.28,-18.24,-18.25,321.29,321.19,0.0,0.0
1629640243.49962282,105728525,0.27,0.29,-18.22,-18.24,321.29,321.19,0.0,0.0
1629640243.59958291,105828485,0.3,0.31,-18.19,-18.22,321.29,321.19,0.0,0.0
1629640243.69954300,105928445,0.3,0.32,-18.18,-18.2,321.29,321.2,0.0,0.0
1629640243.79950285,106028405,0.27,0.31,-18.19,-18.19,321.29,321.2,0.0,0.0
1629640243.89946294,106128365,0.27,0.29,-18.21,-18.19,321.29,321.2,0.0,0.0
1629640243.99942279,106228325,0.26,0.29,-18.26,-18.23,321.29,321.2,0.0,0.0
1629640244.09938288,106328285,0.26,0.28,-18.27,-18.26,321.29,321.2,0.0,0.0
1629640244.19934297,106428245,0.27,0.28,-18.27,-18.29,321.29,321.2,0.0,0.0
1629640244.29930282,106528205,0.27,0.29,-18.25,-18.27,321.28,321.2,0.0,0.0
1629640244.39926291,106628165,0.27,0.29,-18.22,-18.24,321.28,321.2,0.0,0.0
1629640244.50005579,106728958,0.27,0.3,-18.17,-18.2,321.28,321.19,0.0,0.0
1629640244.60001588,106828918,0.28,0.31,-18.15,-18.16,321.28,321.19,0.0,0.0
1629640244.69997597,106928878,0.27,0.31,-18.17,-18.15,321.27,321.18,0.0,0.0
1629640244.79993582,107028838,0.26,0.29,-18.21,-18.19,321.27,321.18,0.0,0.0
1629640244.89989591,107128798,0.23,0.26,-18.24,-18.24,321.27,321.18,0.0,0.0
1629640244.99985600,107228758,0.23,0.24,-18.25,-18.28,321.26,321.18,0.0,0.0
1629640245.09981585,107328718,0.22,0.22,-18.25,-18.28,321.26,321.17,0.0,0.0
1629640245.19977593,107428678,0.2,0.21,-18.24,-18.26,321.25,321.17,0.0,0.0
1629640245.29973578,107528638,0.21,0.22,-18.23,-18.24,321.25,321.16,0.0,0.0
1629640245.39969587,107628598,0.23,0.25,-18.22,-18.22,321.25,321.16,0.0,0.0
1629640245.49965596,107728558,0.23,0.26,-18.21,-18.21,321.24,321.16,0.0,0.0
1629640245.59961581,107828518,0.22,0.25,-18.21,-18.22,321.24,321.15,0.0,0.0
1629640245.69957590,107928478,0.19,0.23,-18.21,-18.22,321.24,321.15,0.0,0.0
1629640245.79953599,108028438,0.18,0.2,-18.22,-18.23,321.24,321.15,0.0,0.0
1629640245.89949584,108128398,0.2,0.21,-18.24,-18.24,321.23,321.15,0.0,0.0
1629640245.99945593,108228358,0.2,0.22,-18.25,-18.25,321.23,321.15,0.0,0.0
1629640246.09941602,108328318,0.19,0.22,-18.25,-18.25,321.23,321.15,0.0,0.0
1629640246.19937587,108428278,0.22,0.24,-18.25,-18.25,321.22,321.15,0.0,0.0
1629640246.29933596,108528238,0.25,0.27,-18.25,-18.25,321.22,321.15,0.0,0.0
1629640246.39929581,108628198,0.25,0.3,-18.25,-18.24,321.22,321.15,0.0,0.0
1629640246.49925590,108728158,0.23,0.3,-18.24,-18.23,321.22,321.15,0.0,0.0
1629640246.60004878,108828951,0.22,0.27,-18.21,-18.21,321.22,321.14,0.0,0.0
1629640246.70000887,108928911,0.2,0.25,-18.19,-18.18,321.22,321.14,0.0,0.0
1629640246.79996896,109028871,0.19,0.2,-18.17,-18.17,321.21,321.14,0.0,0.0
1629640246.89992881,109128831,0.21,0.2,-18.18,-18.18,321.21,321.14,0.0,0.0
1629640246.99988890,109228791,0.24,0.21,-18.19,-18.2,321.21,321.14,0.0,0.0
1629640247.09984899,109328751,0.27,0.24,-18.22,-18.23,321.21,321.14,0.0,0.0
1629640247.19980884,109428711,0.31,0.29,-18.24,-18.26,321.22,321.15,0.0,0.0
1629640247.29976892,109528671,0.33,0.33,-18.25,-18.27,321.22,321.15,0.0,0.0
1629640247.39972901,109628631,0.33,0.37,-18.21,-18.25,321.22,321.15,0.0,0.0
1629640247.49968886,109728591,0.31,0.37,-18.17,-18.19,321.22,321.15,0.0,0.0
1629640247.59964895,109828551,0.29,0.1,-18.17,-18.42,321.22,321.15,0.0,0.0
1629640247.69960880,109928511,0.34,-5.72,-18.45,-24.24,321.23,321.46,0.0,0.0
1629640247.79956889,110028471,0.93,-13.0,-18.33,-31.23,321.24,322.77,0.0,0.04
1629640247.89952898,110128431,2.99,-17.45,-16.57,-35.24,321.3,324.1,0.0,0.07
1629640247.99948883,110228391,6.83,-16.89,-12.97,-35.12,321.44,324.08,0.0,0.08
1629640248.09944892,110328351,11.48,-12.05,-8.15,-31.41,321.69,322.9,0.01,0.07
1629640248.19940901,110428311,15.31,-5.4,-3.49,-25.4,322.05,321.66,0.01,0.09
1629640248.29936886,110528271,17.4,0.59,-0.44,-18.9,322.48,320.93,0.01,0.11
1629640248.39932895,110628231,17.73,4.37,0.38,-13.88,322.94,320.53,0.01,0.12
1629640248.49928880,110728191,16.84,5.76,-0.59,-11.32,323.39,320.14,0.01,0.13
1629640248.60008192,110828984,15.52,5.51,-2.49,-11.0,323.81,319.82,0.01,0.11
1629640248.70004201,110928944,14.31,4.63,-4.5,-12.06,324.19,319.84,0.01,0.09
1629640248.80000186,111028904,13.47,3.9,-6.15,-13.55,324.52,320.32,0.01,0.08
1629640248.89996195,111128864,12.95,3.67,-7.33,-14.83,324.81,321.24,0.01,0.07
1629640248.99992180,111228824,12.57,3.88,-8.08,-15.65,325.06,322.44,0.01,0.06
1629640249.09988189,111328784,12.11,4.28,-8.56,-15.98,325.26,323.72,0.01,0.04
1629640249.19984198,111428744,11.46,4.56,-8.91,-15.97,325.43,324.91,0.01,0.04
1629640249.29980183,111528704,10.58,4.55,-9.26,-15.78,325.55,325.88,0.01,0.03
1629640249.39976192,111628664,9.6,4.23,-9.64,-15.57,325.63,326.56,0.01,0.03
1629640249.49972200,111728624,8.65,3.75,-10.07,-15.4,325.65,326.93,0.01,0.02
1629640249.59968185,111828584,7.8,3.25,-10.53,-15.3,325.64,327.0,0.01,0.02
1629640249.69964194,111928544,7.07,2.83,-11.01,-15.27,325.58,326.84,0.0,0.01
1629640249.79960179,112028504,6.46,2.56,-11.49,-15.31,325.49,326.5,0.0,0.01
1629640249.89956188,112128464,5.98,2.42,-11.94,-15.37,325.37,326.06,0.0,0.01
1629640249.99952197,112228424,5.57,2.39,-12.35,-15.44,325.23,325.57,0.0,0.01
1629640250.09948182,112328384,5.19,2.39,-12.7,-15.48,325.06,325.08,0.0,0.01
1629640250.19944191,112428344,4.81,2.37,-13.07,-15.54,324.88,324.62,0.0,0.01
1629640250.29940200,112528304,4.42,2.31,-13.47,-15.64,324.67,324.22,0.0,0.0
1629640250.39936185,112628264,4.0,2.16,-13.84,-15.79,324.46,323.89,0.0,0.0
1629640250.49932194,112728224,3.58,1.96,-14.19,-15.95,324.23,323.63,0.0,0.0
1629640250.59928179,112828184,3.2,1.73,-14.51,-16.12,323.99,323.44,0.0,0.0
1629640250.70007491,112928977,2.85,1.49,-14.81,-16.28,323.75,323.3,0.0,0.0
1629640250.80003500,113028937,2.53,1.27,-15.08,-16.43,323.5,323.18,0.0,0.0
1629640250.89999485,113128897,2.25,1.07,-15.35,-16.57,323.25,323.07,0.0,0.0
1629640250.99995494,113228857,2.0,0.89,-15.58,-16.71,323.0,322.96,0.0,0.0
1629640251.09991479,113328817,1.77,0.75,-15.79,-16.82,322.76,322.82,0.0,0.0
1629640251.19987488,113428777,1.54,0.61,-16.0,-16.92,322.52,322.65,0.0,0.0
1629640251.29983497,113528737,1.35,0.48,-16.19,-17.02,322.29,322.46,0.0,0.0
1629640251.39979482,113628697,1.18,0.38,-16.37,-17.11,322.07,322.23,0.0,0.0
1629640251.49975491,113728657,1.05,0.31,-16.51,-17.19,321.85,321.98,0.0,0.0
1629640251.59971499,113828617,0.98,0.3,-16.67,-17.28,321.64,321.72,0.0,0.0
1629640251.69967484,113928577,0.94,0.34,-16.82,-17.37,321.44,321.46,0.0,0.0
1629640251.79963493,114028537,0.89,0.4,-16.95,-17.45,321.26,321.2,0.0,0.0
1629640251.89959478,114128497,0.81,0.42,-17.1,-17.54,321.08,320.96,0.0,0.0
1629640251.99955487,114228457,0.77,0.43,-17.25,-17.64,320.92,320.74,0.0,0.0
1629640252.09951496,114328417,0.72,0.44,-17.38,-17.73,320.76,320.55,0.0,0.0
1629640252.19947481,114428377,0.67,0.43,-17.5,-17.82,320.61,320.38,0.0,0.0
1629640252.29943490,114528337,0.63,0.41,-17.62,-17.9,320.47,320.24,0.0,0.0
1629640252.39939499,114628297,0.57,0.39,-17.72,-17.98,320.35,320.13,0.0,0.0
1629640252.49935484,114728257,0.52,0.35,-17.79,-18.05,320.23,320.03,0.0,0.0
1629640252.59931493,114828217,0.45,0.3,-17.85,-18.1,320.12,319.95,0.0,0.0
1629640252.69927502,114928177,0.39,0.25,-17.89,-18.12,320.02,319.88,0.0,0.0
1629640252.80006790,115028970,0.35,0.21,-17.93,-18.13,319.92,319.81,0.0,0.0
1629640252.90002799,115128930,0.34,0.19,-17.98,-18.14,319.84,319.75,0.0,0.0
1629640252.99998784,115228890,0.33,0.19,-18.05,-18.18,319.76,319.69,0.0,0.0
1629640253.09994793,115328850,0.36,0.22,-18.1,-18.22,319.69,319.63,0.0,0.0
1629640253.19990778,115428810,0.38,0.26,-18.16,-18.26,319.64,319.57,0.0,0.0
1629640253.29986787,115528770,0.38,0.3,-18.2,-18.31,319.58,319.52,0.0,0.0
1629640253.39982796,115628730,0.35,0.31,-18.25,-18.35,319.54,319.46,0.0,0.0
1629640253.49978781,115728690,0.33,0.3,-18.26,-18.37,319.5,319.42,0.0,0.0
1629640253.59974790,115828650,0.33,0.29,-18.28,-18.37,319.47,319.37,0.0,0.0
1629640253.69970798,115928610,0.36,0.31,-18.3,-18.38,319.45,319.34,0.0,0.0
1629640253.79966784,116028570,0.37,0.33,-18.32,-18.39,319.43,319.32,0.0,0.0
1629640253.89962792,116128530,0.35,0.33,-18.34,-18.4,319.41,319.3,0.0,0.0
1629640253.99958801,116228490,0.36,0.34,-18.35,-18.41,319.41,319.3,0.0,0.0
1629640254.09954786,116328450,0.36,0.35,-18.33,-18.41,319.4,319.29,0.0,0.0
1629640254.19950795,116428410,0.35,0.34,-18.31,-18.38,319.4,319.3,0.0,0.0
1629640254.29946780,116528370,0.34,0.33,-18.31,-18.36,319.4,319.31,0.0,0.0
1629640254.39942789,116628330,0.36,0.33,-18.33,-18.36,319.41,319.32,0.0,0.0
1629640254.49938798,116728290,0.38,0.35,-18.33,-18.36,319.43,319.34,0.0,0.0
1629640254.59934783,116828250,0.38,0.36,-18.33,-18.36,319.44,319.37,0.0,0.0
1629640254.69930792,116928210,0.39,0.38,-18.33,-18.36,319.46,319.4,0.0,0.0
1629640254.79926801,117028170,0.4,0.39,-18.36,-18.38,319.48,319.43,0.0,0.0
1629640254.90006089,117128963,0.41,0.4,-18.35,-18.38,319.5,319.46,0.0,0.0
1629640255.00002098,117228923,0.41,0.41,-18.35,-18.37,319.53,319.49,0.0,0.0
1629640255.09998083,117328883,0.42,0.42,-18.38,-18.39,319.56,319.52,0.0,0.0
1629640255.19994092,117428843,0.43,0.43,-18.41,-18.43,319.59,319.55,0.0,0.0
1629640255.29990101,117528803,0.43,0.43,-18.39,-18.43,319.63,319.58,0.0,0.0
1629640255.39986086,117628763,0.43,0.43,-18.38,-18.42,319.66,319.61,0.0,0.0
1629640255.49982095,117728723,0.44,0.44,-18.39,-18.4,319.69,319.64,0.0,0.0
1629640255.59978080,117828683,0.43,0.44,-18.4,-18.4,319.73,319.67,0.0,0.0
1629640255.69974089,117928643,0.4,0.42,-18.41,-18.41,319.77,319.71,0.0,0.0
1629640255.79970098,118028603,0.4,0.4,-18.42,-18.42,319.81,319.75,0.0,0.0
1629640255.89966083,118128563,0.4,0.39,-18.41,-18.42,319.84,319.79,0.0,0.0
1629640255.99962091,118228523,0.41,0.39,-18.39,-18.42,319.88,319.83,0.0,0.0
1629640256.09958100,118328483,0.43,0.41,-18.38,-18.41,319.91,319.87,0.0,0.0
1629640256.19954085,118428443,0.45,0.44,-18.37,-18.39,319.95,319.91,0.0,0.0
1629640256.29950094,118528403,0.44,0.45,-18.39,-18.4,319.99,319.95,0.0,0.0
1629640256.39946079,118628363,0.43,0.44,-18.42,-18.42,320.03,319.99,0.0,0.0
1629640256.49942088,118728323,0.41,0.43,-18.42,-18.44,320.07,320.03,0.0,0.0
1629640256.59938097,118828283,0.38,0.4,-18.42,-18.44,320.1,320.07,0.0,0.0
1629640256.69934082,118928243,0.38,0.38,-18.42,-18.45,320.14,320.11,0.0,0.0
1629640256.79930091,119028203,0.36,0.37,-18.44,-18.46,320.18,320.15,0.0,0.0
1629640256.89926100,119128163,0.32,0.34,-18.46,-18.47,320.21,320.19,0.0,0.0
1629640257.00005388,119228956,0.3,0.3,-18.46,-18.49,320.24,320.22,0.0,0.0
1629640257.10001397,119328916,0.3,0.28,-18.39,-18.46,320.27,320.26,0.0,0.0
1629640257.19997382,119428876,0.36,0.31,-18.35,-18.39,320.3,320.29,0.0,0.0
1629640257.29993391,119528836,0.41,0.37,-18.36,-18.35,320.33,320.32,0.0,0.0
1629640257.39989400,119628796,0.41,0.41,-18.38,-18.35,320.37,320.34,0.0,0.0
1629640257.49985385,119728756,0.41,0.43,-18.39,-18.37,320.4,320.37,0.0,0.0
1629640257.59981394,119828716,0.4,0.43,-18.35,-18.36,320.43,320.4,0.0,0.0
1629640257.69977379,119928676,0.4,0.41,-18.34,-18.35,320.46,320.43,0.0,0.0
1629640257.79973388,120028636,0.41,0.41,-18.34,-18.35,320.49,320.46,0.0,0.0
1629640257.89969397,120128596,0.4,0.41,-18.36,-18.36,320.52,320.48,0.0,0.0
1629640257.99965382,120228556,0.39,0.39,-18.39,-18.39,320.55,320.52,0.0,0.0
1629640258.09961390,120328516,0.38,0.38,-18.4,-18.42,320.58,320.55,0.0,0.0
1629640258.19957399,120428476,0.4,0.38,-18.39,-18.43,320.61,320.58,0.0,0.0
1629640258.29953384,120528436,0.43,0.4,-18.35,-18.4,320.64,320.61,0.0,0.0
1629640258.39949393,120628396,0.45,0.43,-18.34,-18.36,320.66,320.64,0.0,0.0
1629640258.49945378,120728356,0.44,0.45,-18.36,-18.35,320.69,320.67,0.0,0.0
1629640258.59941387,120828316,0.4,0.43,-18.37,-18.37,320.72,320.7,0.0,0.0
1629640258.69937396,120928276,0.39,0.4,-18.37,-18.38,320.74,320.72,0.0,0.0
1629640258.79933381,121028236,0.4,0.39,-18.38,-18.38,320.77,320.75,0.0,0.0
1629640258.89929390,121128196,0.39,0.39,-18.38,-18.39,320.79,320.78,0.0,0.0
1629640258.99925399,121228156,0.36,0.37,-18.36,-18.39,320.81,320.8,0.0,0.0
1629640259.10004687,121328949,0.35,0.35,-18.35,-18.38,320.84,320.83,0.0,0.0
1629640259.20000696,121428909,0.35,0.33,-18.34,-18.37,320.86,320.85,0.0,0.0
1629640259.29996681,121528869,0.36,0.34,-18.34,-18.35,320.88,320.87,0.0,0.0
1629640259.39992690,121628829,0.38,0.35,-18.33,-18.34,320.9,320.89,0.0,0.0
1629640259.49988699,121728789,0.41,0.38,-18.35,-18.34,320.92,320.91,0.0,0.0
1629640259.59984684,121828749,0.42,0.41,-18.35,-18.35,320.93,320.93,0.0,0.0
1629640259.69980693,121928709,0.39,0.41,-18.36,-18.36,320.95,320.94,0.0,0.0
1629640259.79976702,122028669,0.37,0.39,-18.38,-18.37,320.97,320.96,0.0,0.0
1629640259.89972687,122128629,0.34,0.37,-18.38,-18.39,320.98,320.97,0.0,0.0
1629640259.99968696,122228589,0.31,0.32,-18.39,-18.4,321.0,320.98,0.0,0.0
1629640260.09964681,122328549,0.3,0.29,-18.39,-18.41,321.01,321.0,0.0,0.0
1629640260.19960690,122428509,0.33,0.3,-18.35,-18.4,321.02,321.01,0.0,0.0
