timestamp,TimeUS,DesRoll,Roll,DesPitch,Pitch,DesYaw,Yaw,ErrRP,ErrYaw
1629639643.90003991,49128674,0.0,0.08,0.0,0.07,352.88,352.89,0.0,0.0
1629639644.00000000,49228634,0.0,0.08,0.0,0.07,352.88,352.89,0.0,0.0
1629639644.09995985,49328594,0.0,0.08,0.0,0.07,352.88,352.89,0.0,0.0
1629639644.19991994,49428554,0.0,0.08,0.0,0.07,352.88,352.89,0.0,0.0
1629639644.29987979,49528514,0.0,0.08,0.0,0.07,352.88,352.89,0.0,0.0
1629639644.39983988,49628474,0.0,0.08,0.0,0.07,352.88,352.89,0.0,0.0
1629639644.49979997,49728434,0.0,0.08,0.0,0.07,352.88,352.89,0.0,0.0
1629639644.59975982,49828394,0.0,0.08,0.0,0.07,352.88,352.89,0.0,0.0
1629639644.69971991,49928354,0.0,0.08,0.0,0.07,352.88,352.89,0.0,0.0
1629639644.79967999,50028314,0.0,0.08,0.0,0.07,352.88,352.89,0.0,0.0
1629639644.89963984,50128274,0.0,0.08,0.0,0.07,352.88,352.89,0.0,0.0
1629639644.99959993,50228234,0.0,0.08,0.0,0.07,352.88,352.89,0.0,0.0
1629639645.09955978,50328194,0.0,0.08,0.0,0.07,352.89,352.9,0.0,0.0
1629639645.19951987,50428154,0.0,0.08,0.0,0.07,352.89,352.9,0.0,0.0
1629639645.30031300,50528947,0.0,0.08,0.0,0.07,352.89,352.9,0.0,0.0
1629639645.40027285,50628907,0.0,0.08,0.0,0.07,352.89,352.9,0.0,0.0
1629639645.50023293,50728867,0.0,0.08,0.0,0.07,352.89,352.9,0.0,0.0
1629639645.60019279,50828827,0.0,0.08,0.0,0.07,352.89,352.9,0.0,0.0
1629639645.70015287,50928787,0.0,0.08,0.0,0.07,352.89,352.9,0.0,0.0
1629639645.80011296,51028747,0.0,0.08,0.0,0.07,352.89,352.9,0.0,0.0
1629639645.90007281,51128707,0.0,0.08,0.0,0.07,352.89,352.9,0.0,0.0
1629639646.00003290,51228667,0.0,0.08,0.0,0.07,352.89,352.9,0.0,0.0
1629639646.09999299,51328627,0.0,0.08,0.0,0.07,352.89,352.9,0.0,0.0
1629639646.19995284,51428587,0.0,0.08,0.0,0.07,352.89,352.9,0.0,0.0
1629639646.29991293,51528547,0.0,0.08,0.0,0.07,352.89,352.9,0.0,0.0
1629639646.39987278,51628507,0.0,0.08,0.0,0.07,352.89,352.9,0.0,0.0
1629639646.49983287,51728467,0.0,0.08,0.0,0.07,352.89,352.9,0.0,0.0
1629639646.59979296,51828427,0.0,0.08,0.0,0.07,352.89,352.9,0.0,0.0
1629639646.69975281,51928387,0.0,0.08,0.0,0.07,352.89,352.9,0.0,0.0
1629639646.79971290,52028347,0.0,0.08,0.0,0.07,352.89,352.9,0.0,0.0
1629639646.89967299,52128307,0.0,0.08,0.0,0.07,352.89,352.9,0.0,0.0
1629639646.99963284,52228267,0.0,0.09,0.0,0.07,352.89,352.9,0.0,0.0
1629639647.09959292,52328227,0.0,0.08,0.0,0.07,352.89,352.9,0.0,0.0
1629639647.19955277,52428187,0.0,0.08,0.0,0.07,352.89,352.9,0.0,0.0
1629639647.30034590,52528980,0.0,0.08,0.0,0.07,352.89,352.9,0.0,0.0
1629639647.40030599,52628940,0.0,0.09,0.0,0.07,352.89,352.9,0.0,0.0
1629639647.50026584,52728900,0.0,0.09,0.0,0.07,352.89,352.9,0.0,0.0
1629639647.60022593,52828860,0.0,0.09,0.0,0.07,352.89,352.9,0.0,0.0
1629639647.70018578,52928820,-0.05,0.09,-0.05,0.07,352.89,352.9,0.0,0.0
1629639647.80014586,53028780,-0.12,0.09,-0.13,0.07,352.89,352.9,0.0,0.0
1629639647.90010595,53128740,-0.16,0.09,-0.17,0.07,352.89,352.9,0.0,0.0
1629639648.00006580,53228700,-0.19,0.09,-0.21,0.07,352.89,352.91,0.0,0.0
1629639648.10002589,53328660,-0.22,0.09,-0.23,0.07,352.89,352.91,0.0,0.0
1629639648.19998598,53428620,-0.24,0.09,-0.25,0.07,352.89,352.91,0.0,0.0
1629639648.29994583,53528580,-0.26,0.09,-0.27,0.07,352.89,352.91,0.0,0.0
1629639648.39990592,53628540,-0.28,0.09,-0.27,0.08,352.89,352.91,0.0,0.0
1629639648.49986577,53728500,-0.3,0.09,-0.3,0.08,352.89,352.91,0.0,0.0
1629639648.59982586,53828460,-0.32,0.09,-0.3,0.08,352.89,352.91,0.0,0.0
1629639648.69978595,53928420,-0.34,0.09,-0.32,0.08,352.89,352.91,0.0,0.0
1629639648.79974580,54028380,-0.36,0.09,-0.34,0.08,352.89,352.91,0.0,0.0
1629639648.89970589,54128340,-0.4,0.09,-0.36,0.08,352.89,352.91,0.0,0.0
1629639648.99966598,54228300,-0.43,0.09,-0.4,0.08,352.89,352.91,0.0,0.0
1629639649.09962583,54328260,-0.44,0.09,-0.42,0.08,352.89,352.91,0.0,0.0
1629639649.19958591,54428220,-0.44,0.09,-0.42,0.08,352.89,352.91,0.0,0.0
1629639649.29954576,54528180,-0.46,-0.03,-0.42,-0.03,352.89,352.91,0.0,0.0
1629639649.40033889,54628973,-0.49,-0.36,-0.47,-0.34,352.89,352.91,0.0,0.0
1629639649.50029898,54728933,-0.46,-0.65,-0.48,-0.64,352.89,352.91,0.0,0.0
1629639649.60025883,54828893,-0.31,-0.76,-0.37,-0.78,352.89,352.91,0.0,0.0
1629639649.70021892,54928853,-0.12,-0.69,-0.19,-0.74,352.89,352.91,0.0,0.0
1629639649.80017877,55028813,0.07,-0.49,0.02,-0.55,352.89,352.9,0.0,0.0
1629639649.90013885,55128773,0.23,-0.25,0.22,-0.28,352.89,352.9,0.0,0.0
1629639650.00009894,55228733,0.33,-0.04,0.33,-0.04,352.89,352.9,0.0,0.0
1629639650.10005879,55328693,0.39,0.09,0.41,0.13,352.89,352.9,0.0,0.0
1629639650.20001888,55428653,0.41,0.17,0.47,0.25,352.89,352.9,0.0,0.0
1629639650.29997897,55528613,0.42,0.2,0.44,0.29,352.89,352.9,0.0,0.0
1629639650.39993882,55628573,0.41,0.19,0.39,0.25,352.89,352.89,0.0,0.0
1629639650.49989891,55728533,0.38,0.18,0.34,0.18,352.89,352.89,0.0,0.0
1629639650.59985900,55828493,0.36,0.16,0.33,0.13,352.89,352.89,0.0,0.0
1629639650.69981885,55928453,0.37,0.16,0.34,0.13,352.89,352.89,0.0,0.0
1629639650.79977894,56028413,0.4,0.2,0.36,0.16,352.89,352.89,0.0,0.0
1629639650.89973879,56128373,0.41,0.24,0.38,0.21,352.89,352.9,0.0,0.0
1629639650.99969888,56228333,0.4,0.26,0.37,0.23,352.75,352.75,0.0,0.0
1629639651.09965897,56328293,0.38,0.27,0.36,0.23,352.75,352.76,0.0,0.0
1629639651.19961882,56428253,0.33,0.24,0.36,0.24,352.75,352.76,0.0,0.0
1629639651.29957891,56528213,0.31,0.22,0.34,0.25,352.75,352.76,0.0,0.0
1629639651.39953899,56628173,0.31,0.2,0.31,0.23,352.75,352.76,0.0,0.0
1629639651.50033188,56728966,0.31,0.2,0.28,0.22,352.75,352.76,0.0,0.0
1629639651.60029197,56828926,0.29,0.2,0.25,0.19,352.75,352.76,0.0,0.0
1629639651.70025182,56928886,0.25,0.18,0.24,0.17,352.75,352.77,0.0,0.0
1629639651.80021191,57028846,0.23,0.16,0.23,0.16,352.75,352.77,0.0,0.0
1629639651.90017200,57128806,0.19,0.13,0.24,0.17,352.75,352.76,0.0,0.0
1629639652.00013185,57228766,0.17,0.1,0.23,0.18,352.75,352.76,0.0,0.0
1629639652.10009193,57328726,0.16,0.1,0.23,0.19,352.75,352.76,0.0,0.0
1629639652.20005178,57428686,0.14,0.1,0.24,0.2,352.75,352.76,0.0,0.0
1629639652.30001187,57528646,0.1,0.07,0.24,0.2,352.75,352.76,0.0,0.0
1629639652.39997196,57628606,0.09,0.05,0.21,0.2,352.75,352.76,0.0,0.0
1629639652.49993181,57728566,0.11,0.07,0.21,0.18,352.75,352.76,0.0,0.0
1629639652.59989190,57828526,0.12,0.09,0.21,0.18,352.75,352.76,0.0,0.0
1629639652.69985199,57928486,0.11,0.09,0.19,0.18,352.75,352.76,0.0,0.0
1629639652.79981184,58028446,0.09,0.09,0.15,0.15,352.75,352.76,0.0,0.0
1629639652.89977193,58128406,0.05,0.05,0.1,0.1,352.75,352.76,0.0,0.0
1629639652.99973178,58228366,0.03,0.02,0.08,0.05,352.75,352.76,0.0,0.0
1629639653.09969187,58328326,0.01,0.0,0.07,0.02,352.75,352.76,0.0,0.0
1629639653.19965196,58428286,0.02,-0.02,0.08,0.01,352.75,352.76,0.0,0.0
1629639653.29961181,58528246,0.04,-0.01,0.09,0.02,352.75,352.76,0.0,0.0
1629639653.39957190,58628206,0.04,0.0,0.1,0.04,352.75,352.76,0.0,0.0
1629639653.49953198,58728166,0.07,0.02,0.13,0.08,352.75,352.76,0.0,0.0
1629639653.60032487,58828959,0.07,0.04,0.12,0.1,352.75,352.76,0.0,0.0
1629639653.70028496,58928919,0.08,0.06,0.09,0.09,352.75,352.76,0.0,0.0
1629639653.80024481,59028879,0.12,0.09,0.03,0.05,352.75,352.76,0.0,0.0
1629639653.90020490,59128839,0.14,0.13,0.0,0.0,352.75,352.76,0.0,0.0
1629639654.00016499,59228799,0.15,0.14,-0.01,-0.02,352.75,352.76,0.0,0.0
1629639654.10012484,59328759,0.17,0.16,0.01,-0.02,352.75,352.76,0.0,0.0
1629639654.20008492,59428719,0.17,0.17,0.04,0.0,352.75,352.77,0.0,0.0
1629639654.30004478,59528679,0.16,0.17,0.04,0.03,352.75,352.77,0.0,0.0
1629639654.40000486,59628639,0.15,0.16,0.04,0.04,352.75,352.77,0.0,0.0
1629639654.49996495,59728599,0.12,0.14,0.02,0.04,352.75,352.77,0.0,0.0
1629639654.59992480,59828559,0.09,0.1,0.02,0.03,352.75,352.76,0.0,0.0
1629639654.69988489,59928519,0.1,0.09,0.01,0.02,352.75,352.76,0.0,0.0
1629639654.79984498,60028479,0.12,0.1,0.0,0.0,352.75,352.76,0.0,0.0
1629639654.89980483,60128439,0.12,0.11,0.0,-0.01,352.75,352.75,0.0,0.0
1629639654.99976492,60228399,0.11,0.11,0.02,-0.01,352.75,352.75,0.0,0.0
1629639655.09972477,60328359,0.1,0.1,0.07,0.02,352.75,352.75,0.0,0.0
1629639655.19968486,60428319,0.1,0.09,0.1,0.07,352.75,352.75,0.0,0.0
1629639655.29964495,60528279,0.1,0.09,0.11,0.1,352.75,352.75,0.0,0.0
1629639655.39960480,60628239,0.1,0.09,0.1,0.11,352.75,352.75,0.0,0.0
1629639655.49956489,60728199,0.12,0.1,0.08,0.1,352.75,352.75,0.0,0.0
1629639655.59952497,60828159,0.15,0.11,0.1,0.1,352.75,352.75,0.0,0.0
1629639655.70031786,60928952,0.15,0.14,0.08,0.09,352.75,352.76,0.0,0.0
1629639655.80027795,61028912,0.13,0.13,0.08,0.08,352.75,352.76,0.0,0.0
1629639655.90023780,61128872,0.1,0.11,0.1,0.08,352.75,352.76,0.0,0.0
1629639656.00019789,61228832,0.12,0.1,0.12,0.1,352.75,352.76,0.0,0.0
1629639656.10015798,61328792,0.15,0.12,0.13,0.12,352.75,352.77,0.0,0.0
1629639656.20011783,61428752,0.16,0.14,0.14,0.14,352.75,352.77,0.0,0.0
1629639656.30007792,61528712,0.15,0.15,0.14,0.14,352.75,352.77,0.0,0.0
1629639656.40003777,61628672,0.15,0.15,0.12,0.15,352.75,352.77,0.0,0.0
1629639656.49999785,61728632,0.16,0.16,0.13,0.14,352.75,352.77,0.0,0.0
1629639656.59995794,61828592,0.16,0.16,0.15,0.14,352.75,352.77,0.0,0.0
1629639656.69991779,61928552,0.17,0.16,0.12,0.13,352.75,352.77,0.0,0.0
1629639656.79987788,62028512,0.17,0.16,0.07,0.09,352.75,352.76,0.0,0.0
1629639656.89983797,62128472,0.13,0.13,0.06,0.06,352.75,352.76,0.0,0.0
1629639656.99979782,62228432,0.13,0.1,0.08,0.04,352.75,352.76,0.0,0.0
1629639657.09975791,62328392,0.17,0.11,0.12,0.07,352.75,352.76,0.0,0.0
1629639657.19971800,62428352,0.19,0.15,0.15,0.11,352.75,352.76,0.0,0.0
1629639657.29967785,62528312,0.19,0.18,0.17,0.15,352.75,352.76,0.0,0.0
1629639657.39963794,62628272,0.16,0.18,0.15,0.16,352.75,352.77,0.0,0.0
1629639657.49959779,62728232,0.11,0.15,0.12,0.14,352.75,352.77,0.0,0.0
1629639657.59955788,62828192,0.09,0.12,0.09,0.11,352.75,352.76,0.0,0.0
1629639657.70035100,62928985,0.08,0.09,0.08,0.08,352.75,352.76,0.0,0.0
1629639657.80031085,63028945,0.07,0.07,0.08,0.05,352.75,352.76,0.0,0.0
1629639657.90027094,63128905,0.05,0.05,0.1,0.07,352.75,352.76,0.0,0.0
1629639658.00023079,63228865,0.05,0.04,0.12,0.09,352.75,352.76,0.0,0.0
1629639658.10019088,63328825,0.04,0.04,0.16,0.12,352.75,352.76,0.0,0.0
1629639658.20015097,63428785,0.05,0.03,0.21,0.17,352.75,352.76,0.0,0.0
1629639658.30011082,63528745,0.07,0.05,0.21,0.19,352.75,352.76,0.0,0.0
1629639658.40007091,63628705,0.09,0.07,0.19,0.2,352.75,352.76,0.0,0.0
1629639658.50003099,63728665,0.11,0.09,0.18,0.19,352.75,352.76,0.0,0.0
1629639658.59999084,63828625,0.12,0.11,0.17,0.18,352.75,352.76,0.0,0.0
1629639658.69995093,63928585,0.12,0.12,0.14,0.17,352.75,352.76,0.0,0.0
1629639658.79991078,64028545,0.11,0.11,0.12,0.13,352.75,352.76,0.0,0.0
1629639658.89987087,64128505,0.1,0.1,0.13,0.11,352.75,352.76,0.0,0.0
1629639658.99983096,64228465,0.09,0.08,0.12,0.11,352.75,352.76,0.0,0.0
1629639659.09979081,64328425,0.08,0.07,0.08,0.1,352.75,352.76,0.0,0.0
1629639659.19975090,64428385,0.09,0.06,0.06,0.08,352.75,352.76,0.0,0.0
1629639659.29971099,64528345,0.09,0.06,0.06,0.06,352.75,352.76,0.0,0.0
1629639659.39967084,64628305,0.12,0.08,0.05,0.05,352.75,352.76,0.0,0.0
1629639659.49963093,64728265,0.14,0.12,0.06,0.05,352.75,352.76,0.0,0.0
1629639659.59959078,64828225,0.13,0.14,0.05,0.04,352.75,352.76,0.0,0.0
1629639659.69955087,64928185,0.15,0.15,0.05,0.03,352.75,352.76,0.0,0.0
1629639659.80034399,65028978,0.14,0.16,0.06,0.04,352.75,352.76,0.0,0.0
1629639659.90030384,65128938,0.14,0.16,0.06,0.04,352.75,352.75,0.0,0.0
1629639660.00026393,65228898,0.16,0.16,0.06,0.05,352.75,352.75,0.0,0.0
1629639660.10022378,65328858,0.13,0.15,0.07,0.05,352.75,352.75,0.0,0.0
1629639660.20018387,65428818,0.07,0.1,0.1,0.07,352.75,352.75,0.0,0.0
1629639660.30014396,65528778,0.04,0.04,0.12,0.11,352.75,352.75,0.0,0.0
1629639660.40010381,65628738,0.04,0.01,0.12,0.14,352.75,352.75,0.0,0.0
1629639660.50006390,65728698,0.06,0.02,0.08,0.13,352.75,352.75,0.0,0.0
1629639660.60002398,65828658,0.07,0.02,0.06,0.1,352.75,352.76,0.0,0.0
1629639660.69998384,65928618,0.08,0.04,0.03,0.07,352.75,352.76,0.0,0.0
1629639660.79994392,66028578,0.08,0.07,0.0,0.02,352.75,352.76,0.0,0.0
1629639660.89990377,66128538,0.08,0.08,-0.02,-0.02,352.75,352.76,0.0,0.0
1629639660.99986386,66228498,0.05,0.08,-0.02,-0.05,352.75,352.76,0.0,0.0
1629639661.09982395,66328458,0.04,0.06,0.01,-0.04,352.75,352.76,0.0,0.0
1629639661.19978380,66428418,0.04,0.05,0.06,0.01,352.75,352.76,0.0,0.0
1629639661.29974389,66528378,0.04,0.04,0.11,0.07,352.75,352.77,0.0,0.0
1629639661.39970398,66628338,0.04,0.04,0.13,0.11,352.75,352.76,0.0,0.0
1629639661.49966383,66728298,0.04,0.04,0.13,0.13,352.75,352.76,0.0,0.0
1629639661.59962392,66828258,0.06,0.05,0.13,0.14,352.75,352.76,0.0,0.0
1629639661.69958377,66928218,0.07,0.06,0.1,0.13,352.75,352.76,0.0,0.0
1629639661.79954386,67028178,0.07,0.06,0.07,0.09,352.75,352.75,0.0,0.0
1629639661.90033698,67128971,0.06,0.06,0.07,0.06,352.75,352.75,0.0,0.0
1629639662.00029683,67228931,0.07,0.06,0.1,0.07,352.75,352.75,0.0,0.0
1629639662.10025692,67328891,0.13,0.09,0.14,0.11,352.75,352.75,0.0,0.0
1629639662.20021677,67428851,0.18,0.14,0.16,0.14,352.75,352.74,0.0,0.0
1629639662.30017686,67528811,0.21,0.18,0.15,0.16,352.75,352.74,0.0,0.0
1629639662.40013695,67628771,0.18,0.19,0.14,0.15,352.75,352.74,0.0,0.0
1629639662.50009680,67728731,0.17,0.18,0.14,0.15,352.75,352.74,0.0,0.0
1629639662.60005689,67828691,0.17,0.18,0.13,0.14,352.75,352.75,0.0,0.0
1629639662.70001698,67928651,0.16,0.17,0.11,0.11,352.75,352.75,0.0,0.0
1629639662.79997683,68028611,0.13,0.14,0.13,0.11,352.75,352.75,0.0,0.0
1629639662.89993691,68128571,0.1,0.12,0.14,0.12,352.75,352.76,0.0,0.0
1629639662.99989676,68228531,0.11,0.1,0.14,0.13,352.75,352.76,0.0,0.0
1629639663.09985685,68328491,0.14,0.11,0.16,0.15,352.75,352.77,0.0,0.0
1629639663.19981694,68428451,0.19,0.15,0.15,0.16,352.75,352.77,0.0,0.0
1629639663.29977679,68528411,0.21,0.19,0.15,0.16,352.75,352.77,0.0,0.0
1629639663.39973688,68628371,0.2,0.21,0.14,0.15,352.75,352.77,0.0,0.0
1629639663.49969697,68728331,0.18,0.2,0.11,0.12,352.75,352.76,0.0,0.0
1629639663.59965682,68828291,0.14,0.17,0.07,0.08,352.75,352.76,0.0,0.0
1629639663.69961691,68928251,0.13,0.13,0.08,0.06,352.75,352.76,0.0,0.0
1629639663.79957700,69028211,0.14,0.12,0.11,0.07,352.75,352.76,0.0,0.0
1629639663.89953685,69128171,0.14,0.13,0.12,0.1,352.75,352.75,0.0,0.0
1629639664.00032997,69228964,0.16,0.14,0.13,0.12,352.75,352.75,0.0,0.0
1629639664.10028982,69328924,0.16,0.16,0.17,0.15,352.75,352.75,0.0,0.0
1629639664.20024991,69428884,0.12,0.13,0.17,0.17,352.75,352.75,0.0,0.0
1629639664.30021000,69528844,0.1,0.1,0.15,0.16,352.75,352.75,0.0,0.0
1629639664.40016985,69628804,0.12,0.1,0.15,0.14,352.75,352.75,0.0,0.0
1629639664.50012994,69728764,0.15,0.13,0.13,0.13,352.75,352.75,0.0,0.0
1629639664.60008979,69828724,0.16,0.15,0.13,0.12,352.75,352.75,0.0,0.0
1629639664.70004988,69928684,0.14,0.15,0.16,0.13,352.75,352.75,0.0,0.0
1629639664.80000997,70028644,0.1,0.13,0.16,0.14,352.75,352.76,0.0,0.0
1629639664.89996982,70128604,0.07,0.1,0.13,0.14,352.75,352.76,0.0,0.0
1629639664.99992990,70228564,0.08,0.08,0.1,0.11,352.75,352.76,0.0,0.0
1629639665.09988999,70328524,0.12,0.09,0.08,0.08,352.75,352.76,0.0,0.0
1629639665.19984984,70428484,0.13,0.11,0.06,0.06,352.75,352.76,0.0,0.0
1629639665.29980993,70528444,0.12,0.12,0.07,0.04,352.75,352.76,0.0,0.0
1629639665.39976978,70628404,0.11,0.11,0.09,0.06,352.75,352.76,0.0,0.0
1629639665.49972987,70728364,0.1,0.1,0.07,0.06,352.75,352.76,0.0,0.0
1629639665.59968996,70828324,0.09,0.09,0.05,0.05,352.75,352.76,0.0,0.0
1629639665.69964981,70928284,0.09,0.09,0.06,0.05,352.75,352.76,0.0,0.0
1629639665.79960990,71028244,0.09,0.08,0.06,0.05,352.75,352.76,0.0,0.0
1629639665.89956999,71128204,0.07,0.07,0.08,0.05,352.75,352.76,0.0,0.0
1629639665.99952984,71228164,0.05,0.04,0.07,0.06,352.75,352.76,0.0,0.0
1629639666.10032296,71328957,0.05,0.03,0.05,0.05,352.75,352.75,0.0,0.0
1629639666.20028281,71428917,0.08,0.04,0.05,0.04,352.75,352.75,0.0,0.0
1629639666.30024290,71528877,0.11,0.06,0.04,0.02,352.75,352.75,0.0,0.0
1629639666.40020299,71628837,0.12,0.09,0.05,0.02,352.75,352.75,0.0,0.0
1629639666.50016284,71728797,0.14,0.13,0.07,0.04,352.75,352.75,0.0,0.0
1629639666.60012293,71828757,0.17,0.16,0.09,0.08,352.75,352.75,0.0,0.0
1629639666.70008278,71928717,0.14,0.17,0.1,0.11,352.75,352.75,0.0,0.0
1629639666.80004287,72028677,0.09,0.12,0.06,0.09,352.75,352.75,0.0,0.0
1629639666.90000296,72128637,0.06,0.07,0.02,0.05,352.75,352.75,0.0,0.0
1629639666.99996281,72228597,0.05,0.04,0.02,0.01,352.75,352.75,0.0,0.0
1629639667.09992290,72328557,0.05,0.02,0.04,0.01,352.75,352.75,0.0,0.0
1629639667.19988298,72428517,0.08,0.04,0.05,0.02,352.75,352.76,0.0,0.0
1629639667.29984283,72528477,0.1,0.07,0.07,0.05,352.75,352.76,0.0,0.0
1629639667.39980292,72628437,0.09,0.09,0.08,0.08,352.75,352.76,0.0,0.0
1629639667.49976277,72728397,0.04,0.07,0.12,0.1,352.75,352.76,0.0,0.0
1629639667.59972286,72828357,-0.01,0.01,0.15,0.14,352.75,352.76,0.0,0.0
1629639667.69968295,72928317,-0.03,-0.04,0.13,0.15,352.75,352.76,0.0,0.0
1629639667.79964280,73028277,0.01,-0.04,0.11,0.14,352.75,352.76,0.0,0.0
1629639667.89960289,73128237,0.06,0.0,0.11,0.12,352.75,352.76,0.0,0.0
1629639667.99956298,73228197,0.09,0.04,0.09,0.1,352.75,352.76,0.0,0.0
1629639668.09952283,73328157,0.1,0.08,0.07,0.07,352.75,352.76,0.0,0.0
1629639668.20031595,73428950,0.13,0.11,0.1,0.08,352.75,352.76,0.0,0.0
1629639668.30027580,73528910,0.14,0.14,0.13,0.1,352.75,352.76,0.0,0.0
1629639668.40023589,73628870,0.14,0.14,0.12,0.11,352.75,352.76,0.0,0.0
1629639668.50019598,73728830,0.17,0.16,0.09,0.1,352.75,352.76,0.0,0.0
1629639668.60015583,73828790,0.19,0.19,0.07,0.07,352.75,352.76,0.0,0.0
1629639668.70011592,73928750,0.19,0.2,0.07,0.06,352.75,352.76,0.0,0.0
1629639668.80007577,74028710,0.16,0.18,0.08,0.06,352.75,352.76,0.0,0.0
1629639668.90003586,74128670,0.17,0.16,0.1,0.07,352.75,352.75,0.0,0.0
1629639668.99999595,74228630,0.19,0.16,0.14,0.11,352.75,352.75,0.0,0.0
1629639669.09995580,74328590,0.2,0.18,0.13,0.13,352.75,352.75,0.0,0.0
1629639669.19991589,74428550,0.19,0.18,0.12,0.13,352.75,352.75,0.0,0.0
1629639669.29987597,74528510,0.19,0.19,0.09,0.11,352.75,352.76,0.0,0.0
1629639669.39983582,74628470,0.18,0.19,0.03,0.07,352.75,352.76,0.0,0.0
1629639669.49979591,74728430,0.18,0.19,0.01,0.02,352.75,352.76,0.0,0.0
1629639669.59975576,74828390,0.19,0.19,0.0,0.0,352.75,352.76,0.0,0.0
1629639669.69971585,74928350,0.15,0.18,0.0,-0.01,352.75,352.76,0.0,0.0
1629639669.79967594,75028310,0.12,0.13,0.03,0.0,352.75,352.76,0.0,0.0
1629639669.89963579,75128270,0.12,0.12,0.05,0.02,352.75,352.76,0.0,0.0
1629639669.99959588,75228230,0.16,0.14,0.05,0.03,352.75,352.76,0.0,0.0
1629639670.09955597,75328190,0.18,0.17,0.06,0.05,352.75,352.75,0.0,0.0
1629639670.20034885,75428983,0.22,0.2,0.07,0.07,352.75,352.75,0.0,0.0
1629639670.30030894,75528943,0.25,0.24,0.07,0.07,352.75,352.75,0.0,0.0
1629639670.40026879,75628903,0.24,0.25,0.03,0.05,352.75,352.75,0.0,0.0
1629639670.50022888,75728863,0.19,0.23,0.04,0.04,352.75,352.75,0.0,0.0
1629639670.60018897,75828823,0.16,0.19,0.06,0.04,352.75,352.75,0.0,0.0
1629639670.70014882,75928783,0.17,0.16,0.08,0.05,352.75,352.75,0.0,0.0
1629639670.80010891,76028743,0.19,0.17,0.1,0.07,352.75,352.75,0.0,0.0
1629639670.90006900,76128703,0.17,0.17,0.12,0.09,352.75,352.75,0.0,0.0
1629639671.00002885,76228663,0.16,0.15,0.14,0.13,352.75,352.75,0.0,0.0
1629639671.09998894,76328623,0.17,0.16,0.12,0.14,352.75,352.75,0.0,0.0
1629639671.19994879,76428583,0.21,0.18,0.11,0.12,352.75,352.75,0.0,0.0
1629639671.29990888,76528543,0.21,0.21,0.13,0.13,352.75,352.75,0.0,0.0
1629639671.39986897,76628503,0.21,0.21,0.14,0.14,352.75,352.75,0.0,0.0
1629639671.49982882,76728463,0.19,0.2,0.13,0.14,352.75,352.75,0.0,0.0
1629639671.59978890,76828423,0.15,0.17,0.13,0.14,352.75,352.76,0.0,0.0
1629639671.69974899,76928383,0.12,0.13,0.15,0.14,352.75,352.76,0.0,0.0
1629639671.79970884,77028343,0.1,0.09,0.13,0.14,352.75,352.77,0.0,0.0
1629639671.89966893,77128303,0.11,0.09,0.12,0.13,352.75,352.77,0.0,0.0
1629639671.99962878,77228263,0.15,0.12,0.13,0.13,352.75,352.77,0.0,0.0
1629639672.09958887,77328223,0.18,0.15,0.13,0.13,352.75,352.76,0.0,0.0
1629639672.19954896,77428183,0.16,0.17,0.1,0.11,352.75,352.76,0.0,0.0
1629639672.30034184,77528976,0.12,0.15,0.11,0.09,352.75,352.76,0.0,0.0
1629639672.40030193,77628936,0.08,0.11,0.11,0.08,352.75,352.76,0.0,0.0
1629639672.50026178,77728896,0.08,0.07,0.08,0.07,352.75,352.75,0.0,0.0
1629639672.60022187,77828856,0.1,0.07,0.09,0.06,352.75,352.75,0.0,0.0
1629639672.70018196,77928816,0.11,0.09,0.13,0.1,352.75,352.75,0.0,0.0
1629639672.80014181,78028776,0.13,0.11,0.15,0.13,352.75,352.75,0.0,0.0
1629639672.90010190,78128736,0.14,0.12,0.12,0.14,352.75,352.75,0.0,0.0
1629639673.00006199,78228696,0.13,0.12,0.04,0.09,352.75,352.75,0.0,0.0
1629639673.10002184,78328656,0.1,0.12,0.0,0.03,352.75,352.75,0.0,0.0
1629639673.19998193,78428616,0.1,0.1,0.01,0.0,352.75,352.76,0.0,0.0
1629639673.29994178,78528576,0.1,0.09,0.07,0.02,352.75,352.76,0.0,0.0
1629639673.39990187,78628536,0.1,0.08,0.13,0.09,352.75,352.76,0.0,0.0
1629639673.49986196,78728496,0.09,0.08,0.16,0.14,352.75,352.76,0.0,0.0
1629639673.59982181,78828456,0.07,0.06,0.16,0.17,352.75,352.76,0.0,0.0
1629639673.69978189,78928416,0.08,0.07,0.15,0.16,352.75,352.76,0.0,0.0
1629639673.79974198,79028376,0.08,0.07,0.13,0.14,352.75,352.76,0.0,0.0
1629639673.89970183,79128336,0.1,0.08,0.12,0.12,352.75,352.76,0.0,0.0
1629639673.99966192,79228296,0.12,0.09,0.1,0.09,352.75,352.75,0.0,0.0
1629639674.09962177,79328256,0.09,0.09,0.1,0.08,352.75,352.75,0.0,0.0
1629639674.19958186,79428216,0.07,0.06,0.14,0.09,352.75,352.75,0.0,0.0
1629639674.29954195,79528176,0.06,0.04,0.17,0.14,352.75,352.75,0.0,0.0
1629639674.40033484,79628969,0.08,0.06,0.19,0.17,352.75,352.75,0.0,0.0
1629639674.50029492,79728929,0.12,0.09,0.18,0.19,352.75,352.75,0.0,0.0
1629639674.60025477,79828889,0.12,0.12,0.17,0.19,352.75,352.75,0.0,0.0
1629639674.70021486,79928849,0.07,0.11,0.14,0.17,352.75,352.75,0.0,0.0
1629639674.80017495,80028809,0.03,0.06,0.1,0.13,352.75,352.75,0.0,0.0
1629639674.90013480,80128769,0.01,0.02,0.09,0.09,352.75,352.75,0.0,0.0
1629639675.00009489,80228729,0.04,0.0,0.1,0.07,352.75,352.75,0.0,0.0
1629639675.10005498,80328689,0.08,0.03,0.13,0.08,352.75,352.75,0.0,0.0
1629639675.20001483,80428649,0.12,0.07,0.15,0.11,352.75,352.75,0.0,0.0
1629639675.29997492,80528609,0.15,0.12,0.13,0.12,352.75,352.75,0.0,0.0
1629639675.39993477,80628569,0.17,0.16,0.13,0.12,352.75,352.75,0.0,0.0
1629639675.49989486,80728529,0.2,0.19,0.14,0.13,352.75,352.75,0.0,0.0
1629639675.59985495,80828489,0.18,0.2,0.15,0.13,352.75,352.75,0.0,0.0
1629639675.69981480,80928449,0.16,0.18,0.15,0.15,352.75,352.75,0.0,0.0
1629639675.79977489,81028409,0.15,0.15,0.16,0.15,352.75,352.75,0.0,0.0
1629639675.89973497,81128369,0.15,0.14,0.14,0.15,352.75,352.76,0.0,0.0
1629639675.99969482,81228329,0.14,0.13,0.11,0.13,352.75,352.76,0.0,0.0
1629639676.09965491,81328289,0.14,0.14,0.09,0.11,352.75,352.76,0.0,0.0
1629639676.19961476,81428249,0.14,0.14,0.07,0.08,352.75,352.76,0.0,0.0
1629639676.29957485,81528209,0.16,0.14,0.09,0.07,352.75,352.76,0.0,0.0
1629639676.39953494,81628169,0.17,0.15,0.1,0.07,352.75,352.76,0.0,0.0
1629639676.50032783,81728962,0.18,0.16,0.13,0.1,352.75,352.76,0.0,0.0
1629639676.60028791,81828922,0.18,0.16,0.17,0.14,352.75,352.76,0.0,0.0
1629639676.70024776,81928882,0.17,0.15,0.2,0.19,352.75,352.76,0.0,0.0
1629639676.80020785,82028842,0.18,0.15,0.2,0.22,352.75,352.76,0.0,0.0
1629639676.90016794,82128802,0.15,0.15,0.18,0.22,352.75,352.76,0.0,0.0
1629639677.00012779,82228762,0.1,0.11,0.13,0.18,352.75,352.76,0.0,0.0
1629639677.10008788,82328722,0.09,0.08,0.09,0.12,352.75,352.75,0.0,0.0
1629639677.20004797,82428682,0.1,0.07,0.09,0.08,352.75,352.75,0.0,0.0
1629639677.30000782,82528642,0.11,0.07,0.13,0.09,352.75,352.75,0.0,0.0
1629639677.39996791,82628602,0.13,0.09,0.14,0.11,352.75,352.75,0.0,0.0
1629639677.49992800,82728562,0.16,0.12,0.16,0.13,352.75,352.75,0.0,0.0
1629639677.59988785,82828522,0.17,0.15,0.14,0.14,352.75,352.75,0.0,0.0
1629639677.69984794,82928482,0.18,0.18,0.11,0.12,352.75,352.75,0.0,0.0
1629639677.79980779,83028442,0.17,0.19,0.1,0.1,352.75,352.75,0.0,0.0
1629639677.89976788,83128402,0.12,0.16,0.09,0.08,352.75,352.75,0.0,0.0
1629639677.99972796,83228362,0.09,0.11,0.1,0.08,352.75,352.75,0.0,0.0
1629639678.09968781,83328322,0.08,0.09,0.11,0.09,352.75,352.75,0.0,0.0
1629639678.19964790,83428282,0.08,0.08,0.12,0.1,352.75,352.75,0.0,0.0
1629639678.29960799,83528242,0.07,0.07,0.15,0.12,352.75,352.75,0.0,0.0
1629639678.39956784,83628202,0.08,0.07,0.17,0.14,352.75,352.75,0.0,0.0
1629639678.49952793,83728162,0.09,0.07,0.19,0.16,352.75,352.76,0.0,0.0
1629639678.60032082,83828955,0.12,0.09,0.19,0.17,352.75,352.76,0.0,0.0
1629639678.70028090,83928915,0.14,0.11,0.18,0.18,352.75,352.76,0.0,0.0
1629639678.80024099,84028875,0.16,0.14,0.17,0.17,352.75,352.76,0.0,0.0
1629639678.90020084,84128835,0.2,0.17,0.15,0.16,352.75,352.76,0.0,0.0
1629639679.00016093,84228795,0.21,0.21,0.11,0.13,352.75,352.76,0.0,0.0
1629639679.10012078,84328755,0.18,0.21,0.1,0.11,352.75,352.76,0.0,0.0
1629639679.20008087,84428715,0.17,0.19,0.11,0.1,352.75,352.75,0.0,0.0
1629639679.30004096,84528675,0.14,0.16,0.1,0.09,352.75,352.75,0.0,0.0
1629639679.40000081,84628635,0.14,0.13,0.07,0.07,352.75,352.75,0.0,0.0
1629639679.49996090,84728595,0.13,0.12,0.05,0.05,352.75,352.75,0.0,0.0
1629639679.59992099,84828555,0.15,0.12,0.06,0.04,352.75,352.74,0.0,0.0
1629639679.69988084,84928515,0.16,0.14,0.09,0.05,352.75,352.74,0.0,0.0
1629639679.79984093,85028475,0.14,0.15,0.11,0.08,352.75,352.74,0.0,0.0
1629639679.89980078,85128435,0.12,0.13,0.15,0.11,352.75,352.74,0.0,0.0
1629639679.99976087,85228395,0.11,0.11,0.19,0.16,352.75,352.74,0.0,0.0
1629639680.09972095,85328355,0.11,0.08,0.21,0.21,352.75,352.74,0.0,0.0
1629639680.19968081,85428315,0.13,0.08,0.22,0.24,352.75,352.74,0.0,0.0
1629639680.29964089,85528275,0.17,0.12,0.16,0.22,352.75,352.74,0.0,0.0
1629639680.39960098,85628235,0.16,0.14,0.09,0.14,352.75,352.75,0.0,0.0
1629639680.49956083,85728195,0.14,0.15,0.05,0.06,352.75,352.75,0.0,0.0
1629639680.59952092,85828155,0.13,0.14,0.04,0.02,352.75,352.75,0.0,0.0
1629639680.70031381,85928948,0.13,0.14,0.06,0.02,352.75,352.76,0.0,0.0
1629639680.80027390,86028908,0.13,0.13,0.08,0.04,352.75,352.76,0.0,0.0
1629639680.90023398,86128868,0.12,0.12,0.11,0.07,352.75,352.76,0.0,0.0
1629639681.00019383,86228828,0.14,0.12,0.12,0.1,352.75,352.76,0.0,0.0
1629639681.10015392,86328788,0.15,0.13,0.1,0.11,352.75,352.76,0.0,0.0
1629639681.20011377,86428748,0.16,0.15,0.1,0.11,352.75,352.75,0.0,0.0
1629639681.30007386,86528708,0.17,0.16,0.06,0.09,352.75,352.75,0.0,0.0
1629639681.40003395,86628668,0.15,0.16,0.05,0.06,352.75,352.75,0.0,0.0
1629639681.49999380,86728628,0.1,0.13,0.09,0.07,352.75,352.74,0.0,0.0
1629639681.59995389,86828588,0.06,0.08,0.13,0.09,352.75,352.74,0.0,0.0
1629639681.69991398,86928548,0.04,0.03,0.13,0.12,352.75,352.74,0.0,0.0
1629639681.79987383,87028508,0.06,0.02,0.12,0.12,352.75,352.74,0.0,0.0
1629639681.89983392,87128468,0.12,0.06,0.12,0.13,352.75,352.74,0.0,0.0
1629639681.99979377,87228428,0.17,0.13,0.14,0.13,352.75,352.75,0.0,0.0
1629639682.09975386,87328388,0.15,0.16,0.12,0.12,352.75,352.75,0.0,0.0
1629639682.19971395,87428348,0.15,0.16,0.08,0.09,352.75,352.75,0.0,0.0
1629639682.29967380,87528308,0.13,0.15,0.05,0.05,352.75,352.75,0.0,0.0
1629639682.39963388,87628268,0.13,0.13,0.05,0.03,352.75,352.75,0.0,0.0
1629639682.49959397,87728228,0.14,0.13,0.07,0.03,352.75,352.76,0.0,0.0
1629639682.59955382,87828188,0.15,0.14,0.11,0.06,352.75,352.76,0.0,0.0
1629639682.70034695,87928981,0.11,0.13,0.13,0.11,352.75,352.76,0.0,0.0
1629639682.80030680,88028941,0.07,0.09,0.14,0.13,352.75,352.76,0.0,0.0
1629639682.90026689,88128901,0.06,0.06,0.14,0.14,352.75,352.76,0.0,0.0
1629639683.00022697,88228861,0.09,0.06,0.14,0.14,352.75,352.76,0.0,0.0
1629639683.10018682,88328821,0.11,0.07,0.14,0.14,352.75,352.76,0.0,0.0
1629639683.20014691,88428781,0.11,0.09,0.12,0.13,352.75,352.76,0.0,0.0
1629639683.30010676,88528741,0.1,0.1,0.1,0.11,352.75,352.76,0.0,0.0
1629639683.40006685,88628701,0.08,0.08,0.1,0.11,352.75,352.76,0.0,0.0
1629639683.50002694,88728661,0.09,0.06,0.09,0.1,352.75,352.75,0.0,0.0
1629639683.59998679,88828621,0.1,0.07,0.09,0.08,352.75,352.75,0.0,0.0
1629639683.69994688,88928581,0.12,0.09,0.13,0.09,352.75,352.75,0.0,0.0
1629639683.79990697,89028541,0.17,0.13,0.18,0.13,352.75,352.74,0.0,0.0
1629639683.89986682,89128501,0.2,0.18,0.19,0.17,352.75,352.74,0.0,0.0
1629639683.99982691,89228461,0.21,0.21,0.2,0.19,352.75,352.74,0.0,0.0
1629639684.09978700,89328421,0.19,0.2,0.19,0.19,352.75,352.74,0.0,0.0
1629639684.19974685,89428381,0.69,0.31,-1.39,-0.16,352.75,352.75,0.0,0.0
1629639684.29970694,89528341,2.31,1.51,-12.52,-6.22,352.75,352.67,0.0,0.0
1629639684.39966679,89628301,2.79,2.73,-20.46,-16.95,352.74,352.37,0.0,0.0
1629639684.49962687,89728261,2.4,3.1,-18.79,-22.1,352.74,352.32,0.0,0.01
1629639684.59958696,89828221,1.61,2.53,-13.44,-20.26,352.74,352.67,0.0,0.01
1629639684.69954681,89928181,0.85,1.51,-7.44,-13.96,352.74,353.08,0.0,0.01
1629639684.80033994,90028974,0.37,0.56,-2.9,-6.54,352.74,353.3,0.0,0.01
1629639684.90029979,90128934,0.21,-0.02,-0.68,-0.84,352.74,353.32,0.0,0.02
1629639685.00025988,90228894,0.3,-0.17,-0.49,1.89,352.74,353.25,0.0,0.02
1629639685.10021996,90328854,0.5,0.01,-1.42,1.9,352.74,353.15,0.01,0.02
1629639685.20017982,90428814,0.63,0.3,-2.46,0.36,352.74,353.01,0.01,0.01
1629639685.30013990,90528774,0.65,0.53,-2.92,-1.37,352.74,352.86,0.01,0.01
1629639685.40009999,90628734,0.56,0.62,-2.6,-2.37,352.74,352.72,0.01,0.01
1629639685.50005984,90728694,0.39,0.54,-1.67,-2.3,352.74,352.62,0.01,0.01
1629639685.60001993,90828654,0.24,0.36,-0.52,-1.4,352.74,352.55,0.01,0.01
1629639685.69997978,90928614,0.12,0.18,0.55,-0.1,352.74,352.51,0.01,0.0
1629639685.79993987,91028574,0.02,0.02,1.31,1.1,352.74,352.49,0.01,0.0
1629639685.89989996,91128534,-0.06,-0.1,1.68,1.93,352.74,352.51,0.0,0.0
1629639685.99985981,91228494,-0.1,-0.18,1.77,2.28,352.74,352.54,0.0,0.0
1629639686.09981990,91328454,-0.07,-0.18,1.67,2.24,352.74,352.59,0.0,0.0
1629639686.19977999,91428414,-0.06,-0.13,1.53,1.98,352.74,352.65,0.0,0.0
1629639686.29973984,91528374,-0.05,-0.09,1.45,1.69,352.74,352.71,0.0,0.0
1629639686.39969993,91628334,-0.05,-0.06,1.46,1.49,352.74,352.76,0.0,0.0
1629639686.49965978,91728294,-0.08,-0.06,1.58,1.47,352.74,352.81,0.0,0.0
1629639686.59961987,91828254,-0.08,-0.08,1.69,1.55,352.74,352.83,0.0,0.0
1629639686.69957995,91928214,-0.04,-0.06,1.74,1.66,352.74,352.85,0.0,0.0
1629639686.79953980,92028174,-0.02,-0.02,1.74,1.72,352.74,352.85,0.0,0.0
1629639686.90033293,92128967,-0.02,0.0,1.7,1.72,352.74,352.84,0.0,0.0
1629639687.00029278,92228927,-0.02,-0.01,1.62,1.67,352.74,352.82,0.0,0.0
1629639687.10025287,92328887,0.0,0.0,1.55,1.58,352.74,352.8,0.0,0.0
1629639687.20021296,92428847,0.02,0.01,1.43,1.45,352.74,352.78,0.0,0.0
1629639687.30017281,92528807,0.03,0.03,1.32,1.31,352.74,352.75,0.0,0.0
1629639687.40013289,92628767,0.04,0.05,1.24,1.2,352.74,352.73,0.0,0.0
1629639687.50009298,92728727,0.05,0.06,1.18,1.12,352.74,352.72,0.0,0.0
1629639687.60005283,92828687,0.03,0.06,1.05,1.03,352.74,352.71,0.0,0.0
1629639687.70001292,92928647,0.04,0.04,0.95,0.92,352.74,352.71,0.0,0.0
1629639687.79997277,93028607,0.06,0.04,0.87,0.83,352.74,352.71,0.0,0.0
1629639687.89993286,93128567,0.05,0.04,0.78,0.75,352.74,352.72,0.0,0.0
1629639687.99989295,93228527,0.06,0.04,0.72,0.68,352.74,352.72,0.0,0.0
1629639688.09985280,93328487,0.08,0.06,0.65,0.63,352.74,352.73,0.0,0.0
1629639688.19981289,93428447,0.11,0.09,0.56,0.55,352.74,352.74,0.0,0.0
1629639688.29977298,93528407,0.15,0.13,0.49,0.47,352.74,352.75,0.0,0.0
1629639688.39973283,93628367,0.14,0.15,0.42,0.4,352.74,352.76,0.0,0.0
1629639688.49969292,93728327,0.12,0.14,0.37,0.34,352.74,352.76,0.0,0.0
1629639688.59965277,93828287,0.11,0.12,0.34,0.3,352.74,352.76,0.0,0.0
1629639688.69961286,93928247,0.11,0.11,0.31,0.28,352.74,352.76,0.0,0.0
1629639688.79957294,94028207,0.13,0.11,0.27,0.25,352.74,352.76,0.0,0.0
1629639688.89953279,94128167,0.14,0.11,0.24,0.23,352.74,352.76,0.0,0.0
1629639689.00032592,94228960,0.17,0.13,0.21,0.2,352.74,352.75,0.0,0.0
1629639689.10028577,94328920,0.22,0.18,0.18,0.17,352.74,352.75,0.0,0.0
1629639689.20024586,94428880,0.25,0.23,0.16,0.15,352.74,352.74,0.0,0.0
1629639689.30020595,94528840,0.24,0.25,0.14,0.13,352.74,352.74,0.0,0.0
1629639689.40016580,94628800,0.23,0.24,0.13,0.12,352.74,352.73,0.0,0.0
1629639689.50012589,94728760,0.23,0.23,0.09,0.09,352.74,352.73,0.0,0.0
1629639689.60008597,94828720,0.25,0.24,0.05,0.06,352.74,352.73,0.0,0.0
1629639689.70004582,94928680,0.26,0.25,0.02,0.02,352.74,352.73,0.0,0.0
1629639689.80000591,95028640,0.24,0.24,0.01,0.0,352.74,352.73,0.0,0.0
1629639689.89996576,95128600,0.22,0.22,0.0,0.0,352.74,352.73,0.0,0.0
1629639689.99992585,95228560,0.21,0.2,0.0,-0.02,352.74,352.73,0.0,0.0
1629639690.09988594,95328520,0.22,0.2,0.0,-0.02,352.74,352.74,0.0,0.0
1629639690.19984579,95428480,0.24,0.22,0.0,-0.01,352.74,352.74,0.0,0.0
1629639690.29980588,95528440,0.23,0.22,0.03,0.01,352.74,352.74,0.0,0.0
1629639690.39976597,95628400,0.2,0.2,0.06,0.05,352.74,352.74,0.0,0.0
1629639690.49972582,95728360,0.18,0.18,0.08,0.08,352.74,352.74,0.0,0.0
1629639690.59968591,95828320,0.15,0.15,0.1,0.1,352.74,352.74,0.0,0.0
1629639690.69964600,95928280,0.14,0.13,0.09,0.11,352.74,352.74,0.0,0.0
1629639690.79960585,96028240,0.15,0.13,0.07,0.09,352.74,352.74,0.0,0.0
1629639690.89956594,96128200,0.16,0.14,0.06,0.07,352.74,352.74,0.0,0.0
1629639690.99952579,96228160,0.15,0.14,0.09,0.07,352.74,352.73,0.0,0.0
1629639691.10031891,96328953,0.16,0.14,0.11,0.09,352.74,352.73,0.0,0.0
1629639691.20027900,96428913,0.17,0.16,0.12,0.1,352.74,352.73,0.0,0.0
1629639691.30023885,96528873,0.19,0.17,0.15,0.13,352.74,352.73,0.0,0.0
1629639691.40019894,96628833,0.2,0.19,0.15,0.15,352.74,352.73,0.0,0.0
1629639691.50015879,96728793,0.2,0.19,0.13,0.15,352.74,352.73,0.0,0.0
1629639691.60011888,96828753,0.18,0.18,0.11,0.13,352.74,352.73,0.0,0.0
1629639691.70007896,96928713,0.15,0.17,0.12,0.11,352.74,352.73,0.0,0.0
1629639691.80003881,97028673,0.11,0.13,0.11,0.1,352.74,352.73,0.0,0.0
1629639691.89999890,97128633,0.09,0.08,0.12,0.1,352.74,352.73,0.0,0.0
1629639691.99995899,97228593,0.09,0.06,0.12,0.1,352.74,352.73,0.0,0.0
1629639692.09991884,97328553,0.1,0.06,0.14,0.11,352.74,352.73,0.0,0.0
1629639692.19987893,97428513,0.09,0.07,0.16,0.14,352.74,352.73,0.0,0.0
1629639692.29983878,97528473,0.09,0.07,0.16,0.15,352.74,352.73,0.0,0.0
1629639692.39979887,97628433,0.1,0.07,0.17,0.16,352.74,352.73,0.0,0.0
1629639692.49975896,97728393,0.11,0.08,0.17,0.16,352.74,352.73,0.0,0.0
1629639692.59971881,97828353,0.11,0.09,0.16,0.16,352.74,352.73,0.0,0.0
1629639692.69967890,97928313,0.12,0.1,0.14,0.14,352.74,352.73,0.0,0.0
1629639692.79963899,98028273,0.14,0.11,0.11,0.11,352.74,352.73,0.0,0.0
1629639692.89959884,98128233,0.15,0.13,0.12,0.09,352.74,352.73,0.0,0.0
1629639692.99955893,98228193,0.13,0.14,0.14,0.1,352.74,352.73,0.0,0.0
1629639693.10035181,98328986,0.12,0.13,0.16,0.13,352.74,352.73,0.0,0.0
1629639693.20031190,98428946,0.12,0.12,0.19,0.16,352.74,352.73,0.0,0.0
1629639693.30027199,98528906,0.12,0.11,0.21,0.2,352.74,352.73,0.0,0.0
1629639693.40023184,98628866,0.13,0.11,0.2,0.21,352.74,352.73,0.0,0.0
1629639693.50019193,98728826,0.14,0.13,0.19,0.21,352.74,352.73,0.0,0.0
1629639693.60015178,98828786,0.13,0.14,0.17,0.19,352.74,352.73,0.0,0.0
1629639693.70011187,98928746,0.15,0.14,0.15,0.17,352.74,352.73,0.0,0.0
1629639693.80007195,99028706,0.16,0.15,0.14,0.14,352.74,352.73,0.0,0.0
1629639693.90003181,99128666,0.15,0.16,0.13,0.12,352.74,352.73,0.0,0.0
1629639693.99999189,99228626,0.16,0.15,0.13,0.1,352.74,352.73,0.0,0.0
1629639694.09995198,99328586,0.16,0.17,0.15,0.12,352.74,352.73,0.0,0.0
1629639694.19991183,99428546,0.17,0.17,0.17,0.15,352.74,352.73,0.0,0.0
1629639694.29987192,99528506,0.18,0.18,0.14,0.14,352.74,352.73,0.0,0.0
1629639694.39983177,99628466,0.19,0.19,0.13,0.13,352.74,352.73,0.0,0.0
1629639694.49979186,99728426,0.2,0.2,0.14,0.13,352.74,352.74,0.0,0.0
1629639694.59975195,99828386,0.22,0.21,0.16,0.14,352.74,352.74,0.0,0.0
1629639694.69971180,99928346,0.21,0.22,0.17,0.15,352.74,352.74,0.0,0.0
1629639694.79967189,100028306,0.18,0.2,0.16,0.16,352.74,352.74,0.0,0.0
1629639694.89963198,100128266,1.29,0.78,-5.17,-1.95,352.74,352.72,0.0,0.0
1629639694.99959183,100228226,2.06,1.71,-12.25,-8.99,352.74,352.62,0.0,0.0
1629639695.09955192,100328186,2.64,2.57,-15.12,-14.85,352.74,352.49,0.0,0.0
1629639695.20034480,100428979,3.12,3.23,-14.93,-17.34,352.74,352.49,0.0,0.0
1629639695.30030489,100528939,3.57,3.71,-12.8,-16.43,352.74,352.69,0.0,0.0
1629639695.40026498,100628899,4.06,4.1,-10.01,-13.31,352.74,353.0,0.0,0.01
1629639695.50022483,100728859,4.67,4.56,-7.55,-9.54,352.74,353.29,0.0,0.01
1629639695.60018492,100828819,5.41,5.19,-5.87,-6.35,352.74,353.47,0.0,0.02
1629639695.70014477,100928779,6.16,5.95,-4.93,-4.3,352.74,353.49,0.0,0.02
1629639695.80010486,101028739,6.8,6.71,-4.47,-3.33,352.74,353.35,0.0,0.02
1629639695.90006495,101128699,7.32,7.35,-4.15,-3.05,352.74,353.11,0.0,0.02
1629639696.00002480,101228659,7.77,7.88,-3.73,-2.97,352.74,352.86,0.0,0.02
1629639696.09998488,101328619,8.16,8.3,-3.16,-2.78,352.74,352.65,0.0,0.02
1629639696.19994497,101428579,8.47,8.63,-2.44,-2.35,352.74,352.53,0.0,0.01
1629639696.29990482,101528539,8.71,8.86,-1.67,-1.69,353.13,352.49,0.0,0.01
1629639696.39986491,101628499,8.93,9.07,-0.97,-0.76,355.97,352.66,0.0,0.01
1629639696.49982476,101728459,9.23,9.37,-0.45,0.4,1.38,353.63,0.0,0.01
1629639696.59978485,101828419,9.59,9.79,-0.28,1.36,7.38,356.03,0.0,0.01
1629639696.69974494,101928379,9.97,10.29,-0.63,1.64,13.38,0.08,0.0,0.02
1629639696.79970479,102028339,10.24,10.72,-1.6,1.05,19.38,5.62,0.0,0.02
1629639696.89966488,102128299,10.3,10.92,-3.06,-0.38,25.38,12.35,0.0,0.03
1629639696.99962497,102228259,10.07,10.78,-4.82,-2.43,31.38,20.0,0.0,0.04
1629639697.09958482,102328219,9.53,10.24,-6.68,-4.82,37.38,28.31,0.0,0.04
1629639697.19954491,102428179,8.66,9.26,-8.47,-7.27,43.38,37.03,0.0,0.05
1629639697.30033779,102528972,7.5,7.83,-10.04,-9.51,49.38,45.93,0.0,0.05
1629639697.40029788,102628932,6.11,6.06,-11.34,-11.34,55.38,54.71,0.0,0.05
1629639697.50025797,102728892,4.59,4.09,-12.37,-12.67,61.38,63.09,0.0,0.06
1629639697.60021782,102828852,3.02,2.11,-13.13,-13.53,67.38,70.83,0.0,0.05
1629639697.70017791,102928812,1.5,0.3,-13.69,-14.0,73.38,77.83,0.0,0.05
1629639697.80013800,103028772,0.05,-1.25,-14.11,-14.23,79.38,84.07,0.0,0.05
1629639697.90009785,103128732,-1.33,-2.54,-14.39,-14.32,85.38,89.65,0.0,0.05
1629639698.00005794,103228692,-2.65,-3.61,-14.51,-14.34,91.38,94.73,0.0,0.04
1629639698.10001779,103328652,-3.93,-4.62,-14.46,-14.27,96.44,99.49,0.0,0.04
1629639698.19997787,103428612,-5.17,-5.98,-14.26,-14.0,98.84,103.85,0.0,0.04
1629639698.29993796,103528572,-6.26,-7.64,-13.98,-13.48,99.49,107.34,0.0,0.03
1629639698.39989781,103628532,-7.04,-9.13,-13.76,-12.89,99.5,109.53,0.0,0.03
1629639698.49985790,103728492,-7.38,-10.03,-13.71,-12.47,99.23,110.3,0.0,0.02
1629639698.59981799,103828452,-7.23,-10.15,-13.87,-12.38,98.86,109.8,0.0,0.02
1629639698.69977784,103928412,-6.67,-9.49,-14.22,-12.65,98.47,108.27,0.0,0.02
1629639698.79973793,104028372,-5.87,-8.23,-14.71,-13.27,98.11,106.01,0.0,0.02
1629639698.89969778,104128332,-5.01,-6.65,-15.21,-14.1,97.78,103.29,0.0,0.02
1629639698.99965787,104228292,-4.19,-4.98,-15.63,-14.95,97.49,100.39,0.0,0.01
1629639699.09961796,104328252,-3.52,-3.46,-15.95,-15.68,97.22,97.61,0.0,0.01
1629639699.19957781,104428212,-3.02,-2.24,-16.13,-16.18,96.97,95.21,0.0,0.01
1629639699.29953790,104528172,-2.73,-1.42,-16.19,-16.44,96.72,93.4,0.0,0.01
1629639699.40033078,104628965,-2.65,-1.05,-16.17,-16.49,96.47,92.25,0.0,0.01
1629639699.50029087,104728925,-2.72,-1.09,-16.13,-16.42,96.22,91.76,0.0,0.01
1629639699.60025096,104828885,-2.92,-1.45,-16.12,-16.31,95.96,91.84,0.0,0.01
1629639699.70021081,104928845,-3.17,-2.02,-16.13,-16.23,95.69,92.35,0.0,0.01
1629639699.80017090,105028805,-3.41,-2.67,-16.16,-16.18,95.43,93.12,0.0,0.01
1629639699.90013099,105128765,-3.63,-3.31,-16.19,-16.15,95.16,94.0,0.0,0.01
1629639700.00009084,105228725,-3.82,-3.87,-16.21,-16.13,94.91,94.82,0.0,0.01
1629639700.10005093,105328685,-3.97,-4.32,-16.23,-16.12,94.66,95.49,0.0,0.01
1629639700.20001078,105428645,-4.07,-4.64,-16.25,-16.12,94.43,95.92,0.0,0.01
1629639700.29997087,105528605,-4.08,-4.77,-16.29,-16.13,94.2,96.08,0.0,0.01
1629639700.39993095,105628565,-4.0,-4.74,-16.35,-16.19,94.0,95.98,0.0,0.01
1629639700.49989080,105728525,-3.85,-4.54,-16.37,-16.24,93.8,95.65,0.0,0.01
1629639700.59985089,105828485,-3.67,-4.24,-16.41,-16.3,93.62,95.15,0.0,0.01
1629639700.69981098,105928445,-3.51,-3.89,-16.47,-16.38,93.45,94.55,0.0,0.01
1629639700.79977083,106028405,-3.39,-3.57,-16.54,-16.47,93.29,93.91,0.0,0.01
1629639700.89973092,106128365,-3.26,-3.29,-16.63,-16.58,93.14,93.31,0.0,0.01
1629639700.99969077,106228325,-3.16,-3.06,-16.72,-16.71,92.99,92.78,0.0,0.01
1629639701.09965086,106328285,-3.1,-2.9,-16.77,-16.81,92.84,92.35,0.0,0.01
1629639701.19961095,106428245,-3.06,-2.81,-16.81,-16.87,92.7,92.05,0.0,0.01
1629639701.29957080,106528205,-3.06,-2.79,-16.81,-16.89,92.56,91.85,0.0,0.01
1629639701.39953089,106628165,-3.08,-2.83,-16.8,-16.89,92.42,91.76,0.0,0.01
1629639701.50032377,106728958,-3.11,-2.92,-16.78,-16.85,92.28,91.75,0.0,0.01
1629639701.60028386,106828918,-3.15,-3.03,-16.77,-16.8,92.15,91.79,0.0,0.01
1629639701.70024395,106928878,-3.19,-3.14,-16.81,-16.79,92.02,91.86,0.0,0.01
1629639701.80020380,107028838,-3.24,-3.26,-16.87,-16.82,91.89,91.92,0.0,0.01
1629639701.90016389,107128798,-3.27,-3.36,-16.93,-16.87,91.76,91.96,0.0,0.01
1629639702.00012398,107228758,-3.28,-3.43,-16.97,-16.93,91.64,91.96,0.0,0.01
1629639702.10008383,107328718,-3.29,-3.45,-17.0,-16.98,91.52,91.92,0.0,0.01
1629639702.20004392,107428678,-3.29,-3.45,-17.03,-17.01,91.41,91.83,0.0,0.01
1629639702.30000377,107528638,-3.25,-3.42,-17.05,-17.04,91.3,91.7,0.0,0.01
1629639702.39996386,107628598,-3.19,-3.34,-17.06,-17.05,91.19,91.53,0.0,0.01
1629639702.49992394,107728558,-3.15,-3.26,-17.08,-17.07,91.09,91.36,0.0,0.01
1629639702.59988379,107828518,-3.13,-3.19,-17.1,-17.09,91.0,91.18,0.0,0.01
1629639702.69984388,107928478,-3.11,-3.14,-17.12,-17.11,90.91,91.0,0.0,0.01
1629639702.79980397,108028438,-3.1,-3.1,-17.16,-17.15,90.82,90.84,0.0,0.01
1629639702.89976382,108128398,-3.06,-3.06,-17.21,-17.2,90.73,90.7,0.0,0.01
1629639702.99972391,108228358,-3.04,-3.02,-17.25,-17.25,90.65,90.59,0.0,0.01
1629639703.09968400,108328318,-3.04,-3.01,-17.26,-17.29,90.57,90.49,0.0,0.01
1629639703.19964385,108428278,-3.0,-2.99,-17.29,-17.31,90.5,90.42,0.0,0.01
1629639703.29960394,108528238,-2.96,-2.96,-17.3,-17.32,90.42,90.37,0.0,0.01
1629639703.39956379,108628198,-2.95,-2.94,-17.3,-17.31,90.36,90.32,0.0,0.01
1629639703.49952388,108728158,-2.96,-2.94,-17.31,-17.32,90.29,90.29,0.0,0.01
1629639703.60031676,108828951,-2.97,-2.95,-17.29,-17.31,90.23,90.26,0.0,0.01
1629639703.70027685,108928911,-2.99,-2.98,-17.29,-17.3,90.17,90.23,0.0,0.01
1629639703.80023694,109028871,-3.0,-3.01,-17.29,-17.29,90.11,90.2,0.0,0.01
1629639703.90019679,109128831,-2.98,-3.02,-17.32,-17.3,90.05,90.16,0.0,0.01
1629639704.00015688,109228791,-2.95,-3.02,-17.34,-17.32,90.0,90.12,0.0,0.01
1629639704.10011697,109328751,-2.91,-2.99,-17.39,-17.36,89.95,90.07,0.0,0.01
1629639704.20007682,109428711,-2.87,-2.94,-17.44,-17.42,89.9,90.02,0.0,0.0
1629639704.30003691,109528671,-2.83,-2.89,-17.47,-17.46,89.85,89.96,0.0,0.0
1629639704.39999700,109628631,-2.81,-2.84,-17.45,-17.48,89.81,89.9,0.0,0.0
1629639704.49995685,109728591,-2.81,-2.81,-17.43,-17.46,89.77,89.84,0.0,0.0
1629639704.59991693,109828551,-2.81,-2.81,-17.44,-17.45,89.73,89.79,0.0,0.0
1629639704.69987679,109928511,-2.8,-2.81,-17.48,-17.47,89.69,89.74,0.0,0.0
1629639704.79983687,110028471,-2.8,-2.8,-17.53,-17.51,89.66,89.69,0.0,0.0
1629639704.89979696,110128431,-2.78,-2.79,-17.57,-17.56,89.62,89.66,0.0,0.0
1629639704.99975681,110228391,-2.76,-2.77,-17.63,-17.62,89.59,89.62,0.0,0.0
1629639705.09971690,110328351,-2.77,-2.77,-17.65,-17.67,89.55,89.59,0.0,0.0
1629639705.19967699,110428311,-2.78,-2.78,-17.65,-17.69,89.52,89.57,0.0,0.0
1629639705.29963684,110528271,-2.78,-2.79,-17.64,-17.68,89.49,89.54,0.0,0.0
1629639705.39959693,110628231,-2.78,-2.8,-17.64,-17.66,89.46,89.52,0.0,0.0
1629639705.49955678,110728191,-2.8,-2.82,-17.66,-17.66,89.43,89.49,0.0,0.0
1629639705.60034990,110828984,-2.81,-2.83,-17.67,-17.67,89.4,89.47,0.0,0.0
1629639705.70030999,110928944,-2.81,-2.84,-17.66,-17.67,89.37,89.45,0.0,0.0
1629639705.80026984,111028904,-2.81,-2.85,-17.64,-17.67,89.34,89.42,0.0,0.0
1629639705.90022993,111128864,-2.79,-2.83,-17.66,-17.68,89.32,89.39,0.0,0.0
1629639706.00018978,111228824,-2.77,-2.81,-17.67,-17.69,89.29,89.36,0.0,0.0
1629639706.10014987,111328784,-2.75,-2.79,-17.69,-17.7,89.27,89.33,0.0,0.0
1629639706.20010996,111428744,-2.74,-2.77,-17.69,-17.71,89.24,89.31,0.0,0.0
1629639706.30006981,111528704,-2.76,-2.77,-17.7,-17.71,89.22,89.28,0.0,0.0
1629639706.40002990,111628664,-2.78,-2.79,-17.7,-17.72,89.2,89.25,0.0,0.0
1629639706.49998999,111728624,-2.76,-2.78,-17.7,-17.72,89.18,89.23,0.0,0.0
1629639706.59994984,111828584,-2.73,-2.77,-17.7,-17.72,89.16,89.21,0.0,0.0
1629639706.69990993,111928544,-2.72,-2.75,-17.72,-17.73,89.14,89.19,0.0,0.0
1629639706.79986978,112028504,-2.72,-2.74,-17.75,-17.75,89.12,89.17,0.0,0.0
1629639706.89982986,112128464,-2.71,-2.74,-17.78,-17.77,89.11,89.16,0.0,0.0
1629639706.99978995,112228424,-2.69,-2.72,-17.78,-17.8,89.09,89.14,0.0,0.0
1629639707.09974980,112328384,-2.67,-2.69,-17.76,-17.79,89.08,89.13,0.0,0.0
1629639707.19970989,112428344,-2.65,-2.67,-17.77,-17.78,89.07,89.11,0.0,0.0
1629639707.29966998,112528304,-2.64,-2.65,-17.79,-17.78,89.06,89.1,0.0,0.0
1629639707.39962983,112628264,-2.65,-2.65,-17.81,-17.8,89.04,89.09,0.0,0.0
1629639707.49958992,112728224,-2.68,-2.67,-17.82,-17.82,89.03,89.08,0.0,0.0
1629639707.59954977,112828184,-2.69,-2.7,-17.82,-17.83,89.02,89.07,0.0,0.0
1629639707.70034289,112928977,-2.69,-2.7,-17.82,-17.83,89.01,89.06,0.0,0.0
1629639707.80030298,113028937,-2.67,-2.71,-17.81,-17.83,89.0,89.05,0.0,0.0
1629639707.90026283,113128897,-2.65,-2.69,-17.82,-17.83,88.99,89.04,0.0,0.0
1629639708.00022292,113228857,-2.63,-2.66,-17.82,-17.83,88.98,89.03,0.0,0.0
1629639708.10018277,113328817,-2.62,-2.64,-17.81,-17.82,88.98,89.02,0.0,0.0
1629639708.20014286,113428777,-2.64,-2.64,-17.81,-17.81,88.97,89.01,0.0,0.0
1629639708.30010295,113528737,-2.66,-2.66,-17.82,-17.81,88.96,89.01,0.0,0.0
1629639708.40006280,113628697,-2.68,-2.69,-17.82,-17.83,88.95,89.0,0.0,0.0
1629639708.50002289,113728657,-2.68,-2.71,-17.8,-17.82,88.95,88.99,0.0,0.0
1629639708.59998298,113828617,-2.66,-2.7,-17.8,-17.81,88.94,88.99,0.0,0.0
1629639708.69994283,113928577,-2.61,-2.66,-17.8,-17.8,88.93,88.99,0.0,0.0
1629639708.79990292,114028537,-2.58,-2.61,-17.79,-17.8,88.93,88.98,0.0,0.0
1629639708.89986277,114128497,-2.59,-2.6,-17.82,-17.81,88.92,88.98,0.0,0.0
1629639708.99982285,114228457,-2.57,-2.59,-17.86,-17.84,88.92,88.97,0.0,0.0
1629639709.09978294,114328417,-2.56,-2.59,-17.88,-17.88,88.92,88.97,0.0,0.0
1629639709.19974279,114428377,-2.55,-2.58,-17.9,-17.91,88.91,88.96,0.0,0.0
1629639709.29970288,114528337,-2.53,-2.57,-17.93,-17.94,88.91,88.96,0.0,0.0
1629639709.39966297,114628297,-2.53,-2.55,-17.94,-17.97,88.91,88.95,0.0,0.0
1629639709.49962282,114728257,-2.54,-2.55,-17.94,-17.96,88.91,88.95,0.0,0.0
1629639709.59958291,114828217,-2.57,-2.57,-17.92,-17.95,88.9,88.94,0.0,0.0
1629639709.69954300,114928177,-2.59,-2.6,-17.9,-17.92,88.9,88.94,0.0,0.0
1629639709.80033588,115028970,-2.6,-2.62,-17.88,-17.9,88.89,88.93,0.0,0.0
1629639709.90029597,115128930,-2.59,-2.63,-17.89,-17.88,88.89,88.93,0.0,0.0
1629639710.00025582,115228890,-2.58,-2.62,-17.91,-17.89,88.89,88.93,0.0,0.0
1629639710.10021591,115328850,-2.55,-2.59,-17.91,-17.9,88.88,88.92,0.0,0.0
1629639710.20017576,115428810,-2.52,-2.55,-17.92,-17.92,88.88,88.92,0.0,0.0
1629639710.30013585,115528770,-2.51,-2.53,-17.93,-17.93,88.88,88.91,0.0,0.0
1629639710.40009594,115628730,-2.54,-2.54,-17.95,-17.95,88.87,88.91,0.0,0.0
1629639710.50005579,115728690,-2.56,-2.56,-17.93,-17.95,88.87,88.91,0.0,0.0
1629639710.60001588,115828650,-2.56,-2.58,-17.92,-17.94,88.87,88.91,0.0,0.0
1629639710.69997597,115928610,-2.52,-2.57,-17.93,-17.93,88.87,88.9,0.0,0.0
1629639710.79993582,116028570,-2.51,-2.55,-17.93,-17.94,88.87,88.9,0.0,0.0
1629639710.89989591,116128530,-2.53,-2.55,-17.96,-17.95,88.86,88.9,0.0,0.0
1629639710.99985600,116228490,-2.52,-2.55,-17.99,-17.98,88.86,88.9,0.0,0.0
1629639711.09981585,116328450,-2.53,-2.55,-17.98,-18.0,88.86,88.9,0.0,0.0
1629639711.19977593,116428410,-2.55,-2.56,-17.96,-17.99,88.85,88.89,0.0,0.0
1629639711.29973578,116528370,-2.56,-2.58,-17.96,-17.97,88.85,88.89,0.0,0.0
1629639711.39969587,116628330,-2.54,-2.58,-17.96,-17.98,88.85,88.88,0.0,0.0
1629639711.49965596,116728290,-2.52,-2.55,-17.94,-17.97,88.85,88.88,0.0,0.0
1629639711.59961581,116828250,-2.52,-2.54,-17.93,-17.96,88.84,88.87,0.0,0.0
1629639711.69957590,116928210,-2.51,-2.53,-17.93,-17.94,88.84,88.87,0.0,0.0
1629639711.79953599,117028170,-2.51,-2.52,-17.95,-17.95,88.84,88.87,0.0,0.0
1629639711.90032887,117128963,-2.49,-2.51,-17.94,-17.95,88.84,88.86,0.0,0.0
1629639712.00028896,117228923,-2.48,-2.5,-17.94,-17.96,88.84,88.87,0.0,0.0
1629639712.10024881,117328883,-2.47,-2.49,-17.97,-17.97,88.84,88.87,0.0,0.0
1629639712.20020890,117428843,-2.47,-2.49,-17.99,-17.99,88.84,88.87,0.0,0.0
1629639712.30016899,117528803,-2.48,-2.49,-17.97,-17.99,88.84,88.87,0.0,0.0
1629639712.40012884,117628763,-2.49,-2.5,-17.95,-17.98,88.84,88.87,0.0,0.0
1629639712.50008893,117728723,-2.5,-2.51,-17.95,-17.97,88.84,88.87,0.0,0.0
1629639712.60004878,117828683,-2.52,-2.53,-17.96,-17.97,88.84,88.87,0.0,0.0
1629639712.70000887,117928643,-2.53,-2.55,-17.97,-17.98,88.83,88.87,0.0,0.0
1629639712.79996896,118028603,-2.53,-2.56,-17.98,-17.99,88.83,88.87,0.0,0.0
1629639712.89992881,118128563,-2.53,-2.56,-17.97,-17.99,88.83,88.87,0.0,0.0
1629639712.99988890,118228523,-2.51,-2.54,-17.95,-17.97,88.82,88.86,0.0,0.0
1629639713.09984899,118328483,-2.5,-2.52,-17.94,-17.95,88.82,88.85,0.0,0.0
1629639713.19980884,118428443,-2.48,-2.5,-17.94,-17.94,88.82,88.84,0.0,0.0
1629639713.29976892,118528403,-2.49,-2.48,-17.96,-17.95,88.81,88.84,0.0,0.0
1629639713.39972878,118628363,-2.5,-2.49,-17.99,-17.98,88.81,88.83,0.0,0.0
1629639713.49968886,118728323,-2.52,-2.51,-18.0,-18.0,88.81,88.83,0.0,0.0
1629639713.59964895,118828283,-2.54,-2.54,-17.99,-18.01,88.81,88.83,0.0,0.0
1629639713.69960880,118928243,-2.54,-2.56,-18.0,-18.01,88.8,88.83,0.0,0.0
1629639713.79956889,119028203,-2.55,-2.57,-18.02,-18.01,88.8,88.82,0.0,0.0
1629639713.89952898,119128163,-2.58,-2.59,-18.03,-18.02,88.79,88.82,0.0,0.0
1629639714.00032187,119228956,-2.6,-2.61,-18.04,-18.04,88.79,88.82,0.0,0.0
1629639714.10028195,119328916,-2.58,-2.62,-17.99,-18.03,88.79,88.81,0.0,0.0
1629639714.20024180,119428876,-2.53,-2.58,-17.96,-17.99,88.79,88.81,0.0,0.0
1629639714.30020189,119528836,-2.47,-2.51,-17.98,-17.97,88.79,88.8,0.0,0.0
1629639714.40016198,119628796,-2.46,-2.47,-18.0,-17.99,88.79,88.8,0.0,0.0
1629639714.50012183,119728756,-2.47,-2.47,-18.0,-18.01,88.78,88.8,0.0,0.0
1629639714.60008192,119828716,-2.48,-2.47,-17.96,-17.99,88.78,88.8,0.0,0.0
1629639714.70004177,119928676,-2.48,-2.48,-17.94,-17.97,88.78,88.8,0.0,0.0
1629639714.80000186,120028636,-2.46,-2.48,-17.94,-17.95,88.78,88.8,0.0,0.0
1629639714.89996195,120128596,-2.46,-2.48,-17.97,-17.96,88.78,88.8,0.0,0.0
1629639714.99992180,120228556,-2.48,-2.5,-18.01,-17.99,88.78,88.81,0.0,0.0
1629639715.09988189,120328516,-2.49,-2.51,-18.03,-18.02,88.78,88.81,0.0,0.0
1629639715.19984198,120428476,-2.46,-2.51,-18.02,-18.03,88.78,88.81,0.0,0.0
1629639715.29980183,120528436,-2.44,-2.48,-17.99,-18.02,88.78,88.81,0.0,0.0
1629639715.39976192,120628396,-2.41,-2.45,-17.98,-18.01,88.78,88.81,0.0,0.0
1629639715.49972177,120728356,-2.42,-2.43,-18.0,-18.01,88.78,88.81,0.0,0.0
1629639715.59968185,120828316,-2.44,-2.44,-18.01,-18.02,88.78,88.8,0.0,0.0
1629639715.69964194,120928276,-2.45,-2.46,-18.0,-18.02,88.78,88.8,0.0,0.0
1629639715.79960179,121028236,-2.43,-2.46,-18.01,-18.02,88.79,88.8,0.0,0.0
1629639715.89956188,121128196,-2.44,-2.44,-18.01,-18.02,88.79,88.79,0.0,0.0
1629639715.99952197,121228156,-2.46,-2.46,-17.99,-18.01,88.79,88.79,0.0,0.0
1629639716.10031486,121328949,-2.48,-2.49,-17.98,-18.0,88.79,88.79,0.0,0.0
1629639716.20027494,121428909,-2.49,-2.51,-17.97,-17.98,88.79,88.8,0.0,0.0
1629639716.30023479,121528869,-2.48,-2.51,-17.97,-17.98,88.79,88.8,0.0,0.0
1629639716.40019488,121628829,-2.45,-2.49,-17.97,-17.98,88.79,88.8,0.0,0.0
1629639716.50015497,121728789,-2.42,-2.45,-17.99,-17.99,88.79,88.81,0.0,0.0
1629639716.60011482,121828749,-2.4,-2.42,-18.01,-18.01,88.79,88.81,0.0,0.0
1629639716.70007491,121928709,-2.43,-2.42,-18.03,-18.03,88.79,88.81,0.0,0.0
1629639716.80003500,122028669,-2.43,-2.43,-18.05,-18.06,88.79,88.81,0.0,0.0
1629639716.89999485,122128629,-2.46,-2.45,-18.06,-18.07,88.79,88.81,0.0,0.0
1629639716.99995494,122228589,-2.49,-2.48,-18.06,-18.08,88.79,88.81,0.0,0.0
1629639717.09991479,122328549,-2.49,-2.5,-18.05,-18.08,88.79,88.8,0.0,0.0
1629639717.19987488,122428509,-2.46,-2.49,-18.01,-18.05,88.78,88.8,0.0,0.0
1629639717.29983497,122528469,-2.43,-2.47,-17.98,-18.0,88.78,88.8,0.0,0.0
1629639717.39979482,122628429,-2.41,-2.43,-17.99,-17.99,88.78,88.8,0.0,0.0
1629639717.49975491,122728389,-2.42,-2.42,-18.01,-18.0,88.78,88.8,0.0,0.0
1629639717.59971499,122828349,-2.44,-2.43,-18.04,-18.02,88.78,88.8,0.0,0.0
1629639717.69967484,122928309,-2.47,-2.46,-18.05,-18.05,88.78,88.8,0.0,0.0
1629639717.79963493,123028269,-2.52,-2.51,-18.06,-18.07,88.77,88.8,0.0,0.0
1629639717.89959478,123128229,-2.5,-2.54,-18.06,-18.08,88.77,88.8,0.0,0.0
1629639717.99955487,123228189,-2.47,-2.52,-18.04,-18.07,88.77,88.79,0.0,0.0
1629639718.10034800,123328982,-2.44,-2.48,-18.05,-18.06,88.77,88.79,0.0,0.0
1629639718.20030785,123428942,-2.42,-2.44,-18.05,-18.06,88.77,88.79,0.0,0.0
1629639718.30026793,123528902,-2.39,-2.41,-18.04,-18.05,88.77,88.78,0.0,0.0
1629639718.40022779,123628862,-2.35,-2.37,-18.05,-18.06,88.77,88.78,0.0,0.0
1629639718.50018787,123728822,-2.35,-2.35,-18.05,-18.06,88.77,88.78,0.0,0.0
1629639718.60014796,123828782,-2.39,-2.37,-18.04,-18.05,88.77,88.78,0.0,0.0
1629639718.70010781,123928742,-2.42,-2.41,-18.03,-18.04,88.78,88.78,0.0,0.0
1629639718.80006790,124028702,-2.45,-2.45,-18.03,-18.04,88.78,88.78,0.0,0.0
1629639718.90002799,124128662,-2.45,-2.47,-18.01,-18.04,88.78,88.79,0.0,0.0
1629639718.99998784,124228622,-2.43,-2.48,-18.02,-18.03,88.78,88.79,0.0,0.0
1629639719.09994793,124328582,-2.42,-2.47,-18.05,-18.04,88.78,88.79,0.0,0.0
1629639719.19990778,124428542,-2.43,-2.46,-18.05,-18.05,88.78,88.8,0.0,0.0
1629639719.29986787,124528502,-2.41,-2.44,-18.03,-18.04,88.78,88.8,0.0,0.0
1629639719.39982796,124628462,-2.4,-2.42,-18.01,-18.03,88.78,88.8,0.0,0.0
1629639719.49978781,124728422,-2.37,-2.4,-18.0,-18.02,88.78,88.8,0.0,0.0
1629639719.59974790,124828382,-2.33,-2.36,-18.01,-18.01,88.78,88.8,0.0,0.0
1629639719.69970798,124928342,-2.32,-2.33,-18.0,-18.01,88.78,88.79,0.0,0.0
1629639719.79966784,125028302,-2.33,-2.31,-18.0,-18.01,88.78,88.79,0.0,0.0
1629639719.89962792,125128262,-2.35,-2.32,-18.0,-18.01,88.79,88.79,0.0,0.0
1629639719.99958777,125228222,-2.36,-2.34,-18.01,-18.01,88.79,88.79,0.0,0.0
1629639720.09954786,125328182,-2.38,-2.37,-18.01,-18.02,88.79,88.8,0.0,0.0
1629639720.20034099,125428975,-2.4,-2.4,-18.0,-18.02,88.79,88.8,0.0,0.0
1629639720.30030084,125528935,-2.41,-2.43,-17.98,-18.0,88.79,88.8,0.0,0.0
1629639720.40026093,125628895,-2.4,-2.43,-17.96,-17.98,88.79,88.8,0.0,0.0
1629639720.50022078,125728855,-2.36,-2.39,-17.95,-17.97,88.79,88.8,0.0,0.0
1629639720.60018086,125828815,-2.35,-2.35,-17.95,-17.96,88.79,88.8,0.0,0.0
1629639720.70014095,125928775,-2.34,-2.33,-17.97,-17.96,88.79,88.8,0.0,0.0
1629639720.80010080,126028735,-2.35,-2.33,-17.99,-17.98,88.79,88.8,0.0,0.0
1629639720.90006089,126128695,-2.36,-2.34,-18.0,-18.0,88.79,88.8,0.0,0.0
1629639721.00002098,126228655,-2.36,-2.35,-18.0,-18.01,88.78,88.8,0.0,0.0
1629639721.09998083,126328615,-2.36,-2.36,-18.0,-18.01,88.78,88.79,0.0,0.0
1629639721.19994092,126428575,-2.37,-2.38,-18.0,-18.02,88.78,88.79,0.0,0.0
1629639721.29990077,126528535,-2.4,-2.39,-18.02,-18.02,88.78,88.78,0.0,0.0
1629639721.39986086,126628495,-2.44,-2.44,-18.05,-18.06,88.77,88.78,0.0,0.0
1629639721.49982095,126728455,-2.44,-2.47,-18.07,-18.08,88.77,88.78,0.0,0.0
1629639721.59978080,126828415,-2.41,-2.46,-18.06,-18.09,88.76,88.78,0.0,0.0
1629639721.69974089,126928375,-2.39,-2.43,-18.06,-18.09,88.76,88.77,0.0,0.0
1629639721.79970098,127028335,-2.37,-2.4,-18.07,-18.08,88.76,88.76,0.0,0.0
1629639721.89966083,127128295,-2.37,-2.38,-18.09,-18.09,88.75,88.76,0.0,0.0
1629639721.99962091,127228255,-2.41,-2.39,-18.1,-18.11,88.75,88.76,0.0,0.0
1629639722.09958076,127328215,-2.43,-2.42,-18.1,-18.12,88.75,88.75,0.0,0.0
1629639722.19954085,127428175,-2.42,-2.44,-18.06,-18.11,88.74,88.75,0.0,0.0
1629639722.30033398,127528968,-2.41,-2.44,-18.02,-18.07,88.74,88.74,0.0,0.0
1629639722.40029383,127628928,-2.41,-2.44,-18.0,-18.03,88.74,88.74,0.0,0.0
1629639722.50025392,127728888,-2.41,-2.44,-18.0,-18.0,88.74,88.73,0.0,0.0
1629639722.60021377,127828848,-2.41,-2.43,-18.03,-18.01,88.74,88.74,0.0,0.0
1629639722.70017385,127928808,-2.41,-2.43,-18.05,-18.04,88.74,88.74,0.0,0.0
1629639722.80013394,128028768,-2.4,-2.42,-18.04,-18.06,88.74,88.74,0.0,0.0
1629639722.90009379,128128728,-2.4,-2.41,-18.04,-18.05,88.73,88.74,0.0,0.0
1629639723.00005388,128228688,-2.4,-2.41,-18.06,-18.06,88.73,88.75,0.0,0.0
1629639723.10001397,128328648,-2.41,-2.41,-18.05,-18.07,88.73,88.75,0.0,0.01
1629639723.19997382,128428608,-2.41,-2.42,-18.06,-18.07,88.73,88.74,0.0,0.01
1629639723.29993391,128528568,-2.39,-2.41,-18.05,-18.07,88.73,88.74,0.0,0.01
1629639723.39989400,128628528,-2.38,-2.39,-18.02,-18.04,88.73,88.74,0.0,0.01
1629639723.49985385,128728488,-2.35,-2.37,-17.99,-18.01,88.73,88.73,0.0,0.01
1629639723.59981394,128828448,-2.32,-2.34,-17.96,-17.97,88.73,88.73,0.0,0.01
1629639723.69977379,128928408,-2.3,-2.31,-17.96,-17.96,88.74,88.73,0.0,0.01
1629639723.79973388,129028368,-2.33,-2.31,-17.96,-17.95,88.74,88.73,0.0,0.01
1629639723.89969397,129128328,-2.36,-2.34,-17.97,-17.96,88.74,88.73,0.0,0.01
1629639723.99965382,129228288,-2.36,-2.36,-17.99,-17.98,88.74,88.74,0.0,0.01
1629639724.09961390,129328248,-2.37,-2.38,-17.98,-17.99,88.74,88.74,0.0,0.01
1629639724.19957399,129428208,-2.37,-2.39,-17.97,-17.99,88.74,88.75,0.0,0.01
1629639724.29953384,129528168,-2.37,-2.39,-17.99,-18.01,88.74,88.75,0.0,0.01
1629639724.40032697,129628961,-2.36,-2.39,-18.01,-18.03,88.75,88.75,0.0,0.01
1629639724.50028682,129728921,-2.34,-2.36,-18.02,-18.03,88.75,88.75,0.0,0.01
1629639724.60024691,129828881,-2.35,-2.34,-18.02,-18.04,88.75,88.76,0.0,0.01
1629639724.70020700,129928841,-2.38,-2.36,-18.02,-18.05,88.75,88.76,0.0,0.01
1629639724.80016685,130028801,-2.42,-2.41,-18.03,-18.05,88.75,88.76,0.0,0.01
1629639724.90012693,130128761,-2.4,-2.44,-18.02,-18.05,88.75,88.76,0.0,0.01
1629639725.00008678,130228721,-2.37,-2.42,-18.02,-18.04,88.75,88.76,0.0,0.01
1629639725.10004687,130328681,-2.37,-2.4,-18.02,-18.03,88.75,88.76,0.0,0.01
1629639725.20000696,130428641,-2.36,-2.38,-18.02,-18.02,88.75,88.76,0.0,0.01
1629639725.29996681,130528601,-2.36,-2.38,-18.03,-18.03,88.75,88.76,0.0,0.01
1629639725.39992690,130628561,-2.38,-2.39,-18.06,-18.05,88.75,88.76,0.0,0.01
1629639725.49988699,130728521,-2.4,-2.4,-18.07,-18.07,88.75,88.76,0.0,0.01
1629639725.59984684,130828481,-2.41,-2.42,-18.07,-18.08,88.75,88.76,0.0,0.01
1629639725.69980693,130928441,-2.4,-2.43,-18.06,-18.09,88.75,88.75,0.0,0.01
1629639725.79976678,131028401,-2.39,-2.43,-18.04,-18.08,88.75,88.75,0.0,0.01
1629639725.89972687,131128361,-2.37,-2.41,-18.0,-18.04,88.75,88.75,0.0,0.01
1629639725.99968696,131228321,-2.38,-2.4,-17.98,-18.0,88.76,88.75,0.0,0.01
1629639726.09964681,131328281,-2.39,-2.39,-17.98,-17.98,88.76,88.75,0.0,0.01
1629639726.19960690,131428241,-2.43,-2.41,-18.01,-17.99,88.76,88.75,0.0,0.01
1629639726.29956698,131528201,-2.42,-2.42,-18.07,-18.04,88.76,88.75,0.0,0.01
