timestamp,TimeUS,DesRoll,Roll,DesPitch,Pitch,DesYaw,Yaw,ErrRP,ErrYaw
1629642234.20000005,43028615,0.0,0.1,0.0,0.08,352.87,352.88,0.0,0.0
1629642234.29996014,43128575,0.0,0.1,0.0,0.08,352.87,352.88,0.0,0.0
1629642234.39991999,43228535,0.0,0.1,0.0,0.08,352.87,352.88,0.0,0.0
1629642234.49988008,43328495,0.0,0.1,0.0,0.08,352.87,352.88,0.0,0.0
1629642234.59984016,43428455,0.0,0.1,0.0,0.08,352.87,352.88,0.0,0.0
1629642234.69980001,43528415,0.0,0.1,0.0,0.08,352.87,352.88,0.0,0.0
1629642234.79976010,43628375,0.0,0.1,0.0,0.08,352.87,352.88,0.0,0.0
1629642234.89971995,43728335,0.0,0.1,0.0,0.08,352.87,352.88,0.0,0.0
1629642234.99968004,43828295,0.0,0.1,0.0,0.08,352.87,352.88,0.0,0.0
1629642235.09964013,43928255,0.0,0.1,0.0,0.08,352.87,352.88,0.0,0.0
1629642235.19959998,44028215,0.0,0.1,0.0,0.08,352.87,352.88,0.0,0.0
1629642235.29956007,44128175,0.0,0.1,0.0,0.08,352.87,352.88,0.0,0.0
1629642235.40035295,44228968,0.0,0.09,0.0,0.08,352.87,352.88,0.0,0.0
1629642235.50031304,44328928,0.0,0.09,0.0,0.08,352.87,352.88,0.0,0.0
1629642235.60027313,44428888,0.0,0.09,0.0,0.07,352.87,352.88,0.0,0.0
1629642235.70023298,44528848,0.0,0.09,0.0,0.07,352.87,352.88,0.0,0.0
1629642235.80019307,44628808,0.0,0.09,0.0,0.07,352.87,352.88,0.0,0.0
1629642235.90015316,44728768,0.0,0.09,0.0,0.07,352.87,352.88,0.0,0.0
1629642236.00011301,44828728,0.0,0.09,0.0,0.07,352.87,352.88,0.0,0.0
1629642236.10007310,44928688,0.0,0.09,0.0,0.07,352.87,352.88,0.0,0.0
1629642236.20003295,45028648,0.0,0.09,0.0,0.07,352.87,352.88,0.0,0.0
1629642236.29999304,45128608,0.0,0.09,0.0,0.07,352.87,352.88,0.0,0.0
1629642236.39995313,45228568,0.0,0.09,0.0,0.07,352.87,352.88,0.0,0.0
1629642236.49991298,45328528,0.0,0.09,0.0,0.07,352.87,352.88,0.0,0.0
1629642236.59987307,45428488,0.0,0.09,0.0,0.07,352.87,352.88,0.0,0.0
1629642236.69983315,45528448,0.0,0.09,0.0,0.07,352.87,352.88,0.0,0.0
1629642236.79979300,45628408,0.0,0.08,0.0,0.07,352.87,352.88,0.0,0.0
1629642236.89975309,45728368,0.0,0.08,0.0,0.07,352.87,352.88,0.0,0.0
1629642236.99971294,45828328,0.0,0.08,0.0,0.07,352.87,352.88,0.0,0.0
1629642237.09967303,45928288,0.0,0.08,0.0,0.07,352.87,352.88,0.0,0.0
1629642237.19963312,46028248,0.0,0.08,0.0,0.07,352.87,352.88,0.0,0.0
1629642237.29959297,46128208,-0.06,0.08,-0.06,0.07,352.87,352.88,0.0,0.0
1629642237.39955306,46228168,-0.03,0.08,-0.04,0.07,352.87,352.88,0.0,0.0
1629642237.50034595,46328961,-0.08,0.08,-0.09,0.07,352.87,352.88,0.0,0.0
1629642237.60030603,46428921,-0.13,0.08,-0.14,0.07,352.87,352.88,0.0,0.0
1629642237.70026612,46528881,-0.17,0.08,-0.18,0.07,352.87,352.88,0.0,0.0
1629642237.80022597,46628841,-0.2,0.08,-0.22,0.07,352.87,352.88,0.0,0.0
1629642237.90018606,46728801,-0.22,0.08,-0.24,0.06,352.87,352.88,0.0,0.0
1629642238.00014615,46828761,-0.26,0.08,-0.25,0.06,352.87,352.88,0.0,0.0
1629642238.10010600,46928721,-0.26,0.08,-0.26,0.06,352.87,352.88,0.0,0.0
1629642238.20006609,47028681,-0.25,0.08,-0.25,0.06,352.87,352.88,0.0,0.0
1629642238.30002594,47128641,-0.27,0.08,-0.26,0.06,352.87,352.88,0.0,0.0
1629642238.39998603,47228601,-0.27,0.08,-0.27,0.06,352.87,352.88,0.0,0.0
1629642238.49994612,47328561,0.09,0.08,-1.44,0.06,352.87,352.88,0.0,0.0
1629642238.59990597,47428521,1.79,0.08,-11.94,0.06,352.87,352.88,0.0,0.0
1629642238.69986606,47528481,2.45,0.08,-20.68,0.06,352.86,352.88,0.0,0.0
1629642238.79982615,47628441,2.49,0.18,-22.42,-1.03,352.86,352.9,0.0,0.0
1629642238.89978600,47728401,2.42,0.83,-22.55,-8.05,352.86,352.92,0.0,0.0
1629642238.99974608,47828361,2.3,1.58,-21.59,-16.12,352.86,352.88,0.0,0.0
1629642239.09970593,47928321,2.12,2.11,-19.3,-21.25,352.86,352.85,0.0,0.01
1629642239.19966602,48028281,1.82,2.26,-15.66,-22.31,352.86,352.91,0.0,0.01
1629642239.29962611,48128241,1.37,2.02,-10.93,-19.72,352.86,353.07,0.0,0.01
1629642239.39958596,48228201,0.88,1.53,-5.98,-14.69,352.86,353.21,0.0,0.01
1629642239.49954605,48328161,0.46,0.97,-1.91,-8.94,352.86,353.25,0.0,0.01
1629642239.60033894,48428954,0.19,0.51,0.64,-4.09,352.86,353.18,0.0,0.02
1629642239.70029902,48528914,0.08,0.22,1.74,-1.07,352.86,353.05,0.0,0.02
1629642239.80025911,48628874,0.03,0.1,1.98,0.16,352.86,352.9,0.0,0.02
1629642239.90021896,48728834,0.0,0.09,2.03,0.29,352.86,352.78,0.01,0.01
1629642240.00017905,48828794,-0.03,0.1,2.21,0.09,352.86,352.68,0.01,0.01
1629642240.10013914,48928754,-0.09,0.09,2.63,0.07,352.86,352.62,0.01,0.01
1629642240.20009899,49028714,-0.14,0.05,3.26,0.44,352.86,352.6,0.01,0.01
1629642240.30005908,49128674,-0.2,0.0,3.97,1.18,352.86,352.61,0.01,0.0
1629642240.40001917,49228634,-0.26,-0.07,4.6,2.07,352.86,352.65,0.01,0.0
1629642240.49997902,49328594,-0.33,-0.14,5.03,2.89,352.79,352.63,0.0,0.0
1629642240.59993911,49428554,-0.39,-0.22,5.16,3.45,352.79,352.69,0.0,0.0
1629642240.69989896,49528514,-0.4,-0.29,5.08,3.7,352.79,352.76,0.0,0.0
1629642240.79985905,49628474,-0.4,-0.32,4.88,3.67,352.79,352.82,0.0,0.0
1629642240.89981914,49728434,-0.39,-0.31,4.67,3.51,352.79,352.88,0.0,0.0
1629642240.99977899,49828394,-0.4,-0.3,4.51,3.35,352.79,352.91,0.0,0.0
1629642241.09973907,49928354,-0.39,-0.29,4.37,3.24,352.79,352.93,0.0,0.0
1629642241.19969916,50028314,-0.36,-0.27,4.19,3.14,352.79,352.94,0.0,0.0
1629642241.29965901,50128274,-0.33,-0.25,3.94,3.01,352.79,352.93,0.0,0.0
1629642241.39961910,50228234,-0.32,-0.24,3.67,2.83,352.79,352.91,0.0,0.0
1629642241.49957895,50328194,-0.29,-0.22,3.37,2.62,352.79,352.88,0.0,0.0
1629642241.59953904,50428154,-0.27,-0.21,3.05,2.36,352.79,352.85,0.0,0.0
1629642241.70033216,50528947,-0.24,-0.19,2.74,2.09,352.79,352.82,0.0,0.0
1629642241.80029202,50628907,-0.23,-0.18,2.48,1.84,352.79,352.8,0.0,0.0
1629642241.90025210,50728867,-0.2,-0.16,2.26,1.65,352.79,352.78,0.0,0.0
1629642242.00021195,50828827,-0.17,-0.14,2.09,1.51,352.79,352.77,0.0,0.0
1629642242.10017204,50928787,-0.1,-0.09,1.92,1.41,352.79,352.76,0.0,0.0
1629642242.20013213,51028747,-0.05,-0.03,1.7,1.28,352.79,352.77,0.0,0.0
1629642242.30009198,51128707,-0.02,0.01,1.46,1.1,352.79,352.77,0.0,0.0
1629642242.40005207,51228667,0.01,0.05,1.23,0.9,352.79,352.78,0.0,0.0
1629642242.50001216,51328627,0.06,0.09,1.05,0.74,352.79,352.79,0.0,0.0
1629642242.59997201,51428587,0.06,0.11,0.9,0.59,352.79,352.81,0.0,0.0
1629642242.69993210,51528547,0.04,0.09,0.79,0.49,352.79,352.82,0.0,0.0
1629642242.79989195,51628507,0.03,0.07,0.66,0.41,352.79,352.83,0.0,0.0
1629642242.89985204,51728467,0.02,0.03,0.52,0.31,352.79,352.83,0.0,0.0
1629642242.99981213,51828427,0.02,0.01,0.4,0.21,352.79,352.84,0.0,0.0
1629642243.09977198,51928387,0.03,0.02,0.31,0.11,352.79,352.84,0.0,0.0
1629642243.19973207,52028347,0.05,0.03,0.24,0.05,352.79,352.83,0.0,0.0
1629642243.29969215,52128307,0.06,0.05,0.16,0.0,352.79,352.83,0.0,0.0
1629642243.39965200,52228267,0.05,0.05,0.08,-0.04,352.79,352.82,0.0,0.0
1629642243.49961209,52328227,0.08,0.06,0.02,-0.1,352.79,352.81,0.0,0.0
1629642243.59957194,52428187,0.12,0.09,-0.02,-0.13,352.79,352.81,0.0,0.0
1629642243.70036507,52528980,0.14,0.13,-0.06,-0.15,352.79,352.8,0.0,0.0
1629642243.80032516,52628940,0.13,0.15,-0.11,-0.18,352.79,352.8,0.0,0.0
1629642243.90028501,52728900,0.12,0.14,-0.12,-0.2,352.79,352.79,0.0,0.0
1629642244.00024509,52828860,0.13,0.13,-0.11,-0.19,352.79,352.79,0.0,0.0
1629642244.10020494,52928820,0.12,0.13,-0.07,-0.15,352.79,352.79,0.0,0.0
1629642244.20016503,53028780,0.11,0.12,-0.04,-0.1,352.79,352.8,0.0,0.0
1629642244.30012512,53128740,0.11,0.11,-0.06,-0.08,352.79,352.8,0.0,0.0
1629642244.40008497,53228700,0.1,0.1,-0.08,-0.09,352.79,352.8,0.0,0.0
1629642244.50004506,53328660,0.1,0.09,-0.11,-0.13,352.79,352.8,0.0,0.0
1629642244.60000515,53428620,0.11,0.1,-0.13,-0.17,352.79,352.81,0.0,0.0
1629642244.69996500,53528580,0.13,0.11,-0.1,-0.17,352.79,352.81,0.0,0.0
1629642244.79992509,53628540,0.13,0.12,-0.04,-0.12,352.79,352.81,0.0,0.0
1629642244.89988494,53728500,0.17,0.14,-0.01,-0.06,352.79,352.81,0.0,0.0
1629642244.99984503,53828460,0.2,0.17,0.03,0.0,352.79,352.81,0.0,0.0
1629642245.09980512,53928420,0.21,0.2,0.03,0.03,352.79,352.81,0.0,0.0
1629642245.19976497,54028380,0.21,0.2,0.02,0.02,352.79,352.8,0.0,0.0
1629642245.29972506,54128340,0.16,0.19,0.0,0.01,352.79,352.8,0.0,0.0
1629642245.39968514,54228300,0.11,0.13,-0.03,-0.01,352.79,352.8,0.0,0.0
1629642245.49964499,54328260,0.07,0.08,-0.04,-0.04,352.79,352.8,0.0,0.0
1629642245.59960508,54428220,0.07,0.05,0.0,-0.04,352.79,352.8,0.0,0.0
1629642245.69956493,54528180,0.1,0.06,0.05,0.0,352.79,352.8,0.0,0.0
1629642245.80035806,54628973,0.11,0.08,0.07,0.04,352.79,352.8,0.0,0.0
1629642245.90031815,54728933,0.12,0.1,0.05,0.05,352.79,352.8,0.0,0.0
1629642246.00027800,54828893,0.15,0.13,0.04,0.04,352.79,352.8,0.0,0.0
1629642246.10023808,54928853,0.15,0.15,0.03,0.03,352.79,352.8,0.0,0.0
1629642246.20019794,55028813,0.13,0.15,0.03,0.03,352.79,352.8,0.0,0.0
1629642246.30015802,55128773,0.08,0.12,0.04,0.03,352.79,352.8,0.0,0.0
1629642246.40011811,55228733,0.04,0.07,0.02,0.03,352.79,352.8,0.0,0.0
1629642246.50007796,55328693,0.03,0.03,0.05,0.04,352.79,352.8,0.0,0.0
1629642246.60003805,55428653,0.05,0.02,0.11,0.09,352.79,352.8,0.0,0.0
1629642246.69999814,55528613,0.09,0.06,0.11,0.12,352.79,352.79,0.0,0.0
1629642246.79995799,55628573,0.11,0.1,0.1,0.12,352.79,352.79,0.0,0.0
1629642246.89991808,55728533,0.1,0.11,0.08,0.11,352.79,352.78,0.0,0.0
1629642246.99987817,55828493,0.07,0.08,0.06,0.08,352.79,352.78,0.0,0.0
1629642247.09983802,55928453,0.07,0.06,0.06,0.05,352.79,352.78,0.0,0.0
1629642247.19979811,56028413,0.08,0.07,0.06,0.03,352.79,352.78,0.0,0.0
1629642247.29975796,56128373,0.08,0.07,0.07,0.03,352.79,352.78,0.0,0.0
1629642247.39971805,56228333,0.09,0.07,0.05,0.03,352.79,352.79,0.0,0.0
1629642247.49967813,56328293,0.08,0.07,0.04,0.03,352.79,352.79,0.0,0.0
1629642247.59963799,56428253,0.07,0.06,0.06,0.04,352.79,352.8,0.0,0.0
1629642247.69959807,56528213,0.07,0.05,0.07,0.06,352.79,352.8,0.0,0.0
1629642247.79955816,56628173,0.09,0.07,0.06,0.06,352.79,352.8,0.0,0.0
1629642247.90035105,56728966,0.11,0.09,0.04,0.05,352.79,352.81,0.0,0.0
1629642248.00031114,56828926,0.11,0.11,0.02,0.05,352.79,352.81,0.0,0.0
1629642248.10027099,56928886,0.09,0.11,0.03,0.04,352.79,352.81,0.0,0.0
1629642248.20023108,57028846,0.07,0.08,0.04,0.04,352.79,352.81,0.0,0.0
1629642248.30019116,57128806,0.05,0.07,0.06,0.04,352.79,352.81,0.0,0.0
1629642248.40015101,57228766,0.05,0.05,0.07,0.05,352.79,352.81,0.0,0.0
1629642248.50011110,57328726,0.06,0.05,0.1,0.07,352.79,352.81,0.0,0.0
1629642248.60007095,57428686,0.06,0.05,0.13,0.11,352.79,352.8,0.0,0.0
1629642248.70003104,57528646,0.04,0.03,0.15,0.14,352.79,352.8,0.0,0.0
1629642248.79999113,57628606,0.03,0.02,0.13,0.15,352.79,352.8,0.0,0.0
1629642248.89995098,57728566,0.08,0.04,0.14,0.15,352.79,352.8,0.0,0.0
1629642248.99991107,57828526,0.1,0.08,0.15,0.15,352.79,352.8,0.0,0.0
1629642249.09987116,57928486,0.1,0.1,0.14,0.14,352.79,352.8,0.0,0.0
1629642249.19983101,58028446,0.09,0.1,0.12,0.12,352.79,352.8,0.0,0.0
1629642249.29979110,58128406,0.06,0.08,0.09,0.09,352.79,352.8,0.0,0.0
1629642249.39975095,58228366,0.04,0.05,0.08,0.06,352.79,352.8,0.0,0.0
1629642249.49971104,58328326,0.02,0.02,0.08,0.05,352.79,352.8,0.0,0.0
1629642249.59967113,58428286,0.03,0.01,0.09,0.06,352.79,352.8,0.0,0.0
1629642249.69963098,58528246,0.05,0.03,0.09,0.08,352.79,352.8,0.0,0.0
1629642249.79959106,58628206,0.05,0.04,0.09,0.08,352.79,352.8,0.0,0.0
1629642249.89955115,58728166,0.07,0.04,0.11,0.08,352.79,352.8,0.0,0.0
1629642250.00034404,58828959,0.06,0.05,0.11,0.08,352.79,352.8,0.0,0.0
1629642250.10030413,58928919,0.08,0.06,0.08,0.07,352.79,352.8,0.0,0.0
1629642250.20026398,59028879,0.1,0.08,0.04,0.06,352.79,352.8,0.0,0.0
1629642250.30022407,59128839,0.13,0.11,0.02,0.05,352.79,352.79,0.0,0.0
1629642250.40018415,59228799,0.14,0.13,0.0,0.02,352.79,352.79,0.0,0.0
1629642250.50014400,59328759,0.15,0.15,0.02,0.0,352.79,352.79,0.0,0.0
1629642250.60010409,59428719,0.15,0.17,0.04,0.0,352.79,352.79,0.0,0.0
1629642250.70006394,59528679,0.14,0.16,0.04,0.02,352.79,352.8,0.0,0.0
1629642250.80002403,59628639,0.12,0.14,0.05,0.03,352.79,352.8,0.0,0.0
1629642250.89998412,59728599,0.08,0.11,0.04,0.03,352.79,352.8,0.0,0.0
1629642250.99994397,59828559,0.06,0.06,0.04,0.03,352.79,352.8,0.0,0.0
1629642251.09990406,59928519,0.06,0.03,0.03,0.02,352.79,352.8,0.0,0.0
1629642251.19986415,60028479,0.09,0.05,0.02,0.02,352.79,352.8,0.0,0.0
1629642251.29982400,60128439,0.09,0.07,0.0,0.02,352.79,352.8,0.0,0.0
1629642251.39978409,60228399,0.1,0.08,0.03,0.02,352.79,352.8,0.0,0.0
1629642251.49974394,60328359,0.09,0.09,0.06,0.05,352.79,352.8,0.0,0.0
1629642251.59970403,60428319,0.09,0.08,0.08,0.07,352.79,352.8,0.0,0.0
1629642251.69966412,60528279,0.08,0.08,0.08,0.1,352.79,352.8,0.0,0.0
1629642251.79962397,60628239,0.07,0.08,0.06,0.09,352.79,352.8,0.0,0.0
1629642251.89958405,60728199,0.09,0.07,0.03,0.06,352.79,352.8,0.0,0.0
1629642251.99954414,60828159,0.12,0.08,0.04,0.04,352.79,352.8,0.0,0.0
1629642252.10033703,60928952,0.13,0.11,0.02,0.02,352.79,352.8,0.0,0.0
1629642252.20029712,61028912,0.1,0.11,0.01,0.0,352.79,352.79,0.0,0.0
1629642252.30025697,61128872,0.08,0.09,0.03,0.01,352.79,352.79,0.0,0.0
1629642252.40021706,61228832,0.09,0.09,0.06,0.04,352.79,352.79,0.0,0.0
1629642252.50017715,61328792,0.12,0.11,0.08,0.06,352.79,352.8,0.0,0.0
1629642252.60013700,61428752,0.13,0.13,0.09,0.08,352.79,352.8,0.0,0.0
1629642252.70009708,61528712,0.11,0.12,0.09,0.09,352.79,352.8,0.0,0.0
1629642252.80005693,61628672,0.11,0.11,0.08,0.09,352.79,352.8,0.0,0.0
1629642252.90001702,61728632,0.12,0.13,0.1,0.09,352.79,352.8,0.0,0.0
1629642252.99997711,61828592,0.12,0.13,0.12,0.11,352.79,352.8,0.0,0.0
1629642253.09993696,61928552,0.14,0.14,0.1,0.11,352.79,352.8,0.0,0.0
1629642253.19989705,62028512,0.13,0.14,0.05,0.07,352.79,352.8,0.0,0.0
1629642253.29985714,62128472,0.1,0.12,0.03,0.02,352.79,352.79,0.0,0.0
1629642253.39981699,62228432,0.1,0.1,0.05,0.01,352.79,352.79,0.0,0.0
1629642253.49977708,62328392,0.13,0.11,0.08,0.04,352.79,352.79,0.0,0.0
1629642253.59973717,62428352,0.15,0.13,0.11,0.08,352.79,352.79,0.0,0.0
1629642253.69969702,62528312,0.14,0.14,0.13,0.12,352.79,352.79,0.0,0.0
1629642253.79965711,62628272,0.12,0.13,0.12,0.13,352.79,352.79,0.0,0.0
1629642253.89961696,62728232,0.07,0.09,0.09,0.11,352.79,352.79,0.0,0.0
1629642253.99957705,62828192,0.06,0.06,0.07,0.07,352.79,352.8,0.0,0.0
1629642254.10037017,62928985,0.06,0.05,0.07,0.06,352.79,352.8,0.0,0.0
1629642254.20033002,63028945,0.07,0.05,0.07,0.05,352.79,352.8,0.0,0.0
1629642254.30029011,63128905,0.05,0.05,0.09,0.07,352.79,352.8,0.0,0.0
1629642254.40024996,63228865,0.05,0.05,0.1,0.09,352.79,352.8,0.0,0.0
1629642254.50021005,63328825,0.02,0.03,0.15,0.12,352.79,352.81,0.0,0.0
1629642254.60017014,63428785,0.03,0.02,0.19,0.18,352.79,352.81,0.0,0.0
1629642254.70012999,63528745,0.05,0.04,0.19,0.21,352.79,352.8,0.0,0.0
1629642254.80009007,63628705,0.06,0.04,0.18,0.2,352.79,352.8,0.0,0.0
1629642254.90005016,63728665,0.09,0.06,0.17,0.18,352.79,352.8,0.0,0.0
1629642255.00001001,63828625,0.1,0.08,0.15,0.16,352.79,352.8,0.0,0.0
1629642255.09997010,63928585,0.11,0.1,0.14,0.14,352.79,352.8,0.0,0.0
1629642255.19992995,64028545,0.1,0.1,0.12,0.12,352.79,352.8,0.0,0.0
1629642255.29989004,64128505,0.1,0.09,0.14,0.11,352.79,352.8,0.0,0.0
1629642255.39985013,64228465,0.09,0.09,0.13,0.11,352.79,352.79,0.0,0.0
1629642255.49980998,64328425,0.08,0.08,0.1,0.09,352.79,352.79,0.0,0.0
1629642255.59977007,64428385,0.08,0.07,0.08,0.07,352.79,352.79,0.0,0.0
1629642255.69973016,64528345,0.08,0.07,0.08,0.06,352.79,352.79,0.0,0.0
1629642255.79969001,64628305,0.11,0.08,0.08,0.06,352.79,352.79,0.0,0.0
1629642255.89965010,64728265,0.13,0.12,0.08,0.07,352.79,352.8,0.0,0.0
1629642255.99960995,64828225,0.12,0.12,0.07,0.07,352.79,352.8,0.0,0.0
1629642256.09957004,64928185,0.14,0.13,0.06,0.06,352.79,352.8,0.0,0.0
1629642256.20036316,65028978,0.15,0.13,0.07,0.06,352.79,352.8,0.0,0.0
1629642256.30032301,65128938,0.16,0.13,0.08,0.07,352.79,352.8,0.0,0.0
1629642256.40028310,65228898,0.19,0.15,0.09,0.08,352.79,352.8,0.0,0.0
1629642256.50024295,65328858,0.17,0.17,0.1,0.1,352.79,352.81,0.0,0.0
1629642256.60020304,65428818,0.12,0.14,0.13,0.12,352.79,352.8,0.0,0.0
1629642256.70016313,65528778,0.09,0.1,0.16,0.15,352.79,352.8,0.0,0.0
1629642256.80012298,65628738,0.07,0.07,0.16,0.17,352.79,352.8,0.0,0.0
1629642256.90008307,65728698,0.08,0.06,0.12,0.15,352.79,352.8,0.0,0.0
1629642257.00004315,65828658,0.07,0.06,0.11,0.12,352.79,352.79,0.0,0.0
1629642257.10000300,65928618,0.07,0.06,0.09,0.1,352.79,352.79,0.0,0.0
1629642257.19996309,66028578,0.08,0.06,0.06,0.08,352.79,352.79,0.0,0.0
1629642257.29992294,66128538,0.07,0.06,0.04,0.04,352.79,352.79,0.0,0.0
1629642257.39988303,66228498,0.05,0.05,0.03,0.02,352.79,352.79,0.0,0.0
1629642257.49984312,66328458,0.05,0.03,0.06,0.02,352.79,352.79,0.0,0.0
1629642257.59980297,66428418,0.06,0.03,0.08,0.04,352.79,352.79,0.0,0.0
1629642257.69976306,66528378,0.07,0.04,0.11,0.06,352.79,352.79,0.0,0.0
1629642257.79972315,66628338,0.08,0.06,0.12,0.09,352.79,352.8,0.0,0.0
1629642257.89968300,66728298,0.08,0.06,0.12,0.11,352.79,352.8,0.0,0.0
1629642257.99964309,66828258,0.08,0.07,0.13,0.12,352.79,352.8,0.0,0.0
1629642258.09960294,66928218,0.08,0.09,0.09,0.11,352.79,352.8,0.0,0.0
1629642258.19956303,67028178,0.07,0.08,0.07,0.08,352.79,352.8,0.0,0.0
1629642258.30035615,67128971,0.05,0.07,0.06,0.05,352.79,352.8,0.0,0.0
1629642258.40031600,67228931,0.05,0.05,0.09,0.06,352.79,352.8,0.0,0.0
1629642258.50027609,67328891,0.12,0.09,0.12,0.09,352.79,352.8,0.0,0.0
1629642258.60023594,67428851,0.17,0.14,0.14,0.12,352.79,352.8,0.0,0.0
1629642258.70019603,67528811,0.21,0.2,0.13,0.14,352.79,352.8,0.0,0.0
1629642258.80015612,67628771,0.19,0.22,0.13,0.14,352.79,352.8,0.0,0.0
1629642258.90011597,67728731,0.18,0.21,0.13,0.14,352.79,352.8,0.0,0.0
1629642259.00007606,67828691,0.18,0.19,0.11,0.13,352.79,352.8,0.0,0.0
1629642259.10003614,67928651,0.16,0.17,0.09,0.1,352.79,352.8,0.0,0.0
1629642259.19999599,68028611,0.13,0.15,0.11,0.09,352.79,352.8,0.0,0.0
1629642259.29995608,68128571,0.1,0.12,0.12,0.09,352.79,352.81,0.0,0.0
1629642259.39991593,68228531,0.1,0.08,0.14,0.11,352.79,352.81,0.0,0.0
1629642259.49987602,68328491,0.13,0.08,0.16,0.14,352.79,352.81,0.0,0.0
1629642259.59983611,68428451,0.17,0.11,0.15,0.16,352.79,352.81,0.0,0.0
1629642259.69979596,68528411,0.19,0.16,0.15,0.16,352.79,352.81,0.0,0.0
1629642259.79975605,68628371,0.19,0.18,0.13,0.14,352.79,352.8,0.0,0.0
1629642259.89971614,68728331,0.18,0.19,0.09,0.11,352.79,352.8,0.0,0.0
1629642259.99967599,68828291,0.14,0.16,0.05,0.06,352.79,352.8,0.0,0.0
1629642260.09963608,68928251,0.14,0.14,0.05,0.03,352.79,352.8,0.0,0.0
1629642260.19959617,69028211,0.14,0.13,0.08,0.04,352.79,352.8,0.0,0.0
1629642260.29955602,69128171,0.14,0.13,0.09,0.06,352.79,352.8,0.0,0.0
1629642260.40034914,69228964,0.15,0.14,0.11,0.08,352.79,352.8,0.0,0.0
1629642260.50030899,69328924,0.15,0.15,0.14,0.11,352.79,352.8,0.0,0.0
1629642260.60026908,69428884,0.11,0.12,0.15,0.15,352.79,352.8,0.0,0.0
1629642260.70022917,69528844,0.09,0.09,0.13,0.15,352.79,352.8,0.0,0.0
1629642260.80018902,69628804,0.11,0.09,0.12,0.13,352.79,352.8,0.0,0.0
1629642260.90014911,69728764,0.14,0.12,0.1,0.12,352.79,352.8,0.0,0.0
1629642261.00010896,69828724,0.15,0.14,0.09,0.1,352.79,352.8,0.0,0.0
1629642261.10006905,69928684,0.13,0.15,0.11,0.1,352.79,352.8,0.0,0.0
1629642261.20002913,70028644,0.09,0.12,0.12,0.11,352.79,352.8,0.0,0.0
1629642261.29998899,70128604,0.08,0.08,0.08,0.1,352.79,352.8,0.0,0.0
1629642261.39994907,70228564,0.1,0.07,0.06,0.07,352.79,352.79,0.0,0.0
1629642261.49990916,70328524,0.14,0.11,0.05,0.04,352.79,352.79,0.0,0.0
1629642261.59986901,70428484,0.15,0.14,0.04,0.02,352.79,352.79,0.0,0.0
1629642261.69982910,70528444,0.13,0.14,0.04,0.02,352.79,352.79,0.0,0.0
1629642261.79978895,70628404,0.11,0.13,0.07,0.03,352.79,352.8,0.0,0.0
1629642261.89974904,70728364,0.1,0.1,0.06,0.05,352.79,352.8,0.0,0.0
1629642261.99970913,70828324,0.08,0.08,0.04,0.03,352.79,352.8,0.0,0.0
1629642262.09966898,70928284,0.08,0.07,0.05,0.03,352.79,352.8,0.0,0.0
1629642262.19962907,71028244,0.08,0.06,0.07,0.05,352.79,352.8,0.0,0.0
1629642262.29958916,71128204,0.06,0.06,0.1,0.08,352.79,352.79,0.0,0.0
1629642262.39954901,71228164,0.04,0.04,0.1,0.1,352.79,352.79,0.0,0.0
1629642262.50034213,71328957,0.04,0.03,0.09,0.09,352.79,352.79,0.0,0.0
1629642262.60030198,71428917,0.06,0.04,0.08,0.08,352.79,352.79,0.0,0.0
1629642262.70026207,71528877,0.09,0.05,0.07,0.06,352.79,352.79,0.0,0.0
1629642262.80022216,71628837,0.11,0.08,0.08,0.06,352.79,352.79,0.0,0.0
1629642262.90018201,71728797,0.13,0.11,0.1,0.07,352.79,352.79,0.0,0.0
1629642263.00014210,71828757,0.16,0.14,0.13,0.1,352.79,352.79,0.0,0.0
1629642263.10010195,71928717,0.13,0.15,0.14,0.13,352.79,352.79,0.0,0.0
1629642263.20006204,72028677,0.08,0.11,0.09,0.12,352.79,352.79,0.0,0.0
1629642263.30002213,72128637,0.05,0.07,0.06,0.08,352.79,352.79,0.0,0.0
1629642263.39998198,72228597,0.04,0.03,0.06,0.05,352.79,352.79,0.0,0.0
1629642263.49994206,72328557,0.04,0.02,0.07,0.05,352.79,352.79,0.0,0.0
1629642263.59990215,72428517,0.06,0.03,0.07,0.06,352.79,352.79,0.0,0.0
1629642263.69986200,72528477,0.08,0.06,0.08,0.07,352.79,352.79,0.0,0.0
1629642263.79982209,72628437,0.07,0.08,0.07,0.08,352.79,352.79,0.0,0.0
1629642263.89978194,72728397,0.02,0.05,0.09,0.08,352.79,352.79,0.0,0.0
1629642263.99974203,72828357,-0.02,0.0,0.12,0.11,352.79,352.79,0.0,0.0
1629642264.09970212,72928317,-0.04,-0.05,0.09,0.11,352.79,352.79,0.0,0.0
1629642264.19966197,73028277,0.0,-0.05,0.07,0.08,352.79,352.8,0.0,0.0
1629642264.29962206,73128237,0.05,-0.01,0.07,0.07,352.79,352.8,0.0,0.0
1629642264.39958215,73228197,0.07,0.03,0.05,0.05,352.79,352.8,0.0,0.0
1629642264.49954200,73328157,0.09,0.07,0.05,0.03,352.79,352.81,0.0,0.0
1629642264.60033512,73428950,0.12,0.1,0.08,0.05,352.79,352.81,0.0,0.0
1629642264.70029497,73528910,0.13,0.13,0.11,0.08,352.79,352.8,0.0,0.0
1629642264.80025506,73628870,0.13,0.13,0.1,0.11,352.79,352.8,0.0,0.0
1629642264.90021515,73728830,0.17,0.16,0.08,0.11,352.79,352.8,0.0,0.0
1629642265.00017500,73828790,0.19,0.19,0.05,0.08,352.79,352.8,0.0,0.0
1629642265.10013509,73928750,0.19,0.21,0.06,0.06,352.79,352.79,0.0,0.0
1629642265.20009494,74028710,0.16,0.19,0.06,0.06,352.79,352.79,0.0,0.0
1629642265.30005503,74128670,0.16,0.16,0.09,0.06,352.79,352.79,0.0,0.0
1629642265.40001512,74228630,0.19,0.16,0.13,0.09,352.79,352.79,0.0,0.0
1629642265.49997497,74328590,0.2,0.18,0.14,0.12,352.79,352.79,0.0,0.0
1629642265.59993505,74428550,0.2,0.2,0.13,0.12,352.79,352.79,0.0,0.0
1629642265.69989514,74528510,0.2,0.21,0.1,0.12,352.79,352.79,0.0,0.0
1629642265.79985499,74628470,0.21,0.21,0.05,0.08,352.79,352.79,0.0,0.0
1629642265.89981508,74728430,0.21,0.22,0.03,0.04,352.79,352.79,0.0,0.0
1629642265.99977493,74828390,0.22,0.22,0.01,0.01,352.79,352.79,0.0,0.0
1629642266.09973502,74928350,0.17,0.2,0.0,0.0,352.79,352.79,0.0,0.0
1629642266.19969511,75028310,0.13,0.15,0.03,0.0,352.79,352.79,0.0,0.0
1629642266.29965496,75128270,0.13,0.13,0.04,0.01,352.79,352.79,0.0,0.0
1629642266.39961505,75228230,0.16,0.14,0.04,0.02,352.79,352.79,0.0,0.0
1629642266.49957514,75328190,0.18,0.15,0.05,0.04,352.79,352.79,0.0,0.0
1629642266.60036802,75428983,0.21,0.18,0.07,0.06,352.79,352.79,0.0,0.0
1629642266.70032811,75528943,0.24,0.22,0.07,0.07,352.79,352.79,0.0,0.0
1629642266.80028796,75628903,0.24,0.24,0.03,0.05,352.79,352.79,0.0,0.0
1629642266.90024805,75728863,0.19,0.22,0.03,0.03,352.79,352.78,0.0,0.0
1629642267.00020814,75828823,0.16,0.18,0.05,0.02,352.79,352.78,0.0,0.0
1629642267.10016799,75928783,0.16,0.16,0.05,0.03,352.79,352.78,0.0,0.0
1629642267.20012808,76028743,0.18,0.16,0.07,0.04,352.79,352.78,0.0,0.0
1629642267.30008817,76128703,0.16,0.16,0.09,0.06,352.79,352.78,0.0,0.0
1629642267.40004802,76228663,0.15,0.15,0.11,0.09,352.79,352.78,0.0,0.0
1629642267.50000811,76328623,0.16,0.15,0.09,0.09,352.79,352.78,0.0,0.0
1629642267.59996796,76428583,0.19,0.16,0.08,0.07,352.79,352.79,0.0,0.0
1629642267.69992805,76528543,0.2,0.18,0.11,0.09,352.79,352.79,0.0,0.0
1629642267.79988813,76628503,0.2,0.19,0.12,0.11,352.79,352.79,0.0,0.0
1629642267.89984798,76728463,0.18,0.18,0.13,0.13,352.79,352.8,0.0,0.0
1629642267.99980807,76828423,0.15,0.15,0.14,0.14,352.79,352.8,0.0,0.0
1629642268.09976816,76928383,0.12,0.12,0.17,0.15,352.79,352.8,0.0,0.0
1629642268.19972801,77028343,0.1,0.09,0.16,0.15,352.79,352.8,0.0,0.0
1629642268.29968810,77128303,0.13,0.09,0.16,0.15,352.79,352.8,0.0,0.0
1629642268.39964795,77228263,0.17,0.13,0.18,0.17,352.79,352.8,0.0,0.0
1629642268.49960804,77328223,0.21,0.19,0.18,0.18,352.79,352.79,0.0,0.0
1629642268.59956813,77428183,0.2,0.21,0.15,0.17,352.79,352.79,0.0,0.0
1629642268.70036101,77528976,0.15,0.18,0.16,0.15,352.79,352.79,0.0,0.0
1629642268.80032110,77628936,0.11,0.14,0.15,0.14,352.79,352.79,0.0,0.0
1629642268.90028095,77728896,0.09,0.1,0.13,0.12,352.79,352.79,0.0,0.0
1629642269.00024104,77828856,0.11,0.08,0.14,0.11,352.79,352.79,0.0,0.0
1629642269.10020113,77928816,0.11,0.09,0.18,0.14,352.79,352.79,0.0,0.0
1629642269.20016098,78028776,0.12,0.09,0.2,0.18,352.79,352.79,0.0,0.0
1629642269.30012107,78128736,0.12,0.1,0.17,0.2,352.79,352.8,0.0,0.0
1629642269.40008116,78228696,0.11,0.1,0.09,0.15,352.79,352.8,0.0,0.0
1629642269.50004101,78328656,0.08,0.1,0.04,0.09,352.79,352.8,0.0,0.0
1629642269.60000110,78428616,0.08,0.08,0.05,0.04,352.79,352.8,0.0,0.0
1629642269.69996095,78528576,0.08,0.08,0.1,0.06,352.79,352.8,0.0,0.0
1629642269.79992104,78628536,0.08,0.07,0.15,0.11,352.79,352.8,0.0,0.0
1629642269.89988112,78728496,0.07,0.06,0.17,0.16,352.79,352.79,0.0,0.0
1629642269.99984097,78828456,0.05,0.04,0.17,0.17,352.79,352.79,0.0,0.0
1629642270.09980106,78928416,0.06,0.03,0.16,0.18,352.79,352.79,0.0,0.0
1629642270.19976115,79028376,0.06,0.03,0.14,0.17,352.79,352.79,0.0,0.0
1629642270.29972100,79128336,0.09,0.05,0.12,0.14,352.79,352.78,0.0,0.0
1629642270.39968109,79228296,0.11,0.09,0.09,0.1,352.79,352.78,0.0,0.0
1629642270.49964094,79328256,0.08,0.09,0.09,0.07,352.79,352.78,0.0,0.0
1629642270.59960103,79428216,0.06,0.07,0.12,0.08,352.79,352.78,0.0,0.0
1629642270.69956112,79528176,0.05,0.05,0.15,0.12,352.79,352.78,0.0,0.0
1629642270.80035400,79628969,0.07,0.05,0.16,0.15,352.79,352.79,0.0,0.0
1629642270.90031409,79728929,0.1,0.08,0.15,0.15,352.79,352.79,0.0,0.0
1629642271.00027394,79828889,0.1,0.1,0.13,0.15,352.79,352.79,0.0,0.0
1629642271.10023403,79928849,0.07,0.09,0.1,0.13,352.79,352.8,0.0,0.0
1629642271.20019412,80028809,0.03,0.05,0.06,0.08,352.79,352.8,0.0,0.0
1629642271.30015397,80128769,0.03,0.01,0.05,0.05,352.79,352.8,0.0,0.0
1629642271.40011406,80228729,0.06,0.02,0.06,0.03,352.79,352.8,0.0,0.0
1629642271.50007415,80328689,0.1,0.06,0.09,0.04,352.79,352.8,0.0,0.0
1629642271.60003400,80428649,0.14,0.1,0.11,0.07,352.79,352.79,0.0,0.0
1629642271.69999409,80528609,0.16,0.15,0.09,0.08,352.79,352.79,0.0,0.0
1629642271.79995394,80628569,0.18,0.17,0.09,0.08,352.79,352.79,0.0,0.0
1629642271.89991403,80728529,0.19,0.2,0.11,0.09,352.79,352.79,0.0,0.0
1629642271.99987411,80828489,0.18,0.2,0.12,0.1,352.79,352.79,0.0,0.0
1629642272.09983397,80928449,0.16,0.18,0.13,0.12,352.79,352.79,0.0,0.0
1629642272.19979405,81028409,0.15,0.16,0.13,0.13,352.79,352.79,0.0,0.0
1629642272.29975414,81128369,0.15,0.15,0.11,0.13,352.79,352.79,0.0,0.0
1629642272.39971399,81228329,0.15,0.14,0.09,0.11,352.79,352.79,0.0,0.0
1629642272.49967408,81328289,0.14,0.15,0.07,0.09,352.79,352.8,0.0,0.0
1629642272.59963393,81428249,0.13,0.14,0.05,0.06,352.79,352.8,0.0,0.0
1629642272.69959402,81528209,0.15,0.14,0.07,0.05,352.79,352.8,0.0,0.0
1629642272.79955411,81628169,0.16,0.14,0.08,0.06,352.79,352.81,0.0,0.0
1629642272.90034699,81728962,0.16,0.14,0.11,0.09,352.79,352.81,0.0,0.0
1629642273.00030708,81828922,0.16,0.15,0.15,0.13,352.79,352.81,0.0,0.0
1629642273.10026693,81928882,0.15,0.14,0.18,0.17,352.79,352.8,0.0,0.0
1629642273.20022702,82028842,0.17,0.14,0.19,0.2,352.79,352.8,0.0,0.0
1629642273.30018711,82128802,0.14,0.14,0.17,0.21,352.79,352.8,0.0,0.0
1629642273.40014696,82228762,0.08,0.1,0.12,0.16,352.79,352.79,0.0,0.0
1629642273.50010705,82328722,0.08,0.07,0.09,0.12,352.79,352.79,0.0,0.0
1629642273.60006714,82428682,0.08,0.05,0.1,0.09,352.79,352.78,0.0,0.0
1629642273.70002699,82528642,0.09,0.05,0.15,0.11,352.79,352.78,0.0,0.0
1629642273.79998708,82628602,0.12,0.07,0.17,0.15,352.79,352.78,0.0,0.0
1629642273.89994717,82728562,0.14,0.11,0.19,0.18,352.79,352.78,0.0,0.0
1629642273.99990702,82828522,0.16,0.14,0.17,0.19,352.79,352.78,0.0,0.0
1629642274.09986711,82928482,0.17,0.17,0.14,0.17,352.79,352.78,0.0,0.0
1629642274.19982696,83028442,0.15,0.18,0.13,0.14,352.79,352.78,0.0,0.0
1629642274.29978704,83128402,0.1,0.15,0.12,0.12,352.79,352.78,0.0,0.0
1629642274.39974713,83228362,0.07,0.1,0.13,0.11,352.79,352.78,0.0,0.0
1629642274.49970698,83328322,0.07,0.07,0.14,0.11,352.79,352.79,0.0,0.0
1629642274.59966707,83428282,0.07,0.07,0.15,0.11,352.79,352.79,0.0,0.0
1629642274.69962716,83528242,0.07,0.06,0.18,0.14,352.79,352.79,0.0,0.0
1629642274.79958701,83628202,0.08,0.06,0.19,0.16,352.79,352.8,0.0,0.0
1629642274.89954710,83728162,0.08,0.07,0.21,0.18,352.79,352.8,0.0,0.0
1629642275.00033998,83828955,0.12,0.08,0.2,0.2,352.79,352.8,0.0,0.0
1629642275.10030007,83928915,0.14,0.11,0.18,0.19,352.79,352.8,0.0,0.0
1629642275.20026016,84028875,0.16,0.13,0.17,0.17,352.79,352.8,0.0,0.0
1629642275.30022001,84128835,0.2,0.17,0.14,0.15,352.79,352.8,0.0,0.0
1629642275.40018010,84228795,0.2,0.21,0.1,0.11,352.79,352.8,0.0,0.0
1629642275.50013995,84328755,0.18,0.21,0.09,0.09,352.79,352.79,0.0,0.0
1629642275.60010004,84428715,0.16,0.19,0.11,0.08,352.79,352.79,0.0,0.0
1629642275.70006013,84528675,0.13,0.15,0.1,0.09,352.79,352.79,0.0,0.0
1629642275.80001998,84628635,0.13,0.13,0.07,0.07,352.79,352.79,0.0,0.0
1629642275.89998007,84728595,0.13,0.12,0.05,0.05,352.79,352.78,0.0,0.0
1629642275.99994016,84828555,0.16,0.12,0.06,0.04,352.79,352.78,0.0,0.0
1629642276.09990001,84928515,0.17,0.15,0.09,0.05,352.79,352.78,0.0,0.0
1629642276.19986010,85028475,0.15,0.16,0.11,0.07,352.79,352.78,0.0,0.0
1629642276.29981995,85128435,0.14,0.15,0.15,0.11,352.79,352.78,0.0,0.0
1629642276.39978004,85228395,0.12,0.13,0.19,0.16,352.79,352.78,0.0,0.0
1629642276.49974012,85328355,0.12,0.1,0.22,0.21,352.79,352.78,0.0,0.0
1629642276.59969997,85428315,0.14,0.1,0.22,0.24,352.79,352.79,0.0,0.0
1629642276.69966006,85528275,0.18,0.14,0.17,0.22,352.79,352.79,0.0,0.0
1629642276.79962015,85628235,0.17,0.16,0.1,0.14,352.79,352.79,0.0,0.0
1629642276.89958000,85728195,0.15,0.15,0.06,0.07,352.79,352.79,0.0,0.0
1629642276.99954009,85828155,0.15,0.15,0.05,0.03,352.79,352.79,0.0,0.0
1629642277.10033298,85928948,0.15,0.15,0.06,0.03,352.79,352.79,0.0,0.0
1629642277.20029306,86028908,0.14,0.14,0.08,0.04,352.79,352.79,0.0,0.0
1629642277.30025315,86128868,0.13,0.13,0.11,0.07,352.79,352.79,0.0,0.0
1629642277.40021300,86228828,0.15,0.13,0.13,0.11,352.79,352.79,0.0,0.0
1629642277.50017309,86328788,0.16,0.14,0.11,0.11,352.79,352.79,0.0,0.0
1629642277.60013294,86428748,0.17,0.16,0.11,0.1,352.79,352.79,0.0,0.0
1629642277.70009303,86528708,0.17,0.17,0.07,0.08,352.79,352.79,0.0,0.0
1629642277.80005312,86628668,0.14,0.16,0.06,0.04,352.79,352.79,0.0,0.0
1629642277.90001297,86728628,0.09,0.12,0.11,0.06,352.79,352.79,0.0,0.0
1629642277.99997306,86828588,0.04,0.06,0.14,0.11,352.79,352.79,0.0,0.0
1629642278.09993315,86928548,0.02,0.01,0.15,0.14,352.79,352.79,0.0,0.0
1629642278.19989300,87028508,0.05,0.0,0.13,0.15,352.79,352.79,0.0,0.0
1629642278.29985309,87128468,0.11,0.05,0.13,0.14,352.79,352.79,0.0,0.0
1629642278.39981294,87228428,0.15,0.11,0.14,0.14,352.79,352.79,0.0,0.0
1629642278.49977303,87328388,0.14,0.14,0.12,0.14,352.79,352.79,0.0,0.0
1629642278.59973311,87428348,0.14,0.15,0.09,0.11,352.79,352.79,0.0,0.0
1629642278.69969296,87528308,0.13,0.15,0.06,0.07,352.79,352.79,0.0,0.0
1629642278.79965305,87628268,0.13,0.14,0.06,0.05,352.79,352.79,0.0,0.0
1629642278.89961314,87728228,0.14,0.14,0.07,0.05,352.79,352.79,0.0,0.0
1629642278.99957299,87828188,0.15,0.14,0.1,0.07,352.79,352.79,0.0,0.0
1629642279.10036612,87928981,0.11,0.13,0.12,0.1,352.79,352.79,0.0,0.0
1629642279.20032597,88028941,0.08,0.09,0.13,0.12,352.79,352.79,0.0,0.0
1629642279.30028605,88128901,0.08,0.07,0.14,0.14,352.79,352.79,0.0,0.0
1629642279.40024614,88228861,0.1,0.07,0.15,0.14,352.79,352.79,0.0,0.0
1629642279.50020599,88328821,0.12,0.1,0.15,0.15,352.79,352.79,0.0,0.0
1629642279.60016608,88428781,0.08,0.28,0.27,0.32,352.79,352.79,0.0,0.0
1629642279.70012593,88528741,-1.62,5.28,7.51,9.6,352.79,353.27,0.0,0.0
1629642279.80008602,88628701,-2.97,11.54,18.53,26.84,352.78,356.07,0.0,0.05
1629642279.90004611,88728661,-4.63,16.78,18.94,37.29,352.78,359.79,0.0,0.11
1629642280.00000596,88828621,-7.23,16.83,12.13,37.83,352.79,0.46,0.0,0.12
1629642280.09996605,88928581,-2.58,17.27,13.36,36.93,352.79,359.53,0.01,0.1
1629642280.19992614,89028541,-1.06,19.8,19.09,39.82,352.79,359.24,0.01,0.08
1629642280.29988599,89128501,-4.1,18.39,17.07,39.3,352.79,357.46,0.01,0.07
1629642280.39984608,89228461,-9.38,12.18,10.18,33.38,352.8,354.22,0.01,0.07
1629642280.49980617,89328421,-14.08,3.66,1.05,23.01,352.81,351.42,0.01,0.08
1629642280.59976602,89428381,-16.6,-3.95,-7.15,10.72,352.81,350.0,0.01,0.1
1629642280.69972610,89528341,-17.09,-8.54,-12.65,-0.25,352.82,349.31,0.01,0.12
1629642280.79968596,89628301,-16.12,-9.72,-15.46,-8.17,352.82,348.5,0.01,0.13
1629642280.89964604,89728261,-14.32,-8.23,-16.09,-12.63,352.81,347.44,0.02,0.11
1629642280.99960613,89828221,-12.51,-5.56,-15.38,-14.17,352.82,346.61,0.02,0.09
1629642281.09956598,89928181,-11.29,-3.29,-14.07,-13.74,352.82,346.52,0.02,0.08
1629642281.20035911,90028974,-10.85,-2.39,-12.75,-12.26,352.82,347.3,0.02,0.08
1629642281.30031896,90128934,-11.03,-3.02,-11.73,-10.47,352.82,348.72,0.02,0.07
1629642281.40027905,90228894,-11.41,-4.69,-11.12,-8.79,352.82,350.42,0.02,0.06
1629642281.50023913,90328854,-11.59,-6.61,-10.92,-7.53,352.82,352.08,0.02,0.05
1629642281.60019898,90428814,-11.4,-8.14,-11.04,-6.79,352.82,353.46,0.02,0.04
1629642281.70015907,90528774,-10.77,-8.9,-11.38,-6.61,352.82,354.42,0.01,0.03
1629642281.80011916,90628734,-9.8,-8.79,-11.82,-6.92,352.82,354.89,0.01,0.02
1629642281.90007901,90728694,-8.67,-8.0,-12.23,-7.58,352.82,354.87,0.01,0.02
1629642282.00003910,90828654,-7.53,-6.76,-12.51,-8.41,352.82,354.45,0.01,0.02
1629642282.09999895,90928614,-6.53,-5.39,-12.57,-9.23,352.82,353.76,0.01,0.02
1629642282.19995904,91028574,-5.78,-4.13,-12.42,-9.87,352.82,352.98,0.01,0.02
1629642282.29991913,91128534,-5.28,-3.16,-12.08,-10.26,352.82,352.25,0.01,0.02
1629642282.39987898,91228494,-4.94,-2.53,-11.58,-10.35,352.82,351.7,0.01,0.02
1629642282.49983907,91328454,-4.7,-2.2,-11.0,-10.15,352.82,351.39,0.01,0.01
1629642282.59979916,91428414,-4.53,-2.1,-10.4,-9.75,352.82,351.34,0.01,0.01
1629642282.69975901,91528374,-4.36,-2.18,-9.8,-9.22,352.82,351.5,0.01,0.01
1629642282.79971910,91628334,-4.15,-2.32,-9.23,-8.62,352.82,351.8,0.01,0.01
1629642282.89967895,91728294,-3.89,-2.46,-8.68,-8.0,352.82,352.18,0.01,0.01
1629642282.99963903,91828254,-3.55,-2.52,-8.22,-7.43,352.82,352.56,0.01,0.01
1629642283.09959912,91928214,-3.11,-2.44,-7.82,-6.95,352.82,352.9,0.01,0.01
1629642283.19955897,92028174,-2.67,-2.24,-7.44,-6.55,352.82,353.14,0.01,0.01
1629642283.30035210,92128967,-2.23,-1.96,-7.06,-6.19,352.82,353.28,0.0,0.01
1629642283.40031195,92228927,-1.79,-1.63,-6.64,-5.85,352.82,353.31,0.0,0.01
1629642283.50027204,92328887,-1.36,-1.24,-6.2,-5.5,352.82,353.26,0.0,0.01
1629642283.60023212,92428847,-0.98,-0.83,-5.76,-5.17,352.82,353.14,0.0,0.01
1629642283.70019197,92528807,-0.64,-0.44,-5.29,-4.82,352.82,353.0,0.0,0.01
1629642283.80015206,92628767,0.41,0.22,-6.21,-5.06,352.27,352.87,0.0,0.01
1629642283.90011215,92728727,1.46,1.03,-7.1,-6.25,349.2,352.54,0.0,0.01
1629642284.00007200,92828687,1.9,0.78,-6.49,-6.07,345.56,351.31,0.0,0.01
1629642284.10003209,92928647,2.1,0.35,-5.14,-4.64,343.69,348.91,0.0,0.01
1629642284.19999194,93028607,2.31,0.55,-3.61,-2.95,342.74,345.83,0.0,0.01
1629642284.29995203,93128567,2.49,1.41,-2.19,-1.64,342.25,342.71,0.0,0.01
1629642284.39991212,93228527,2.45,2.45,-0.9,-0.77,342.0,340.05,0.0,0.01
1629642284.49987197,93328487,2.07,3.16,0.19,-0.2,341.87,338.15,0.0,0.0
1629642284.59983206,93428447,1.37,3.22,1.13,0.24,341.81,337.14,0.0,0.0
1629642284.69979215,93528407,0.48,2.63,1.96,0.79,341.78,336.99,0.0,0.0
1629642284.79975200,93628367,-0.43,1.56,2.71,1.51,341.76,337.53,0.0,0.0
1629642284.89971209,93728327,-1.17,0.31,3.36,2.38,341.75,338.55,0.0,0.0
1629642284.99967194,93828287,-1.65,-0.79,3.9,3.32,341.75,339.79,0.0,0.0
1629642285.09963202,93928247,-1.87,-1.61,4.29,4.2,341.74,341.04,0.0,0.0
1629642285.19959211,94028207,-1.95,-2.14,4.56,4.92,341.74,342.12,0.0,0.0
1629642285.29955196,94128167,-1.96,-2.45,4.73,5.45,341.74,342.91,0.0,0.0
1629642285.40034509,94228960,-2.0,-2.62,4.84,5.76,341.74,343.36,0.0,0.0
1629642285.50030494,94328920,-2.1,-2.71,4.95,5.93,341.74,343.48,0.0,0.0
1629642285.60026503,94428880,-2.32,-2.84,5.09,5.99,341.74,343.31,0.0,0.0
1629642285.70022511,94528840,-2.68,-3.05,5.26,5.98,341.74,342.95,0.0,0.0
1629642285.80018497,94628800,-3.12,-3.34,5.47,5.96,341.74,342.47,0.0,0.0
1629642285.90014505,94728760,-3.6,-3.67,5.69,5.96,341.74,341.99,0.0,0.0
1629642286.00010514,94828720,-4.08,-4.03,5.94,5.99,341.74,341.56,0.0,0.0
1629642286.10006499,94928680,-4.54,-4.4,6.15,6.06,341.74,341.25,0.0,0.0
1629642286.20002508,95028640,-4.92,-4.75,6.3,6.12,341.74,341.08,0.0,0.0
1629642286.29998493,95128600,-5.23,-5.06,6.41,6.19,341.74,341.04,0.0,0.0
1629642286.39994502,95228560,-5.47,-5.31,6.48,6.26,341.74,341.11,0.0,0.0
1629642286.49990511,95328520,-5.64,-5.51,6.56,6.38,341.74,341.25,0.0,0.0
1629642286.59986496,95428480,-5.78,-5.66,6.64,6.54,341.74,341.43,0.0,0.0
1629642286.69982505,95528440,-5.93,-5.8,6.74,6.79,340.61,341.57,0.0,0.0
1629642286.79978514,95628400,-6.13,-6.06,6.82,7.48,336.78,341.27,0.0,0.0
1629642286.89974499,95728360,-6.43,-6.8,6.79,8.69,330.9,339.67,0.0,0.0
1629642286.99970508,95828320,-6.86,-7.81,6.46,9.67,324.9,336.41,0.0,0.0
1629642287.09966516,95928280,-7.33,-8.71,5.64,9.77,318.9,331.63,0.0,0.01
1629642287.19962502,96028240,-7.82,-9.43,4.36,8.86,312.9,325.45,0.0,0.02
1629642287.29958510,96128200,-8.32,-9.89,2.8,7.01,306.9,318.09,0.0,0.03
1629642287.39954495,96228160,-8.86,-10.07,1.1,4.45,300.9,309.97,0.0,0.04
1629642287.50033808,96328953,-9.37,-10.01,-0.6,1.53,294.9,301.42,0.0,0.06
1629642287.60029817,96428913,-9.85,-9.78,-2.21,-1.4,288.9,292.76,0.0,0.07
1629642287.70025802,96528873,-10.29,-9.43,-3.66,-4.09,282.9,284.27,0.0,0.08
1629642287.80021811,96628833,-10.63,-9.0,-4.99,-6.4,276.9,276.23,0.0,0.09
1629642287.90017796,96728793,-10.87,-8.58,-6.18,-8.23,270.9,268.82,0.0,0.09
1629642288.00013804,96828753,-10.97,-8.28,-7.27,-9.56,264.9,262.11,0.0,0.09
1629642288.10009813,96928713,-10.95,-8.15,-8.28,-10.43,258.9,256.05,0.0,0.09
1629642288.20005798,97028673,-10.77,-8.2,-9.3,-11.01,252.9,250.53,0.0,0.08
1629642288.30001807,97128633,-10.34,-8.32,-10.34,-11.44,246.9,245.39,0.0,0.07
1629642288.39997816,97228593,-9.59,-8.32,-11.39,-11.85,240.9,240.41,0.0,0.06
1629642288.49993801,97328553,-8.54,-8.06,-12.4,-12.3,234.9,235.43,0.0,0.05
1629642288.59989810,97428513,-7.24,-7.45,-13.38,-12.85,228.9,230.3,0.0,0.05
1629642288.69985795,97528473,-5.69,-6.43,-14.3,-13.5,222.9,224.92,0.0,0.05
1629642288.79981804,97628433,-3.93,-4.99,-15.08,-14.21,216.9,219.24,0.0,0.05
1629642288.89977813,97728393,-2.05,-2.97,-15.66,-14.93,212.33,213.32,0.0,0.05
1629642288.99973798,97828353,-0.17,0.04,-16.0,-15.78,209.99,207.6,0.0,0.05
1629642289.09969807,97928313,1.4,3.6,-16.1,-16.7,208.82,202.81,0.0,0.06
1629642289.19965816,98028273,2.35,6.71,-15.97,-17.41,208.23,199.5,0.0,0.07
1629642289.29961801,98128233,2.43,8.45,-15.63,-17.58,207.92,197.92,0.0,0.06
1629642289.39957809,98228193,1.68,8.38,-15.2,-17.16,207.7,197.97,0.0,0.05
1629642289.50037098,98328986,0.43,6.65,-14.85,-16.37,207.52,199.25,0.0,0.05
1629642289.60033107,98428946,-0.88,3.89,-14.64,-15.49,207.32,201.28,0.0,0.05
1629642289.70029116,98528906,-1.92,0.83,-14.66,-14.75,207.11,203.63,0.0,0.06
1629642289.80025101,98628866,-2.49,-1.84,-14.94,-14.29,206.9,205.92,0.0,0.07
1629642289.90021110,98728826,-2.58,-3.73,-15.38,-14.11,206.71,207.85,0.0,0.07
1629642290.00017095,98828786,-2.29,-4.7,-15.88,-14.2,206.55,209.23,0.0,0.07
1629642290.10013103,98928746,-1.72,-4.8,-16.38,-14.5,206.44,209.94,0.0,0.07
1629642290.20009112,99028706,-1.03,-4.2,-16.82,-14.98,206.38,210.03,0.0,0.06
1629642290.30005097,99128666,-0.38,-3.16,-17.15,-15.55,206.36,209.58,0.0,0.04
1629642290.40001106,99228626,0.19,-1.89,-17.37,-16.12,206.38,208.78,0.0,0.04
1629642290.49997115,99328586,0.61,-0.62,-17.44,-16.63,206.42,207.81,0.0,0.03
1629642290.59993100,99428546,0.86,0.45,-17.42,-17.01,206.47,206.86,0.0,0.03
1629642290.69989109,99528506,0.94,1.24,-17.36,-17.29,206.52,206.06,0.0,0.02
1629642290.79985094,99628466,0.88,1.69,-17.23,-17.41,206.57,205.52,0.0,0.02
1629642290.89981103,99728426,0.7,1.79,-17.08,-17.39,206.62,205.27,0.0,0.02
1629642290.99977112,99828386,0.48,1.61,-16.94,-17.27,206.65,205.28,0.0,0.01
1629642291.09973097,99928346,0.22,1.22,-16.85,-17.09,206.67,205.5,0.0,0.01
1629642291.19969106,100028306,-0.02,0.7,-16.83,-16.95,206.68,205.86,0.0,0.02
1629642291.29965115,100128266,-0.21,0.16,-16.85,-16.84,206.69,206.29,0.0,0.02
1629642291.39961100,100228226,-0.3,-0.28,-16.92,-16.79,206.69,206.7,0.0,0.02
1629642291.49957108,100328186,-0.31,-0.58,-17.0,-16.78,206.69,207.04,0.0,0.02
1629642291.60036397,100428979,-0.26,-0.72,-17.08,-16.8,206.69,207.29,0.0,0.02
1629642291.70032406,100528939,-0.19,-0.73,-17.14,-16.83,206.7,207.42,0.0,0.02
1629642291.80028415,100628899,-0.11,-0.63,-17.2,-16.88,206.72,207.45,0.0,0.02
1629642291.90024400,100728859,-0.02,-0.49,-17.28,-16.98,206.74,207.39,0.0,0.01
1629642292.00020409,100828819,0.06,-0.3,-17.36,-17.12,206.76,207.27,0.0,0.01
1629642292.10016394,100928779,0.14,-0.09,-17.4,-17.24,206.79,207.13,0.0,0.01
1629642292.20012403,101028739,0.17,0.07,-17.4,-17.33,206.81,207.0,0.0,0.01
1629642292.30008411,101128699,0.15,0.18,-17.39,-17.38,206.84,206.88,0.0,0.01
1629642292.40004396,101228659,0.16,0.25,-17.36,-17.38,206.87,206.81,0.0,0.01
1629642292.50000405,101328619,0.16,0.29,-17.37,-17.39,206.9,206.79,0.0,0.01
1629642292.59996414,101428579,0.13,0.29,-17.38,-17.4,206.92,206.8,0.0,0.01
1629642292.69992399,101528539,0.06,0.23,-17.39,-17.4,206.95,206.85,0.0,0.01
1629642292.79988408,101628499,0.0,0.11,-17.42,-17.41,206.97,206.93,0.0,0.01
1629642292.89984393,101728459,-0.03,0.0,-17.43,-17.41,206.99,207.02,0.0,0.01
1629642292.99980402,101828419,-0.04,-0.05,-17.43,-17.4,207.01,207.11,0.0,0.01
1629642293.09976411,101928379,-0.01,-0.07,-17.41,-17.37,207.03,207.19,0.0,0.01
1629642293.19972396,102028339,0.01,-0.07,-17.44,-17.36,207.05,207.25,0.0,0.01
1629642293.29968405,102128299,0.02,-0.06,-17.49,-17.39,207.07,207.29,0.0,0.01
1629642293.39964414,102228259,0.03,-0.04,-17.56,-17.46,207.1,207.31,0.0,0.01
1629642293.49960399,102328219,0.03,-0.03,-17.61,-17.53,207.12,207.32,0.0,0.0
1629642293.59956408,102428179,0.01,-0.02,-17.65,-17.6,207.14,207.32,0.0,0.0
1629642293.70035696,102528972,0.0,-0.03,-17.66,-17.63,207.16,207.31,0.0,0.0
1629642293.80031705,102628932,0.0,-0.02,-17.64,-17.63,207.18,207.3,0.0,0.0
1629642293.90027714,102728892,0.0,-0.01,-17.64,-17.63,207.2,207.3,0.0,0.0
1629642294.00023699,102828852,0.0,0.0,-17.64,-17.63,207.22,207.3,0.0,0.0
1629642294.10019708,102928812,0.03,0.04,-17.66,-17.64,207.25,207.31,0.0,0.0
1629642294.20015717,103028772,0.05,0.07,-17.7,-17.68,207.27,207.33,0.0,0.0
1629642294.30011702,103128732,0.05,0.08,-17.73,-17.72,207.29,207.35,0.0,0.0
1629642294.40007710,103228692,0.05,0.08,-17.74,-17.74,207.31,207.38,0.0,0.0
1629642294.50003695,103328652,0.05,0.07,-17.74,-17.73,207.33,207.41,0.0,0.0
1629642294.59999704,103428612,0.06,0.05,-17.73,-17.73,207.36,207.45,0.0,0.0
1629642294.69995713,103528572,0.08,0.06,-17.73,-17.72,207.38,207.48,0.0,0.0
1629642294.79991698,103628532,0.08,0.06,-17.75,-17.73,207.41,207.51,0.0,0.0
1629642294.89987707,103728492,0.06,0.04,-17.76,-17.74,207.43,207.54,0.0,0.0
1629642294.99983716,103828452,0.05,0.02,-17.76,-17.74,207.45,207.57,0.0,0.0
1629642295.09979701,103928412,0.06,0.03,-17.76,-17.73,207.47,207.59,0.0,0.0
1629642295.19975710,104028372,0.07,0.05,-17.78,-17.74,207.5,207.61,0.0,0.0
1629642295.29971695,104128332,0.08,0.07,-17.81,-17.76,207.52,207.63,0.0,0.0
1629642295.39967704,104228292,0.08,0.09,-17.83,-17.78,207.54,207.64,0.0,0.0
1629642295.49963713,104328252,0.08,0.1,-17.86,-17.8,207.56,207.66,0.0,0.0
1629642295.59959698,104428212,0.09,0.11,-17.88,-17.84,207.58,207.68,0.0,0.0
1629642295.69955707,104528172,0.08,0.11,-17.88,-17.86,207.61,207.69,0.0,0.0
1629642295.80034995,104628965,0.07,0.09,-17.87,-17.86,207.63,207.71,0.0,0.0
1629642295.90031004,104728925,0.06,0.07,-17.85,-17.85,207.65,207.73,0.0,0.0
1629642296.00027013,104828885,0.04,0.04,-17.87,-17.85,207.67,207.75,0.0,0.0
1629642296.10022998,104928845,0.05,0.02,-17.89,-17.87,207.69,207.77,0.0,0.0
1629642296.20019007,105028805,0.1,0.04,-17.91,-17.91,207.71,207.79,0.0,0.0
1629642296.30015016,105128765,0.15,0.09,-17.92,-17.93,207.73,207.81,0.0,0.0
1629642296.40011001,105228725,0.18,0.14,-17.93,-17.94,207.75,207.84,0.0,0.0
1629642296.50007010,105328685,0.18,0.16,-17.95,-17.95,207.77,207.86,0.0,0.0
1629642296.60002995,105428645,0.15,0.15,-17.96,-17.96,207.79,207.88,0.0,0.0
1629642296.69999003,105528605,0.13,0.12,-17.99,-17.98,207.81,207.9,0.0,0.0
1629642296.79995012,105628565,0.13,0.11,-18.02,-18.01,207.83,207.92,0.0,0.0
1629642296.89990997,105728525,0.15,0.13,-18.0,-18.01,207.84,207.94,0.0,0.0
1629642296.99987006,105828485,0.18,0.14,-17.98,-18.0,207.86,207.96,0.0,0.0
1629642297.09983015,105928445,0.18,0.15,-17.97,-17.97,207.88,207.98,0.0,0.0
1629642297.19979000,106028405,0.15,0.15,-17.98,-17.96,207.89,207.99,0.0,0.0
1629642297.29975009,106128365,0.15,0.15,-18.02,-17.98,207.91,208.0,0.0,0.0
1629642297.39970994,106228325,0.15,0.15,-18.07,-18.03,207.93,208.01,0.0,0.0
1629642297.49967003,106328285,0.15,0.15,-18.09,-18.08,207.94,208.02,0.0,0.0
1629642297.59963012,106428245,0.15,0.15,-18.1,-18.09,207.95,208.03,0.0,0.0
1629642297.69958997,106528205,0.15,0.15,-18.08,-18.09,207.96,208.04,0.0,0.0
1629642297.79955006,106628165,0.14,0.14,-18.06,-18.06,207.98,208.05,0.0,0.0
1629642297.90034294,106728958,0.14,0.13,-18.02,-18.02,207.99,208.06,0.0,0.0
1629642298.00030303,106828918,0.15,0.13,-18.0,-18.0,208.0,208.07,0.0,0.0
1629642298.10026312,106928878,0.15,0.14,-18.03,-18.0,208.01,208.08,0.0,0.0
1629642298.20022297,107028838,0.14,0.12,-18.07,-18.05,208.02,208.09,0.0,0.0
1629642298.30018306,107128798,0.12,0.09,-18.1,-18.1,208.03,208.1,0.0,0.0
1629642298.40014315,107228758,0.12,0.07,-18.12,-18.14,208.03,208.11,0.0,0.0
1629642298.50010300,107328718,0.12,0.07,-18.12,-18.15,208.04,208.12,0.0,0.0
1629642298.60006309,107428678,0.1,0.07,-18.11,-18.13,208.05,208.13,0.0,0.0
1629642298.70002294,107528638,0.11,0.08,-18.1,-18.11,208.06,208.13,0.0,0.0
1629642298.79998302,107628598,0.12,0.1,-18.1,-18.09,208.07,208.14,0.0,0.0
1629642298.89994311,107728558,0.12,0.12,-18.1,-18.08,208.07,208.15,0.0,0.0
1629642298.99990296,107828518,0.1,0.11,-18.1,-18.09,208.08,208.15,0.0,0.0
1629642299.09986305,107928478,0.07,0.07,-18.11,-18.1,208.08,208.16,0.0,0.0
1629642299.19982314,108028438,0.05,0.04,-18.13,-18.12,208.09,208.17,0.0,0.0
1629642299.29978299,108128398,0.07,0.04,-18.15,-18.14,208.09,208.17,0.0,0.0
1629642299.39974308,108228358,0.08,0.04,-18.17,-18.17,208.1,208.18,0.0,0.0
1629642299.49970317,108328318,0.07,0.05,-18.16,-18.18,208.11,208.18,0.0,0.0
1629642299.59966302,108428278,0.12,0.08,-18.17,-18.17,208.11,208.19,0.0,0.0
1629642299.69962311,108528238,0.15,0.13,-18.17,-18.16,208.12,208.19,0.0,0.0
1629642299.79958296,108628198,0.16,0.16,-18.16,-18.14,208.13,208.19,0.0,0.0
1629642299.89954305,108728158,0.15,0.17,-18.15,-18.13,208.14,208.2,0.0,0.0
1629642300.00033593,108828951,0.13,0.15,-18.13,-18.12,208.14,208.2,0.0,0.0
1629642300.10029602,108928911,0.11,0.13,-18.11,-18.1,208.15,208.2,0.0,0.0
1629642300.20025611,109028871,0.09,0.08,-18.1,-18.1,208.16,208.21,0.0,0.0
1629642300.30021596,109128831,0.11,0.07,-18.11,-18.12,208.16,208.22,0.0,0.0
1629642300.40017605,109228791,0.13,0.08,-18.11,-18.14,208.17,208.23,0.0,0.0
1629642300.50013614,109328751,0.17,0.11,-18.14,-18.16,208.17,208.23,0.0,0.0
1629642300.60009599,109428711,0.2,0.15,-18.16,-18.18,208.18,208.24,0.0,0.0
1629642300.70005608,109528671,0.22,0.19,-18.16,-18.19,208.19,208.25,0.0,0.0
1629642300.80001616,109628631,0.22,0.21,-18.13,-18.17,208.2,208.26,0.0,0.0
1629642300.89997602,109728591,0.2,0.22,-18.1,-18.12,208.2,208.26,0.0,0.0
1629642300.99993610,109828551,0.19,0.2,-18.11,-18.1,208.21,208.26,0.0,0.0
1629642301.09989595,109928511,0.19,0.18,-18.15,-18.12,208.21,208.27,0.0,0.0
1629642301.19985604,110028471,0.18,0.17,-18.19,-18.17,208.22,208.27,0.0,0.0
1629642301.29981613,110128431,0.19,0.15,-18.23,-18.22,208.22,208.28,0.0,0.0
1629642301.39977598,110228391,0.21,0.16,-18.26,-18.27,208.23,208.29,0.0,0.0
1629642301.49973607,110328351,0.2,0.16,-18.27,-18.31,208.23,208.29,0.0,0.0
1629642301.59969616,110428311,0.2,0.16,-18.26,-18.31,208.24,208.29,0.0,0.0
1629642301.69965601,110528271,0.2,0.16,-18.23,-18.27,208.24,208.3,0.0,0.0
1629642301.79961610,110628231,0.19,0.15,-18.23,-18.26,208.25,208.3,0.0,0.0
1629642301.89957595,110728191,0.17,0.15,-18.23,-18.25,208.25,208.31,0.0,0.0
1629642302.00036907,110828984,0.16,0.13,-18.23,-18.24,208.25,208.31,0.0,0.0
1629642302.10032916,110928944,0.14,0.12,-18.21,-18.22,208.25,208.31,0.0,0.0
1629642302.20028901,111028904,0.14,0.11,-18.19,-18.2,208.25,208.31,0.0,0.0
1629642302.30024910,111128864,0.15,0.11,-18.2,-18.2,208.25,208.31,0.0,0.0
1629642302.40020895,111228824,0.17,0.13,-18.22,-18.21,208.26,208.3,0.0,0.0
1629642302.50016904,111328784,0.18,0.15,-18.23,-18.23,208.26,208.3,0.0,0.0
1629642302.60012913,111428744,0.18,0.16,-18.23,-18.25,208.26,208.3,0.0,0.0
1629642302.70008898,111528704,0.16,0.15,-18.23,-18.24,208.26,208.31,0.0,0.0
1629642302.80004907,111628664,0.13,0.13,-18.22,-18.23,208.26,208.31,0.0,0.0
1629642302.90000916,111728624,0.14,0.13,-18.21,-18.21,208.26,208.31,0.0,0.0
1629642302.99996901,111828584,0.16,0.14,-18.2,-18.21,208.26,208.32,0.0,0.0
1629642303.09992909,111928544,0.16,0.15,-18.21,-18.2,208.27,208.32,0.0,0.0
1629642303.19988894,112028504,0.15,0.13,-18.24,-18.23,208.27,208.32,0.0,0.0
1629642303.29984903,112128464,0.16,0.12,-18.26,-18.27,208.27,208.33,0.0,0.0
1629642303.39980912,112228424,0.18,-0.85,-18.27,-19.28,208.27,208.33,0.0,0.0
1629642303.49976897,112328384,0.29,-7.42,-18.53,-25.82,208.27,208.85,0.0,0.0
1629642303.59972906,112428344,1.13,-14.37,-18.11,-32.36,208.3,210.3,0.0,0.02
1629642303.69968915,112528304,3.56,-17.87,-15.93,-35.5,208.37,211.41,0.0,0.03
1629642303.79964900,112628264,7.67,-16.28,-11.97,-34.53,208.53,211.06,0.0,0.02
1629642303.89960909,112728224,12.26,-10.87,-7.05,-30.21,208.81,209.76,0.01,0.02
1629642303.99956894,112828184,15.78,-4.18,-2.65,-23.94,209.18,208.59,0.01,0.03
1629642304.10036206,112928977,17.49,1.43,-0.06,-17.63,209.62,207.96,0.0,0.03
1629642304.20032215,113028937,17.53,4.71,0.34,-13.11,210.09,207.58,0.0,0.04
1629642304.30028200,113128897,16.52,5.72,-0.9,-11.07,210.54,207.21,0.01,0.03
1629642304.40024209,113228857,15.21,5.3,-2.87,-11.13,210.95,206.96,0.01,0.03
1629642304.50020194,113328817,14.08,4.43,-4.84,-12.35,211.32,207.08,0.01,0.02
1629642304.60016203,113428777,13.28,3.78,-6.4,-13.85,211.64,207.68,0.01,0.02
1629642304.70012212,113528737,12.77,3.62,-7.47,-15.05,211.92,208.68,0.01,0.02
1629642304.80008197,113628697,12.34,3.84,-8.12,-15.73,212.16,209.9,0.01,0.01
1629642304.90004206,113728657,11.83,4.19,-8.52,-15.94,212.36,211.17,0.01,0.01
1629642305.00000215,113828617,11.17,4.41,-8.86,-15.84,212.52,212.31,0.01,0.01
1629642305.09996200,113928577,10.34,4.39,-9.21,-15.62,212.63,213.22,0.01,0.01
1629642305.19992208,114028537,9.4,4.1,-9.61,-15.41,212.7,213.82,0.01,0.01
1629642305.29988194,114128497,8.45,3.64,-10.08,-15.27,212.72,214.11,0.0,0.01
1629642305.39984202,114228457,7.62,3.15,-10.59,-15.23,212.7,214.13,0.0,0.01
1629642305.49980211,114328417,6.93,2.77,-11.08,-15.26,212.64,213.92,0.0,0.01
1629642305.59976196,114428377,6.36,2.52,-11.55,-15.31,212.55,213.56,0.0,0.0
1629642305.69972205,114528337,5.9,2.41,-12.01,-15.37,212.42,213.11,0.0,0.0
1629642305.79968214,114628297,5.47,2.37,-12.42,-15.44,212.27,212.62,0.0,0.0
1629642305.89964199,114728257,5.07,2.34,-12.8,-15.51,212.1,212.14,0.0,0.0
1629642305.99960208,114828217,4.64,2.27,-13.17,-15.6,211.91,211.7,0.0,0.0
1629642306.09956217,114928177,4.22,2.15,-13.51,-15.69,211.7,211.32,0.0,0.0
1629642306.20035505,115028970,3.81,1.98,-13.84,-15.8,211.48,211.02,0.0,0.0
1629642306.30031514,115128930,3.44,1.78,-14.19,-15.93,211.25,210.78,0.0,0.0
1629642306.40027499,115228890,3.08,1.58,-14.52,-16.09,211.01,210.59,0.0,0.0
1629642306.50023508,115328850,2.77,1.38,-14.83,-16.25,210.76,210.45,0.0,0.0
1629642306.60019493,115428810,2.47,1.2,-15.12,-16.42,210.51,210.33,0.0,0.0
1629642306.70015502,115528770,2.19,1.02,-15.38,-16.58,210.26,210.21,0.0,0.0
1629642306.80011511,115628730,1.9,0.82,-15.63,-16.74,210.02,210.08,0.0,0.0
1629642306.90007496,115728690,1.64,0.64,-15.83,-16.86,209.77,209.93,0.0,0.0
1629642307.00003505,115828650,1.45,0.5,-16.02,-16.95,209.53,209.75,0.0,0.0
1629642307.09999514,115928610,1.32,0.42,-16.22,-17.04,209.3,209.54,0.0,0.0
1629642307.19995499,116028570,1.19,0.38,-16.41,-17.14,209.08,209.31,0.0,0.0
1629642307.29991508,116128530,1.05,0.34,-16.6,-17.26,208.86,209.06,0.0,0.0
1629642307.39987516,116228490,0.96,0.32,-16.79,-17.38,208.66,208.8,0.0,0.0
1629642307.49983501,116328450,0.88,0.32,-16.92,-17.47,208.46,208.54,0.0,0.0
1629642307.59979510,116428410,0.79,0.31,-17.04,-17.54,208.28,208.29,0.0,0.0
1629642307.69975495,116528370,0.71,0.3,-17.17,-17.61,208.1,208.06,0.0,0.0
1629642307.79971504,116628330,0.67,0.3,-17.29,-17.68,207.94,207.84,0.0,0.0
1629642307.89967513,116728290,0.64,0.32,-17.39,-17.74,207.78,207.65,0.0,0.0
1629642307.99963498,116828250,0.59,0.32,-17.48,-17.8,207.64,207.49,0.0,0.0
1629642308.09959507,116928210,0.55,0.32,-17.57,-17.85,207.5,207.35,0.0,0.0
1629642308.19955516,117028170,0.5,0.31,-17.68,-17.92,207.38,207.23,0.0,0.0
1629642308.30034804,117128963,0.48,0.29,-17.75,-17.98,207.26,207.14,0.0,0.0
1629642308.40030813,117228923,0.44,0.27,-17.82,-18.03,207.15,207.05,0.0,0.0
1629642308.50026798,117328883,0.42,0.26,-17.91,-18.09,207.05,206.98,0.0,0.0
1629642308.60022807,117428843,0.4,0.24,-18.0,-18.17,206.96,206.91,0.0,0.0
1629642308.70018816,117528803,0.36,0.22,-18.02,-18.2,206.88,206.86,0.0,0.0
1629642308.80014801,117628763,0.34,0.21,-18.06,-18.21,206.81,206.8,0.0,0.0
1629642308.90010810,117728723,0.33,0.2,-18.1,-18.23,206.74,206.75,0.0,0.0
1629642309.00006795,117828683,0.31,0.19,-18.15,-18.26,206.69,206.69,0.0,0.0
1629642309.10002804,117928643,0.29,0.18,-18.2,-18.3,206.64,206.64,0.0,0.0
1629642309.19998813,118028603,0.29,0.19,-18.25,-18.34,206.59,206.59,0.0,0.0
1629642309.29994798,118128563,0.3,0.21,-18.26,-18.36,206.56,206.55,0.0,0.0
1629642309.39990807,118228523,0.32,0.23,-18.27,-18.37,206.53,206.51,0.0,0.0
1629642309.49986815,118328483,0.33,0.27,-18.28,-18.37,206.51,206.48,0.0,0.0
1629642309.59982800,118428443,0.35,0.3,-18.3,-18.38,206.49,206.45,0.0,0.0
1629642309.69978809,118528403,0.35,0.32,-18.33,-18.39,206.48,206.43,0.0,0.0
1629642309.79974794,118628363,0.34,0.32,-18.34,-18.4,206.47,206.42,0.0,0.0
1629642309.89970803,118728323,0.33,0.31,-18.33,-18.4,206.46,206.42,0.0,0.0
1629642309.99966812,118828283,0.3,0.28,-18.32,-18.37,206.46,206.42,0.0,0.0
1629642310.09962797,118928243,0.31,0.27,-18.33,-18.36,206.47,206.43,0.0,0.0
1629642310.19958806,119028203,0.3,0.27,-18.36,-18.37,206.48,206.45,0.0,0.0
1629642310.29954815,119128163,0.27,0.26,-18.39,-18.4,206.48,206.46,0.0,0.0
1629642310.40034103,119228956,0.25,0.23,-18.41,-18.42,206.5,206.48,0.0,0.0
1629642310.50030112,119328916,0.26,0.23,-18.37,-18.42,206.51,206.51,0.0,0.0
1629642310.60026097,119428876,0.32,0.26,-18.33,-18.38,206.53,206.53,0.0,0.0
1629642310.70022106,119528836,0.38,0.32,-18.35,-18.37,206.56,206.55,0.0,0.0
1629642310.80018115,119628796,0.39,0.37,-18.37,-18.39,206.58,206.58,0.0,0.0
1629642310.90014100,119728756,0.39,0.4,-18.38,-18.41,206.61,206.61,0.0,0.0
1629642311.00010109,119828716,0.39,0.4,-18.34,-18.39,206.64,206.64,0.0,0.0
1629642311.10006094,119928676,0.39,0.39,-18.32,-18.37,206.67,206.67,0.0,0.0
1629642311.20002103,120028636,0.41,0.4,-18.33,-18.35,206.71,206.7,0.0,0.0
1629642311.29998112,120128596,0.41,0.4,-18.36,-18.35,206.74,206.74,0.0,0.0
1629642311.39994097,120228556,0.39,0.39,-18.4,-18.38,206.78,206.78,0.0,0.0
1629642311.49990106,120328516,0.39,0.38,-18.43,-18.42,206.82,206.81,0.0,0.0
1629642311.59986115,120428476,0.41,0.38,-18.42,-18.44,206.86,206.85,0.0,0.0
1629642311.69982100,120528436,0.45,0.42,-18.4,-18.43,206.9,206.89,0.0,0.0
1629642311.79978108,120628396,0.48,0.46,-18.39,-18.41,206.94,206.93,0.0,0.0
1629642311.89974093,120728356,0.46,0.48,-18.41,-18.41,206.98,206.98,0.0,0.0
1629642311.99970102,120828316,0.43,0.46,-18.43,-18.43,207.02,207.02,0.0,0.0
1629642312.09966111,120928276,0.42,0.44,-18.42,-18.44,207.06,207.06,0.0,0.0
1629642312.19962096,121028236,0.43,0.43,-18.43,-18.45,207.1,207.1,0.0,0.0
1629642312.29958105,121128196,0.42,0.42,-18.42,-18.45,207.14,207.15,0.0,0.0
1629642312.39954114,121228156,0.4,0.39,-18.4,-18.45,207.18,207.19,0.0,0.0
1629642312.50033402,121328949,0.38,0.36,-18.38,-18.42,207.22,207.23,0.0,0.0
1629642312.60029411,121428909,0.38,0.34,-18.37,-18.4,207.26,207.28,0.0,0.0
1629642312.70025396,121528869,0.39,0.35,-18.37,-18.38,207.29,207.31,0.0,0.0
1629642312.80021405,121628829,0.42,0.36,-18.38,-18.38,207.33,207.35,0.0,0.0
1629642312.90017414,121728789,0.46,0.41,-18.4,-18.39,207.37,207.39,0.0,0.0
1629642313.00013399,121828749,0.48,0.45,-18.41,-18.41,207.41,207.42,0.0,0.0
1629642313.10009408,121928709,0.46,0.46,-18.43,-18.43,207.44,207.46,0.0,0.0
1629642313.20005417,122028669,0.45,0.45,-18.45,-18.45,207.48,207.49,0.0,0.0
1629642313.30001402,122128629,0.42,0.44,-18.46,-18.48,207.52,207.53,0.0,0.0
1629642313.39997411,122228589,0.39,0.4,-18.45,-18.48,207.55,207.56,0.0,0.0
1629642313.49993396,122328549,0.38,0.38,-18.44,-18.46,207.58,207.6,0.0,0.0
1629642313.59989405,122428509,0.41,0.37,-18.4,-18.44,207.61,207.63,0.0,0.0
1629642313.69985414,122528469,0.43,0.39,-18.36,-18.39,207.64,207.67,0.0,0.0
1629642313.79981399,122628429,0.45,0.42,-18.36,-18.36,207.68,207.7,0.0,0.0
1629642313.89977407,122728389,0.43,0.43,-18.4,-18.37,207.7,207.73,0.0,0.0
1629642313.99973416,122828349,0.41,0.41,-18.43,-18.4,207.73,207.76,0.0,0.0
1629642314.09969401,122928309,0.37,0.38,-18.45,-18.44,207.76,207.78,0.0,0.0
1629642314.19965410,123028269,0.32,0.32,-18.45,-18.47,207.78,207.81,0.0,0.0
1629642314.29961395,123128229,0.34,0.3,-18.44,-18.47,207.81,207.83,0.0,0.0
1629642314.39957404,123228189,0.37,0.32,-18.41,-18.45,207.83,207.85,0.0,0.0
1629642314.50036716,123328982,0.4,0.36,-18.4,-18.43,207.85,207.87,0.0,0.0
1629642314.60032701,123428942,0.41,0.39,-18.4,-18.42,207.87,207.89,0.0,0.0
1629642314.70028710,123528902,0.43,0.42,-18.39,-18.41,207.89,207.91,0.0,0.0
1629642314.80024695,123628862,0.47,0.45,-18.4,-18.41,207.92,207.93,0.0,0.0
1629642314.90020704,123728822,0.46,0.47,-18.41,-18.42,207.94,207.94,0.0,0.0
1629642315.00016713,123828782,0.42,0.45,-18.39,-18.41,207.96,207.97,0.0,0.0
1629642315.10012698,123928742,0.38,0.41,-18.37,-18.39,207.98,207.99,0.0,0.0
1629642315.20008707,124028702,0.35,0.36,-18.37,-18.38,208.0,208.0,0.0,0.0
1629642315.30004716,124128662,0.35,0.34,-18.35,-18.36,208.01,208.03,0.0,0.0
1629642315.40000701,124228622,0.36,0.34,-18.36,-18.36,208.03,208.05,0.0,0.0
1629642315.49996710,124328582,0.37,0.35,-18.38,-18.38,208.04,208.06,0.0,0.0
1629642315.59992695,124428542,0.35,0.34,-18.38,-18.39,208.06,208.08,0.0,0.0
1629642315.69988704,124528502,0.37,0.35,-18.36,-18.38,208.07,208.1,0.0,0.0
1629642315.79984713,124628462,0.38,0.36,-18.34,-18.36,208.09,208.11,0.0,0.0
1629642315.89980698,124728422,0.4,0.37,-18.31,-18.33,208.1,208.12,0.0,0.0
1629642315.99976707,124828382,0.45,0.41,-18.3,-18.32,208.12,208.13,0.0,0.0
1629642316.09972715,124928342,0.46,0.45,-18.3,-18.3,208.13,208.14,0.0,0.0
1629642316.19968700,125028302,0.45,0.45,-18.3,-18.29,208.15,208.15,0.0,0.0
1629642316.29964709,125128262,0.43,0.44,-18.3,-18.29,208.16,208.17,0.0,0.0
1629642316.39960694,125228222,0.42,0.42,-18.32,-18.31,208.17,208.18,0.0,0.0
