timestamp,TimeUS,DesRoll,Roll,DesPitch,Pitch,DesYaw,Yaw,ErrRP,ErrYaw
1629645029.79999995,44228968,0.0,0.09,0.0,0.08,352.87,352.88,0.0,0.0
1629645029.89996004,44328928,0.0,0.09,0.0,0.08,352.87,352.88,0.0,0.0
1629645029.99992013,44428888,0.0,0.09,0.0,0.07,352.87,352.88,0.0,0.0
1629645030.09987998,44528848,0.0,0.09,0.0,0.07,352.87,352.88,0.0,0.0
1629645030.19984007,44628808,0.0,0.09,0.0,0.07,352.87,352.88,0.0,0.0
1629645030.29980016,44728768,0.0,0.09,0.0,0.07,352.87,352.88,0.0,0.0
1629645030.39976001,44828728,0.0,0.09,0.0,0.07,352.87,352.88,0.0,0.0
1629645030.49972010,44928688,0.0,0.09,0.0,0.07,352.87,352.88,0.0,0.0
1629645030.59967995,45028648,0.0,0.09,0.0,0.07,352.87,352.88,0.0,0.0
1629645030.69964004,45128608,0.0,0.09,0.0,0.07,352.87,352.88,0.0,0.0
1629645030.79960012,45228568,0.0,0.09,0.0,0.07,352.87,352.88,0.0,0.0
1629645030.89955997,45328528,0.0,0.09,0.0,0.07,352.87,352.88,0.0,0.0
1629645030.99952006,45428488,0.0,0.09,0.0,0.07,352.87,352.88,0.0,0.0
1629645031.09948015,45528448,0.0,0.09,0.0,0.07,352.87,352.88,0.0,0.0
1629645031.19944000,45628408,0.0,0.08,0.0,0.07,352.87,352.88,0.0,0.0
1629645031.29940009,45728368,0.0,0.08,0.0,0.07,352.87,352.88,0.0,0.0
1629645031.39935994,45828328,0.0,0.08,0.0,0.07,352.87,352.88,0.0,0.0
1629645031.49932003,45928288,0.0,0.08,0.0,0.07,352.87,352.88,0.0,0.0
1629645031.59928012,46028248,0.0,0.08,0.0,0.07,352.87,352.88,0.0,0.0
1629645031.69923997,46128208,0.0,0.08,0.0,0.07,352.87,352.88,0.0,0.0
1629645031.79920006,46228168,0.0,0.08,0.0,0.07,352.87,352.88,0.0,0.0
1629645031.89999294,46328961,0.0,0.08,0.0,0.07,352.87,352.88,0.0,0.0
1629645031.99995303,46428921,0.0,0.08,0.0,0.07,352.87,352.88,0.0,0.0
1629645032.09991312,46528881,0.0,0.08,0.0,0.07,352.87,352.88,0.0,0.0
1629645032.19987297,46628841,0.0,0.08,0.0,0.07,352.87,352.88,0.0,0.0
1629645032.29983306,46728801,0.0,0.08,0.0,0.06,352.87,352.88,0.0,0.0
1629645032.39979315,46828761,0.0,0.08,0.0,0.06,352.87,352.88,0.0,0.0
1629645032.49975300,46928721,0.0,0.08,0.0,0.06,352.87,352.88,0.0,0.0
1629645032.59971309,47028681,0.0,0.08,0.0,0.06,352.87,352.88,0.0,0.0
1629645032.69967294,47128641,-0.02,0.08,-0.02,0.06,352.87,352.88,0.0,0.0
1629645032.79963303,47228601,-0.04,0.08,-0.05,0.06,352.87,352.88,0.0,0.0
1629645032.89959311,47328561,-0.03,0.08,-0.04,0.06,352.87,352.88,0.0,0.0
1629645032.99955297,47428521,-0.07,0.08,-0.09,0.06,352.87,352.88,0.0,0.0
1629645033.09951305,47528481,-0.13,0.08,-0.14,0.06,352.87,352.88,0.0,0.0
1629645033.19947314,47628441,-0.17,0.08,-0.18,0.06,352.87,352.88,0.0,0.0
1629645033.29943299,47728401,-0.2,0.08,-0.2,0.06,352.87,352.88,0.0,0.0
1629645033.39939308,47828361,-0.22,0.08,-0.23,0.06,352.87,352.88,0.0,0.0
1629645033.49935293,47928321,-0.22,0.08,-0.25,0.06,352.87,352.88,0.0,0.0
1629645033.59931302,48028281,-0.23,0.08,-0.25,0.06,352.87,352.88,0.0,0.0
1629645033.69927311,48128241,-0.25,0.08,-0.26,0.06,352.87,352.89,0.0,0.0
1629645033.79923296,48228201,-0.27,0.08,-0.27,0.06,352.87,352.89,0.0,0.0
1629645033.89919305,48328161,-0.29,0.08,-0.27,0.06,352.87,352.89,0.0,0.0
1629645033.99998593,48428954,-0.3,0.08,-0.27,0.06,352.87,352.89,0.0,0.0
1629645034.09994602,48528914,-0.3,0.08,-0.28,0.06,352.87,352.89,0.0,0.0
1629645034.19990611,48628874,-0.31,0.08,-0.32,0.06,352.87,352.89,0.0,0.0
1629645034.29986596,48728834,-0.33,0.04,-0.34,0.03,352.87,352.89,0.0,0.0
1629645034.39982605,48828794,-0.34,-0.16,-0.38,-0.18,352.87,352.89,0.0,0.0
1629645034.49978614,48928754,-0.31,-0.4,-0.4,-0.45,352.87,352.89,0.0,0.0
1629645034.59974599,49028714,-0.23,-0.52,-0.35,-0.62,352.87,352.89,0.0,0.0
1629645034.69970608,49128674,-0.09,-0.5,-0.22,-0.63,352.87,352.89,0.0,0.0
1629645034.79966617,49228634,0.08,-0.36,-0.04,-0.5,352.87,352.88,0.0,0.0
1629645034.89962602,49328594,0.23,-0.17,0.11,-0.3,352.87,352.88,0.0,0.0
1629645034.99958611,49428554,0.32,0.0,0.21,-0.11,352.87,352.88,0.0,0.0
1629645035.09954596,49528514,0.36,0.13,0.24,0.02,352.87,352.88,0.0,0.0
1629645035.19950604,49628474,0.36,0.18,0.24,0.07,352.87,352.88,0.0,0.0
1629645035.29946613,49728434,0.33,0.19,0.24,0.08,352.87,352.87,0.0,0.0
1629645035.39942598,49828394,0.28,0.14,0.28,0.1,352.87,352.87,0.0,0.0
1629645035.49938607,49928354,0.26,0.1,0.34,0.16,352.87,352.87,0.0,0.0
1629645035.59934616,50028314,0.28,0.09,0.36,0.21,352.87,352.87,0.0,0.0
1629645035.69930601,50128274,0.31,0.12,0.33,0.22,352.87,352.87,0.0,0.0
1629645035.79926610,50228234,0.33,0.15,0.29,0.2,352.87,352.87,0.0,0.0
1629645035.89922595,50328194,0.35,0.19,0.24,0.16,352.87,352.88,0.0,0.0
1629645035.99918604,50428154,0.34,0.22,0.18,0.09,352.77,352.78,0.0,0.0
1629645036.09997916,50528947,0.34,0.24,0.14,0.04,352.77,352.78,0.0,0.0
1629645036.19993901,50628907,0.31,0.23,0.15,0.02,352.77,352.78,0.0,0.0
1629645036.29989910,50728867,0.28,0.21,0.19,0.05,352.77,352.78,0.0,0.0
1629645036.39985895,50828827,0.25,0.18,0.27,0.13,352.77,352.78,0.0,0.0
1629645036.49981904,50928787,0.27,0.18,0.33,0.23,352.77,352.79,0.0,0.0
1629645036.59977913,51028747,0.93,0.36,-1.71,-0.22,352.77,352.79,0.0,0.0
1629645036.69973898,51128707,2.46,1.63,-13.37,-6.84,352.77,352.69,0.0,0.0
1629645036.79969907,51228667,2.84,2.8,-20.57,-17.46,352.77,352.4,0.0,0.0
1629645036.89965916,51328627,2.46,3.12,-18.5,-22.18,352.77,352.38,0.0,0.01
1629645036.99961901,51428587,1.66,2.54,-13.07,-20.05,352.77,352.74,0.0,0.01
1629645037.09957910,51528547,0.85,1.49,-7.12,-13.63,352.77,353.15,0.0,0.01
1629645037.19953895,51628507,0.32,0.5,-2.72,-6.26,352.77,353.35,0.0,0.01
1629645037.29949903,51728467,0.12,-0.13,-0.67,-0.71,352.77,353.35,0.0,0.02
1629645037.39945912,51828427,0.17,-0.32,-0.57,1.85,352.77,353.26,0.0,0.02
1629645037.49941897,51928387,0.34,-0.18,-1.52,1.76,352.77,353.13,0.01,0.02
1629645037.59937906,52028347,0.47,0.1,-2.52,0.21,352.77,352.99,0.01,0.01
1629645037.69933915,52128307,0.48,0.34,-2.97,-1.49,352.77,352.85,0.01,0.01
1629645037.79929900,52228267,0.37,0.42,-2.64,-2.46,352.77,352.72,0.01,0.01
1629645037.89925909,52328227,0.22,0.34,-1.7,-2.37,352.77,352.62,0.01,0.01
1629645037.99921894,52428187,0.07,0.17,-0.54,-1.44,352.77,352.56,0.01,0.0
1629645038.10001206,52528980,-0.04,0.0,0.48,-0.15,352.77,352.52,0.01,0.0
1629645038.19997215,52628940,-0.14,-0.14,1.18,1.01,352.77,352.52,0.01,0.0
1629645038.29993200,52728900,-0.18,-0.25,1.54,1.8,352.77,352.54,0.0,0.0
1629645038.39989209,52828860,-0.16,-0.26,1.62,2.11,352.77,352.58,0.0,0.0
1629645038.49985194,52928820,-0.14,-0.22,1.58,2.08,352.77,352.64,0.0,0.0
1629645038.59981203,53028780,-0.13,-0.18,1.49,1.88,352.77,352.7,0.0,0.0
1629645038.69977212,53128740,-0.11,-0.14,1.42,1.64,352.77,352.75,0.0,0.0
1629645038.79973197,53228700,-0.12,-0.12,1.42,1.46,352.77,352.8,0.0,0.0
1629645038.89969206,53328660,-0.14,-0.12,1.48,1.4,352.77,352.84,0.0,0.0
1629645038.99965215,53428620,-0.15,-0.14,1.56,1.44,352.77,352.86,0.0,0.0
1629645039.09961200,53528580,-0.14,-0.15,1.66,1.54,352.77,352.87,0.0,0.0
1629645039.19957209,53628540,-0.14,-0.15,1.72,1.65,352.77,352.88,0.0,0.0
1629645039.29953194,53728500,-0.09,-0.13,1.71,1.7,352.77,352.87,0.0,0.0
1629645039.39949203,53828460,-0.05,-0.08,1.66,1.69,352.77,352.85,0.0,0.0
1629645039.49945211,53928420,-0.01,-0.04,1.55,1.61,352.77,352.83,0.0,0.0
1629645039.59941196,54028380,0.0,-0.01,1.41,1.47,352.77,352.81,0.0,0.0
1629645039.69937205,54128340,-0.02,0.0,1.27,1.31,352.77,352.79,0.0,0.0
1629645039.79933214,54228300,-0.05,-0.04,1.14,1.14,352.77,352.77,0.0,0.0
1629645039.89929199,54328260,-0.07,-0.06,1.03,1.0,352.77,352.76,0.0,0.0
1629645039.99925208,54428220,-0.05,-0.07,0.97,0.9,352.77,352.75,0.0,0.0
1629645040.09921193,54528180,0.0,-0.04,0.94,0.85,352.77,352.75,0.0,0.0
1629645040.20000505,54628973,0.02,0.0,0.87,0.82,352.77,352.75,0.0,0.0
1629645040.29996514,54728933,0.04,0.03,0.75,0.74,352.77,352.76,0.0,0.0
1629645040.39992499,54828893,0.09,0.08,0.65,0.64,352.77,352.76,0.0,0.0
1629645040.49988508,54928853,0.1,0.11,0.56,0.55,352.77,352.77,0.0,0.0
1629645040.59984493,55028813,0.09,0.12,0.48,0.46,352.77,352.78,0.0,0.0
1629645040.69980502,55128773,0.05,0.09,0.41,0.39,352.77,352.78,0.0,0.0
1629645040.79976511,55228733,0.02,0.05,0.33,0.32,352.77,352.79,0.0,0.0
1629645040.89972496,55328693,0.02,0.02,0.3,0.27,352.77,352.79,0.0,0.0
1629645040.99968505,55428653,0.05,0.02,0.31,0.27,352.77,352.78,0.0,0.0
1629645041.09964514,55528613,0.09,0.06,0.26,0.25,352.77,352.78,0.0,0.0
1629645041.19960499,55628573,0.12,0.11,0.21,0.21,352.77,352.77,0.0,0.0
1629645041.29956508,55728533,0.11,0.13,0.15,0.16,352.77,352.77,0.0,0.0
1629645041.39952517,55828493,0.09,0.11,0.11,0.1,352.77,352.77,0.0,0.0
1629645041.49948502,55928453,0.1,0.09,0.08,0.05,352.77,352.77,0.0,0.0
1629645041.59944510,56028413,0.11,0.1,0.06,0.03,352.77,352.77,0.0,0.0
1629645041.69940495,56128373,0.12,0.11,0.05,0.02,352.77,352.76,0.0,0.0
1629645041.79936504,56228333,0.13,0.11,0.01,0.0,352.77,352.76,0.0,0.0
1629645041.89932513,56328293,0.13,0.12,0.0,-0.02,352.77,352.77,0.0,0.0
1629645041.99928498,56428253,0.11,0.1,0.0,-0.01,352.77,352.77,0.0,0.0
1629645042.09924507,56528213,0.11,0.09,0.0,0.0,352.77,352.77,0.0,0.0
1629645042.19920516,56628173,0.13,0.1,-0.01,-0.01,352.77,352.77,0.0,0.0
1629645042.29999804,56728966,0.14,0.12,-0.03,-0.02,352.77,352.77,0.0,0.0
1629645042.39995813,56828926,0.15,0.14,-0.05,-0.02,352.77,352.77,0.0,0.0
1629645042.49991798,56928886,0.12,0.14,-0.05,-0.03,352.77,352.77,0.0,0.0
1629645042.59987807,57028846,0.11,0.12,-0.05,-0.04,352.77,352.77,0.0,0.0
1629645042.69983816,57128806,0.09,0.1,-0.03,-0.03,352.77,352.77,0.0,0.0
1629645042.79979801,57228766,0.08,0.08,-0.02,-0.02,352.77,352.77,0.0,0.0
1629645042.89975810,57328726,0.09,0.08,0.0,0.0,352.77,352.77,0.0,0.0
1629645042.99971795,57428686,0.08,0.07,0.03,0.02,352.77,352.77,0.0,0.0
1629645043.09967804,57528646,0.06,0.06,0.05,0.05,352.77,352.76,0.0,0.0
1629645043.19963813,57628606,0.06,0.04,0.04,0.07,352.77,352.76,0.0,0.0
1629645043.29959798,57728566,0.1,0.06,0.05,0.07,352.77,352.76,0.0,0.0
1629645043.39955807,57828526,0.11,0.1,0.07,0.07,352.77,352.76,0.0,0.0
1629645043.49951816,57928486,0.11,0.1,0.06,0.07,352.77,352.76,0.0,0.0
1629645043.59947801,58028446,0.09,0.1,0.04,0.05,352.77,352.76,0.0,0.0
1629645043.69943810,58128406,0.06,0.07,0.02,0.02,352.77,352.77,0.0,0.0
1629645043.79939795,58228366,0.04,0.04,0.01,0.0,352.77,352.77,0.0,0.0
1629645043.89935803,58328326,0.02,0.01,0.02,0.0,352.77,352.77,0.0,0.0
1629645043.99931812,58428286,0.03,0.01,0.03,0.01,352.77,352.76,0.0,0.0
1629645044.09927797,58528246,0.05,0.02,0.04,0.03,352.77,352.76,0.0,0.0
1629645044.19923806,58628206,0.05,0.03,0.05,0.04,352.77,352.76,0.0,0.0
1629645044.29919815,58728166,0.06,0.05,0.07,0.06,352.77,352.76,0.0,0.0
1629645044.39999104,58828959,0.06,0.06,0.07,0.08,352.77,352.76,0.0,0.0
1629645044.49995112,58928919,0.07,0.07,0.04,0.07,352.77,352.76,0.0,0.0
1629645044.59991097,59028879,0.09,0.08,0.0,0.04,352.77,352.76,0.0,0.0
1629645044.69987106,59128839,0.12,0.1,-0.02,0.0,352.77,352.76,0.0,0.0
1629645044.79983115,59228799,0.13,0.12,-0.03,-0.03,352.77,352.76,0.0,0.0
1629645044.89979100,59328759,0.15,0.14,0.0,-0.04,352.77,352.77,0.0,0.0
1629645044.99975109,59428719,0.15,0.16,0.03,-0.01,352.77,352.76,0.0,0.0
1629645045.09971094,59528679,0.14,0.15,0.04,0.01,352.77,352.77,0.0,0.0
1629645045.19967103,59628639,0.13,0.14,0.05,0.02,352.77,352.77,0.0,0.0
1629645045.29963112,59728599,0.09,0.11,0.04,0.03,352.77,352.77,0.0,0.0
1629645045.39959097,59828559,0.07,0.08,0.03,0.03,352.77,352.77,0.0,0.0
1629645045.49955106,59928519,0.07,0.06,0.02,0.04,352.77,352.77,0.0,0.0
1629645045.59951115,60028479,0.1,0.06,0.0,0.03,352.77,352.77,0.0,0.0
1629645045.69947100,60128439,0.09,0.08,-0.01,0.0,352.77,352.77,0.0,0.0
1629645045.79943109,60228399,0.09,0.08,0.0,0.0,352.77,352.77,0.0,0.0
1629645045.89939094,60328359,0.09,0.08,0.04,0.01,352.77,352.77,0.0,0.0
1629645045.99935102,60428319,0.09,0.08,0.06,0.05,352.77,352.77,0.0,0.0
1629645046.09931111,60528279,0.08,0.08,0.07,0.08,352.77,352.77,0.0,0.0
1629645046.19927096,60628239,0.07,0.07,0.05,0.08,352.77,352.77,0.0,0.0
1629645046.29923105,60728199,0.09,0.07,0.02,0.05,352.77,352.77,0.0,0.0
1629645046.39919114,60828159,0.13,0.08,0.04,0.03,352.77,352.77,0.0,0.0
1629645046.49998403,60928952,0.13,0.11,0.02,0.02,352.77,352.77,0.0,0.0
1629645046.59994411,61028912,0.11,0.11,0.02,0.0,352.77,352.77,0.0,0.0
1629645046.69990396,61128872,0.08,0.1,0.03,0.01,352.77,352.77,0.0,0.0
1629645046.79986405,61228832,0.1,0.09,0.06,0.03,352.77,352.77,0.0,0.0
1629645046.89982414,61328792,0.12,0.11,0.08,0.06,352.77,352.77,0.0,0.0
1629645046.99978399,61428752,0.13,0.12,0.09,0.08,352.77,352.77,0.0,0.0
1629645047.09974408,61528712,0.12,0.13,0.08,0.08,352.77,352.77,0.0,0.0
1629645047.19970393,61628672,0.11,0.12,0.08,0.08,352.77,352.77,0.0,0.0
1629645047.29966402,61728632,0.13,0.13,0.09,0.08,352.77,352.77,0.0,0.0
1629645047.39962411,61828592,0.12,0.14,0.11,0.1,352.77,352.77,0.0,0.0
1629645047.49958396,61928552,0.14,0.14,0.1,0.09,352.77,352.77,0.0,0.0
1629645047.59954405,62028512,0.13,0.14,0.05,0.06,352.77,352.77,0.0,0.0
1629645047.69950414,62128472,0.09,0.11,0.03,0.02,352.77,352.77,0.0,0.0
1629645047.79946399,62228432,0.09,0.08,0.06,0.01,352.77,352.76,0.0,0.0
1629645047.89942408,62328392,0.13,0.1,0.09,0.05,352.77,352.76,0.0,0.0
1629645047.99938416,62428352,0.15,0.12,0.12,0.09,352.77,352.76,0.0,0.0
1629645048.09934402,62528312,0.15,0.14,0.14,0.12,352.77,352.76,0.0,0.0
1629645048.19930410,62628272,0.13,0.14,0.12,0.14,352.77,352.76,0.0,0.0
1629645048.29926395,62728232,0.08,0.1,0.08,0.11,352.77,352.77,0.0,0.0
1629645048.39922404,62828192,0.07,0.07,0.06,0.07,352.77,352.77,0.0,0.0
1629645048.50001717,62928985,0.07,0.05,0.06,0.05,352.77,352.77,0.0,0.0
1629645048.59997702,63028945,0.07,0.05,0.07,0.05,352.77,352.77,0.0,0.0
1629645048.69993711,63128905,0.05,0.05,0.09,0.07,352.77,352.77,0.0,0.0
1629645048.79989696,63228865,0.05,0.05,0.11,0.09,352.77,352.78,0.0,0.0
1629645048.89985704,63328825,0.03,0.03,0.15,0.13,352.77,352.78,0.0,0.0
1629645048.99981713,63428785,0.03,0.02,0.2,0.18,352.77,352.78,0.0,0.0
1629645049.09977698,63528745,0.05,0.04,0.2,0.21,352.77,352.78,0.0,0.0
1629645049.19973707,63628705,0.07,0.04,0.19,0.2,352.77,352.78,0.0,0.0
1629645049.29969716,63728665,0.09,0.06,0.18,0.19,352.77,352.78,0.0,0.0
1629645049.39965701,63828625,0.11,0.09,0.17,0.17,352.77,352.78,0.0,0.0
1629645049.49961710,63928585,0.12,0.12,0.15,0.15,352.77,352.77,0.0,0.0
1629645049.59957695,64028545,0.11,0.12,0.13,0.13,352.77,352.77,0.0,0.0
1629645049.69953704,64128505,0.11,0.11,0.15,0.12,352.77,352.77,0.0,0.0
1629645049.79949713,64228465,0.09,0.1,0.14,0.12,352.77,352.77,0.0,0.0
1629645049.89945698,64328425,0.08,0.08,0.11,0.1,352.77,352.76,0.0,0.0
1629645049.99941707,64428385,0.08,0.08,0.09,0.09,352.77,352.76,0.0,0.0
1629645050.09937716,64528345,0.08,0.07,0.08,0.07,352.77,352.76,0.0,0.0
1629645050.19933701,64628305,0.1,0.08,0.08,0.07,352.77,352.77,0.0,0.0
1629645050.29929709,64728265,0.12,0.11,0.08,0.07,352.77,352.77,0.0,0.0
1629645050.39925694,64828225,0.12,0.12,0.07,0.07,352.77,352.77,0.0,0.0
1629645050.49921703,64928185,0.14,0.12,0.06,0.06,352.77,352.77,0.0,0.0
1629645050.60001016,65028978,0.15,0.13,0.07,0.05,352.77,352.77,0.0,0.0
1629645050.69997001,65128938,0.16,0.13,0.09,0.07,352.77,352.77,0.0,0.0
1629645050.79993010,65228898,0.19,0.15,0.1,0.08,352.77,352.78,0.0,0.0
1629645050.89988995,65328858,0.17,0.17,0.11,0.1,352.77,352.78,0.0,0.0
1629645050.99985003,65428818,0.12,0.14,0.14,0.13,352.77,352.78,0.0,0.0
1629645051.09981012,65528778,0.08,0.1,0.17,0.16,352.77,352.78,0.0,0.0
1629645051.19976997,65628738,0.07,0.06,0.17,0.18,352.77,352.77,0.0,0.0
1629645051.29973006,65728698,0.08,0.05,0.13,0.16,352.77,352.77,0.0,0.0
1629645051.39969015,65828658,0.07,0.05,0.11,0.13,352.77,352.77,0.0,0.0
1629645051.49965000,65928618,0.08,0.06,0.09,0.11,352.77,352.77,0.0,0.0
1629645051.59961009,66028578,0.08,0.07,0.07,0.08,352.77,352.77,0.0,0.0
1629645051.69956994,66128538,0.07,0.07,0.04,0.04,352.77,352.77,0.0,0.0
1629645051.79953003,66228498,0.05,0.05,0.03,0.02,352.77,352.77,0.0,0.0
1629645051.89949012,66328458,0.04,0.03,0.06,0.02,352.77,352.77,0.0,0.0
1629645051.99944997,66428418,0.06,0.03,0.08,0.04,352.77,352.77,0.0,0.0
1629645052.09941006,66528378,0.07,0.04,0.11,0.06,352.77,352.77,0.0,0.0
1629645052.19937015,66628338,0.08,0.05,0.12,0.1,352.77,352.77,0.0,0.0
1629645052.29933000,66728298,0.07,0.06,0.12,0.11,352.77,352.77,0.0,0.0
1629645052.39929008,66828258,0.08,0.07,0.12,0.12,352.77,352.77,0.0,0.0
1629645052.49924994,66928218,0.08,0.09,0.09,0.1,352.77,352.77,0.0,0.0
1629645052.59921002,67028178,0.07,0.09,0.06,0.07,352.77,352.77,0.0,0.0
1629645052.70000315,67128971,0.05,0.07,0.05,0.05,352.77,352.77,0.0,0.0
1629645052.79996300,67228931,0.05,0.05,0.09,0.06,352.77,352.77,0.0,0.0
1629645052.89992309,67328891,0.1,0.08,0.12,0.1,352.77,352.77,0.0,0.0
1629645052.99988294,67428851,0.15,0.12,0.13,0.13,352.77,352.77,0.0,0.0
1629645053.09984303,67528811,0.19,0.17,0.12,0.14,352.77,352.77,0.0,0.0
1629645053.19980311,67628771,0.17,0.19,0.12,0.13,352.77,352.78,0.0,0.0
1629645053.29976296,67728731,0.17,0.18,0.12,0.12,352.77,352.78,0.0,0.0
1629645053.39972305,67828691,0.18,0.18,0.11,0.11,352.77,352.78,0.0,0.0
1629645053.49968314,67928651,0.16,0.17,0.09,0.09,352.77,352.78,0.0,0.0
1629645053.59964299,68028611,0.14,0.16,0.12,0.09,352.77,352.78,0.0,0.0
1629645053.69960308,68128571,0.1,0.13,0.13,0.1,352.77,352.78,0.0,0.0
1629645053.79956293,68228531,0.1,0.1,0.15,0.12,352.77,352.78,0.0,0.0
1629645053.89952302,68328491,0.13,0.1,0.16,0.15,352.77,352.78,0.0,0.0
1629645053.99948311,68428451,0.17,0.12,0.16,0.16,352.77,352.78,0.0,0.0
1629645054.09944296,68528411,0.19,0.16,0.16,0.17,352.77,352.78,0.0,0.0
1629645054.19940305,68628371,0.19,0.18,0.15,0.15,352.77,352.78,0.0,0.0
1629645054.29936314,68728331,0.18,0.18,0.11,0.13,352.77,352.78,0.0,0.0
1629645054.39932299,68828291,0.14,0.16,0.08,0.08,352.77,352.78,0.0,0.0
1629645054.49928308,68928251,0.14,0.14,0.08,0.06,352.77,352.77,0.0,0.0
1629645054.59924316,69028211,0.14,0.13,0.11,0.08,352.77,352.77,0.0,0.0
1629645054.69920301,69128171,0.14,0.14,0.12,0.11,352.77,352.77,0.0,0.0
1629645054.79999614,69228964,0.15,0.14,0.13,0.12,352.77,352.77,0.0,0.0
1629645054.89995599,69328924,0.15,0.15,0.16,0.15,352.77,352.77,0.0,0.0
1629645054.99991608,69428884,0.1,0.13,0.17,0.17,352.77,352.77,0.0,0.0
1629645055.09987617,69528844,0.08,0.1,0.15,0.17,352.77,352.77,0.0,0.0
1629645055.19983602,69628804,0.1,0.09,0.14,0.15,352.77,352.77,0.0,0.0
1629645055.29979610,69728764,0.13,0.11,0.12,0.14,352.77,352.77,0.0,0.0
1629645055.39975595,69828724,0.14,0.12,0.11,0.12,352.77,352.77,0.0,0.0
1629645055.49971604,69928684,0.13,0.12,0.14,0.13,352.77,352.77,0.0,0.0
1629645055.59967613,70028644,0.1,0.09,0.14,0.14,352.77,352.77,0.0,0.0
1629645055.69963598,70128604,0.09,0.07,0.1,0.11,352.77,352.77,0.0,0.0
1629645055.79959607,70228564,0.11,0.09,0.07,0.07,352.77,352.77,0.0,0.0
1629645055.89955616,70328524,0.16,0.13,0.05,0.04,352.77,352.77,0.0,0.0
1629645055.99951601,70428484,0.17,0.16,0.04,0.02,352.77,352.77,0.0,0.0
1629645056.09947610,70528444,0.14,0.16,0.05,0.01,352.77,352.77,0.0,0.0
1629645056.19943595,70628404,0.12,0.14,0.07,0.03,352.77,352.77,0.0,0.0
1629645056.29939604,70728364,0.1,0.11,0.06,0.04,352.77,352.77,0.0,0.0
1629645056.39935613,70828324,0.08,0.08,0.04,0.03,352.77,352.77,0.0,0.0
1629645056.49931598,70928284,0.08,0.08,0.05,0.03,352.77,352.77,0.0,0.0
1629645056.59927607,71028244,0.08,0.07,0.07,0.05,352.77,352.77,0.0,0.0
1629645056.69923615,71128204,0.06,0.07,0.09,0.07,352.77,352.77,0.0,0.0
1629645056.79919600,71228164,0.03,0.04,0.09,0.09,352.77,352.76,0.0,0.0
1629645056.89998913,71328957,0.03,0.03,0.08,0.08,352.77,352.76,0.0,0.0
1629645056.99994898,71428917,0.05,0.03,0.07,0.07,352.77,352.76,0.0,0.0
1629645057.09990907,71528877,0.09,0.05,0.07,0.06,352.77,352.77,0.0,0.0
1629645057.19986916,71628837,0.1,0.07,0.08,0.06,352.77,352.77,0.0,0.0
1629645057.29982901,71728797,0.13,0.1,0.1,0.08,352.77,352.77,0.0,0.0
1629645057.39978909,71828757,0.16,0.14,0.13,0.11,352.77,352.77,0.0,0.0
1629645057.49974895,71928717,0.13,0.15,0.14,0.14,352.77,352.77,0.0,0.0
1629645057.59970903,72028677,0.08,0.12,0.09,0.12,352.77,352.77,0.0,0.0
1629645057.69966912,72128637,0.05,0.07,0.06,0.08,352.77,352.77,0.0,0.0
1629645057.79962897,72228597,0.04,0.04,0.06,0.05,352.77,352.77,0.0,0.0
1629645057.89958906,72328557,0.04,0.02,0.07,0.05,352.77,352.77,0.0,0.0
1629645057.99954915,72428517,0.06,0.03,0.07,0.05,352.77,352.77,0.0,0.0
1629645058.09950900,72528477,0.08,0.06,0.08,0.07,352.77,352.77,0.0,0.0
1629645058.19946909,72628437,0.07,0.08,0.07,0.08,352.77,352.77,0.0,0.0
1629645058.29942894,72728397,0.02,0.06,0.1,0.09,352.77,352.77,0.0,0.0
1629645058.39938903,72828357,-0.02,0.0,0.12,0.11,352.77,352.77,0.0,0.0
1629645058.49934912,72928317,-0.04,-0.05,0.1,0.12,352.77,352.77,0.0,0.0
1629645058.59930897,73028277,0.01,-0.05,0.07,0.09,352.77,352.77,0.0,0.0
1629645058.69926906,73128237,0.05,0.0,0.07,0.07,352.77,352.78,0.0,0.0
1629645058.79922915,73228197,0.08,0.03,0.05,0.05,352.77,352.78,0.0,0.0
1629645058.89918900,73328157,0.09,0.08,0.04,0.03,352.77,352.78,0.0,0.0
1629645058.99998212,73428950,0.12,0.1,0.07,0.04,352.77,352.78,0.0,0.0
1629645059.09994197,73528910,0.13,0.13,0.1,0.07,352.77,352.78,0.0,0.0
1629645059.19990206,73628870,0.13,0.13,0.1,0.1,352.77,352.78,0.0,0.0
1629645059.29986215,73728830,0.16,0.15,0.08,0.1,352.77,352.78,0.0,0.0
1629645059.39982200,73828790,0.19,0.18,0.06,0.08,352.77,352.77,0.0,0.0
1629645059.49978209,73928750,0.18,0.19,0.06,0.06,352.77,352.77,0.0,0.0
1629645059.59974194,74028710,0.16,0.18,0.07,0.06,352.77,352.77,0.0,0.0
1629645059.69970202,74128670,0.16,0.15,0.09,0.07,352.77,352.77,0.0,0.0
1629645059.79966211,74228630,0.18,0.16,0.14,0.1,352.77,352.76,0.0,0.0
1629645059.89962196,74328590,0.19,0.18,0.14,0.12,352.77,352.76,0.0,0.0
1629645059.99958205,74428550,0.18,0.18,0.12,0.12,352.77,352.76,0.0,0.0
1629645060.09954214,74528510,0.18,0.18,0.09,0.11,352.77,352.76,0.0,0.0
1629645060.19950199,74628470,0.18,0.18,0.04,0.08,352.77,352.77,0.0,0.0
1629645060.29946208,74728430,0.19,0.18,0.02,0.04,352.77,352.77,0.0,0.0
1629645060.39942193,74828390,0.2,0.19,0.01,0.01,352.77,352.77,0.0,0.0
1629645060.49938202,74928350,0.16,0.19,0.0,0.0,352.77,352.77,0.0,0.0
1629645060.59934211,75028310,0.13,0.15,0.03,0.0,352.77,352.77,0.0,0.0
1629645060.69930196,75128270,0.13,0.13,0.05,0.02,352.77,352.77,0.0,0.0
1629645060.79926205,75228230,0.16,0.14,0.04,0.03,352.77,352.77,0.0,0.0
1629645060.89922214,75328190,0.18,0.16,0.06,0.04,352.77,352.77,0.0,0.0
1629645061.00001502,75428983,0.22,0.19,0.07,0.06,352.77,352.77,0.0,0.0
1629645061.09997511,75528943,0.25,0.23,0.07,0.08,352.77,352.77,0.0,0.0
1629645061.19993496,75628903,0.24,0.24,0.03,0.06,352.77,352.76,0.0,0.0
1629645061.29989505,75728863,0.2,0.22,0.04,0.04,352.77,352.76,0.0,0.0
1629645061.39985514,75828823,0.16,0.19,0.05,0.03,352.77,352.76,0.0,0.0
1629645061.49981499,75928783,0.17,0.16,0.06,0.04,352.77,352.76,0.0,0.0
1629645061.59977508,76028743,0.18,0.17,0.07,0.05,352.77,352.76,0.0,0.0
1629645061.69973516,76128703,0.16,0.17,0.09,0.07,352.77,352.76,0.0,0.0
1629645061.79969501,76228663,0.16,0.15,0.11,0.1,352.77,352.76,0.0,0.0
1629645061.89965510,76328623,0.17,0.16,0.09,0.1,352.77,352.76,0.0,0.0
1629645061.99961495,76428583,0.2,0.17,0.09,0.08,352.77,352.77,0.0,0.0
1629645062.09957504,76528543,0.2,0.19,0.11,0.09,352.77,352.77,0.0,0.0
1629645062.19953513,76628503,0.21,0.2,0.13,0.12,352.77,352.77,0.0,0.0
1629645062.29949498,76728463,0.19,0.19,0.13,0.13,352.77,352.77,0.0,0.0
1629645062.39945507,76828423,0.15,0.16,0.14,0.14,352.77,352.78,0.0,0.0
1629645062.49941516,76928383,0.12,0.12,0.17,0.15,352.77,352.78,0.0,0.0
1629645062.59937501,77028343,0.1,0.09,0.16,0.16,352.77,352.78,0.0,0.0
1629645062.69933510,77128303,0.13,0.09,0.16,0.16,352.77,352.78,0.0,0.0
1629645062.79929495,77228263,0.17,0.13,0.18,0.17,352.77,352.78,0.0,0.0
1629645062.89925504,77328223,0.21,0.19,0.18,0.18,352.77,352.77,0.0,0.0
1629645062.99921513,77428183,0.2,0.21,0.15,0.16,352.77,352.77,0.0,0.0
1629645063.10000801,77528976,0.16,0.18,0.16,0.15,352.77,352.77,0.0,0.0
1629645063.19996810,77628936,0.12,0.14,0.15,0.14,352.77,352.77,0.0,0.0
1629645063.29992795,77728896,0.11,0.11,0.13,0.12,352.77,352.77,0.0,0.0
1629645063.39988804,77828856,0.13,0.11,0.14,0.11,352.77,352.77,0.0,0.0
1629645063.49984813,77928816,0.13,0.11,0.18,0.14,352.77,352.77,0.0,0.0
1629645063.59980798,78028776,0.14,0.12,0.2,0.18,352.77,352.77,0.0,0.0
1629645063.69976807,78128736,0.14,0.12,0.17,0.2,352.77,352.77,0.0,0.0
1629645063.79972816,78228696,0.12,0.12,0.1,0.15,352.77,352.77,0.0,0.0
1629645063.89968801,78328656,0.08,0.1,0.04,0.09,352.77,352.78,0.0,0.0
1629645063.99964809,78428616,0.07,0.08,0.06,0.05,352.77,352.78,0.0,0.0
1629645064.09960794,78528576,0.08,0.07,0.11,0.07,352.77,352.78,0.0,0.0
1629645064.19956803,78628536,0.08,0.06,0.15,0.12,352.77,352.78,0.0,0.0
1629645064.29952812,78728496,0.07,0.06,0.18,0.16,352.77,352.77,0.0,0.0
1629645064.39948797,78828456,0.05,0.05,0.18,0.19,352.77,352.77,0.0,0.0
1629645064.49944806,78928416,0.06,0.05,0.16,0.17,352.77,352.77,0.0,0.0
1629645064.59940815,79028376,0.06,0.05,0.14,0.15,352.77,352.77,0.0,0.0
1629645064.69936800,79128336,0.08,0.06,0.12,0.12,352.77,352.77,0.0,0.0
1629645064.79932809,79228296,0.09,0.08,0.1,0.1,352.77,352.77,0.0,0.0
1629645064.89928794,79328256,0.07,0.07,0.1,0.08,352.77,352.77,0.0,0.0
1629645064.99924803,79428216,0.05,0.04,0.14,0.1,352.77,352.77,0.0,0.0
1629645065.09920812,79528176,0.04,0.03,0.16,0.13,352.77,352.76,0.0,0.0
1629645065.20000100,79628969,0.07,0.05,0.17,0.15,352.77,352.76,0.0,0.0
1629645065.29996109,79728929,0.11,0.08,0.15,0.16,352.77,352.77,0.0,0.0
1629645065.39992094,79828889,0.11,0.12,0.13,0.15,352.77,352.77,0.0,0.0
1629645065.49988103,79928849,0.07,0.11,0.1,0.13,352.77,352.76,0.0,0.0
1629645065.59984112,80028809,0.03,0.06,0.06,0.09,352.77,352.76,0.0,0.0
1629645065.69980097,80128769,0.01,0.02,0.05,0.05,352.77,352.76,0.0,0.0
1629645065.79976106,80228729,0.04,0.0,0.06,0.03,352.77,352.76,0.0,0.0
1629645065.89972115,80328689,0.08,0.02,0.09,0.04,352.77,352.76,0.0,0.0
1629645065.99968100,80428649,0.12,0.07,0.11,0.07,352.77,352.77,0.0,0.0
1629645066.09964108,80528609,0.15,0.12,0.09,0.08,352.77,352.77,0.0,0.0
1629645066.19960093,80628569,0.17,0.16,0.09,0.08,352.77,352.77,0.0,0.0
1629645066.29956102,80728529,0.2,0.19,0.11,0.1,352.77,352.77,0.0,0.0
1629645066.39952111,80828489,0.18,0.2,0.12,0.11,352.77,352.77,0.0,0.0
1629645066.49948096,80928449,0.16,0.19,0.13,0.12,352.77,352.77,0.0,0.0
1629645066.59944105,81028409,0.15,0.16,0.13,0.13,352.77,352.77,0.0,0.0
1629645066.69940114,81128369,0.15,0.15,0.12,0.13,352.77,352.77,0.0,0.0
1629645066.79936099,81228329,0.14,0.14,0.09,0.11,352.77,352.77,0.0,0.0
1629645066.89932108,81328289,0.13,0.14,0.07,0.09,352.77,352.77,0.0,0.0
1629645066.99928093,81428249,0.13,0.13,0.06,0.06,352.77,352.77,0.0,0.0
1629645067.09924102,81528209,0.15,0.14,0.07,0.06,352.77,352.77,0.0,0.0
1629645067.19920111,81628169,0.17,0.14,0.08,0.07,352.77,352.77,0.0,0.0
1629645067.29999399,81728962,0.17,0.15,0.11,0.09,352.77,352.77,0.0,0.0
1629645067.39995408,81828922,0.18,0.16,0.15,0.13,352.77,352.77,0.0,0.0
1629645067.49991393,81928882,0.16,0.15,0.18,0.17,352.77,352.77,0.0,0.0
1629645067.59987402,82028842,0.18,0.15,0.18,0.2,352.77,352.77,0.0,0.0
1629645067.69983411,82128802,0.15,0.15,0.16,0.2,352.77,352.77,0.0,0.0
1629645067.79979396,82228762,0.09,0.11,0.12,0.16,352.77,352.77,0.0,0.0
1629645067.89975405,82328722,0.09,0.08,0.09,0.11,352.77,352.77,0.0,0.0
1629645067.99971414,82428682,0.09,0.06,0.11,0.08,352.77,352.77,0.0,0.0
1629645068.09967399,82528642,0.09,0.05,0.16,0.11,352.77,352.77,0.0,0.0
1629645068.19963408,82628602,0.12,0.07,0.18,0.15,352.77,352.77,0.0,0.0
1629645068.29959416,82728562,0.15,0.11,0.21,0.18,352.77,352.77,0.0,0.0
1629645068.39955401,82828522,0.16,0.15,0.19,0.19,352.77,352.77,0.0,0.0
1629645068.49951410,82928482,0.17,0.18,0.15,0.18,352.77,352.77,0.0,0.0
1629645068.59947395,83028442,0.16,0.18,0.14,0.16,352.77,352.76,0.0,0.0
1629645068.69943404,83128402,0.1,0.15,0.13,0.14,352.77,352.76,0.0,0.0
1629645068.79939413,83228362,0.07,0.1,0.13,0.12,352.77,352.76,0.0,0.0
1629645068.89935398,83328322,0.07,0.07,0.14,0.12,352.77,352.76,0.0,0.0
1629645068.99931407,83428282,0.07,0.06,0.15,0.12,352.77,352.77,0.0,0.0
1629645069.09927416,83528242,0.07,0.06,0.17,0.14,352.77,352.77,0.0,0.0
1629645069.19923401,83628202,0.08,0.06,0.19,0.16,352.77,352.77,0.0,0.0
1629645069.29919410,83728162,0.09,0.07,0.2,0.17,352.77,352.77,0.0,0.0
1629645069.39998698,83828955,0.12,0.08,0.2,0.19,352.77,352.78,0.0,0.0
1629645069.49994707,83928915,0.14,0.11,0.18,0.19,352.77,352.78,0.0,0.0
1629645069.59990716,84028875,0.17,0.14,0.17,0.17,352.77,352.78,0.0,0.0
1629645069.69986701,84128835,0.2,0.18,0.15,0.15,352.77,352.78,0.0,0.0
1629645069.79982710,84228795,0.21,0.21,0.1,0.12,352.77,352.77,0.0,0.0
1629645069.89978695,84328755,0.18,0.21,0.09,0.09,352.77,352.77,0.0,0.0
1629645069.99974704,84428715,0.17,0.19,0.11,0.09,352.77,352.77,0.0,0.0
1629645070.09970713,84528675,0.14,0.16,0.1,0.09,352.77,352.77,0.0,0.0
1629645070.19966698,84628635,0.13,0.14,0.07,0.07,352.77,352.77,0.0,0.0
1629645070.29962707,84728595,0.13,0.12,0.05,0.05,352.77,352.76,0.0,0.0
1629645070.39958715,84828555,0.15,0.12,0.06,0.03,352.77,352.76,0.0,0.0
1629645070.49954700,84928515,0.16,0.13,0.09,0.05,352.77,352.76,0.0,0.0
1629645070.59950709,85028475,0.13,0.14,0.11,0.07,352.77,352.76,0.0,0.0
1629645070.69946694,85128435,0.12,0.12,0.15,0.11,352.77,352.76,0.0,0.0
1629645070.79942703,85228395,0.1,0.1,0.19,0.16,352.77,352.76,0.0,0.0
1629645070.89938712,85328355,0.1,0.08,0.22,0.21,352.77,352.76,0.0,0.0
1629645070.99934697,85428315,0.13,0.08,0.23,0.25,352.77,352.76,0.0,0.0
1629645071.09930706,85528275,0.16,0.12,0.17,0.23,352.77,352.76,0.0,0.0
1629645071.19926715,85628235,0.15,0.14,0.1,0.15,352.77,352.76,0.0,0.0
1629645071.29922700,85728195,0.13,0.14,0.06,0.07,352.77,352.76,0.0,0.0
1629645071.39918709,85828155,0.13,0.13,0.05,0.03,352.77,352.76,0.0,0.0
1629645071.49997997,85928948,0.13,0.13,0.06,0.02,352.77,352.77,0.0,0.0
1629645071.59994006,86028908,0.13,0.12,0.09,0.03,352.77,352.77,0.0,0.0
1629645071.69990015,86128868,0.12,0.12,0.12,0.07,352.77,352.77,0.0,0.0
1629645071.79986000,86228828,0.14,0.12,0.13,0.11,352.77,352.77,0.0,0.0
1629645071.89982009,86328788,0.15,0.13,0.12,0.12,352.77,352.77,0.0,0.0
1629645071.99977994,86428748,0.16,0.15,0.11,0.12,352.77,352.77,0.0,0.0
1629645072.09974003,86528708,0.17,0.17,0.07,0.1,352.77,352.77,0.0,0.0
1629645072.19970012,86628668,0.14,0.15,0.06,0.06,352.77,352.77,0.0,0.0
1629645072.29965997,86728628,0.09,0.12,0.1,0.07,352.77,352.76,0.0,0.0
1629645072.39962006,86828588,0.05,0.06,0.13,0.11,352.77,352.76,0.0,0.0
1629645072.49958014,86928548,0.03,0.01,0.14,0.14,352.77,352.76,0.0,0.0
1629645072.59954000,87028508,0.06,0.01,0.12,0.15,352.77,352.76,0.0,0.0
1629645072.69950008,87128468,0.13,0.05,0.12,0.15,352.77,352.76,0.0,0.0
1629645072.79945993,87228428,0.17,0.13,0.13,0.14,352.77,352.76,0.0,0.0
1629645072.89942002,87328388,0.15,0.16,0.11,0.12,352.77,352.76,0.0,0.0
1629645072.99938011,87428348,0.15,0.16,0.07,0.08,352.77,352.77,0.0,0.0
1629645073.09933996,87528308,0.13,0.15,0.05,0.04,352.77,352.77,0.0,0.0
1629645073.19930005,87628268,0.13,0.13,0.05,0.02,352.77,352.77,0.0,0.0
1629645073.29926014,87728228,0.14,0.13,0.07,0.03,352.77,352.77,0.0,0.0
1629645073.39921999,87828188,0.15,0.14,0.11,0.07,352.77,352.77,0.0,0.0
1629645073.50001311,87928981,0.1,0.13,0.13,0.11,352.77,352.78,0.0,0.0
1629645073.59997296,88028941,0.06,0.08,0.14,0.13,352.77,352.78,0.0,0.0
1629645073.69993305,88128901,0.06,0.05,0.14,0.15,352.77,352.78,0.0,0.0
1629645073.79989314,88228861,0.09,0.06,0.15,0.15,352.77,352.78,0.0,0.0
1629645073.89985299,88328821,0.11,0.08,0.14,0.15,352.77,352.77,0.0,0.0
1629645073.99981308,88428781,0.11,0.09,0.12,0.13,352.77,352.77,0.0,0.0
1629645074.09977293,88528741,0.1,0.1,0.11,0.11,352.77,352.77,0.0,0.0
1629645074.19973302,88628701,0.08,0.09,0.12,0.11,352.77,352.77,0.0,0.0
1629645074.29969311,88728661,0.09,0.08,0.11,0.1,352.77,352.77,0.0,0.0
1629645074.39965296,88828621,0.11,0.09,0.11,0.09,352.77,352.77,0.0,0.0
1629645074.49961305,88928581,0.12,0.1,0.14,0.11,352.77,352.77,0.0,0.0
1629645074.59957314,89028541,0.16,0.13,0.17,0.14,352.77,352.77,0.0,0.0
1629645074.69953299,89128501,0.19,0.17,0.18,0.17,352.77,352.77,0.0,0.0
1629645074.79949307,89228461,0.2,0.2,0.19,0.18,352.77,352.77,0.0,0.0
1629645074.89945316,89328421,0.19,0.2,0.19,0.19,352.77,352.77,0.0,0.0
1629645074.99941301,89428381,0.18,0.19,0.18,0.18,352.77,352.77,0.0,0.0
1629645075.09937310,89528341,0.19,0.18,0.19,0.18,352.77,352.77,0.0,0.0
1629645075.19933295,89628301,0.21,0.19,0.18,0.17,352.77,352.77,0.0,0.0
1629645075.29929304,89728261,0.2,0.2,0.19,0.18,352.77,352.77,0.0,0.0
1629645075.39925313,89828221,0.19,0.18,0.2,0.18,352.77,352.77,0.0,0.0
1629645075.49921298,89928181,0.2,0.17,0.21,0.2,352.77,352.77,0.0,0.0
1629645075.60000610,90028974,0.22,0.19,0.21,0.2,352.77,352.77,0.0,0.0
1629645075.69996595,90128934,0.23,0.21,0.2,0.2,352.77,352.77,0.0,0.0
1629645075.79992604,90228894,0.23,0.22,0.2,0.2,352.77,352.77,0.0,0.0
1629645075.89988613,90328854,0.24,0.23,0.21,0.2,352.77,352.77,0.0,0.0
1629645075.99984598,90428814,0.22,0.22,0.21,0.2,352.77,352.77,0.0,0.0
1629645076.09980607,90528774,0.19,0.2,0.21,0.21,352.77,352.77,0.0,0.0
1629645076.19976616,90628734,0.18,0.19,0.19,0.19,352.77,352.77,0.0,0.0
1629645076.29972601,90728694,0.17,0.16,0.17,0.18,352.77,352.77,0.0,0.0
1629645076.39968610,90828654,0.19,0.16,0.14,0.15,352.77,352.77,0.0,0.0
1629645076.49964595,90928614,0.21,0.18,0.14,0.13,352.77,352.77,0.0,0.0
1629645076.59960604,91028574,0.19,0.19,0.14,0.13,352.77,352.77,0.0,0.0
1629645076.69956613,91128534,0.14,0.16,0.15,0.13,352.77,352.77,0.0,0.0
1629645076.79952598,91228494,0.1,0.12,0.16,0.14,352.77,352.77,0.0,0.0
1629645076.89948606,91328454,0.1,0.09,0.15,0.14,352.77,352.77,0.0,0.0
1629645076.99944615,91428414,0.1,0.08,0.14,0.13,352.77,352.77,0.0,0.0
1629645077.09940600,91528374,0.09,0.07,0.11,0.11,352.77,352.77,0.0,0.0
1629645077.19936609,91628334,0.1,0.08,0.1,0.09,352.77,352.77,0.0,0.0
1629645077.29932594,91728294,0.09,0.09,0.13,0.09,352.77,352.77,0.0,0.0
1629645077.39928603,91828254,0.11,0.09,0.13,0.11,352.77,352.77,0.0,0.0
1629645077.49924612,91928214,0.16,0.13,0.12,0.11,352.77,352.78,0.0,0.0
1629645077.59920597,92028174,0.18,0.16,0.11,0.11,352.77,352.78,0.0,0.0
1629645077.69999909,92128967,0.17,0.17,0.12,0.11,352.77,352.78,0.0,0.0
1629645077.79995894,92228927,0.17,0.18,0.14,0.13,352.77,352.78,0.0,0.0
1629645077.89991903,92328887,0.17,0.18,0.17,0.16,352.77,352.78,0.0,0.0
1629645077.99987912,92428847,0.18,0.18,0.16,0.18,352.77,352.78,0.0,0.0
1629645078.09983897,92528807,0.17,0.18,0.15,0.17,352.77,352.78,0.0,0.0
1629645078.19979906,92628767,0.17,0.17,0.15,0.16,352.77,352.77,0.0,0.0
1629645078.29975915,92728727,0.17,0.16,0.16,0.16,352.77,352.77,0.0,0.0
1629645078.39971900,92828687,0.15,0.15,0.11,0.14,352.77,352.77,0.0,0.0
1629645078.49967909,92928647,0.16,0.14,0.09,0.09,352.77,352.77,0.0,0.0
1629645078.59963894,93028607,0.17,0.14,0.09,0.06,352.77,352.76,0.0,0.0
1629645078.69959903,93128567,0.16,0.14,0.09,0.05,352.77,352.76,0.0,0.0
1629645078.79955912,93228527,0.16,0.14,0.12,0.08,352.77,352.77,0.0,0.0
1629645078.89951897,93328487,0.17,0.15,0.13,0.11,352.77,352.77,0.0,0.0
1629645078.99947906,93428447,0.19,0.17,0.13,0.11,352.77,352.77,0.0,0.0
1629645079.09943914,93528407,0.22,0.2,0.12,0.11,352.77,352.77,0.0,0.0
1629645079.19939899,93628367,0.2,0.21,0.12,0.11,352.77,352.77,0.0,0.0
1629645079.29935908,93728327,0.18,0.2,0.11,0.11,352.77,352.77,0.0,0.0
1629645079.39931893,93828287,0.16,0.18,0.13,0.11,352.77,352.77,0.0,0.0
1629645079.49927902,93928247,0.16,0.16,0.13,0.13,352.77,352.77,0.0,0.0
1629645079.59923911,94028207,0.17,0.15,0.14,0.14,352.77,352.77,0.0,0.0
1629645079.69919896,94128167,0.17,0.14,0.15,0.14,352.77,352.77,0.0,0.0
1629645079.79999208,94228960,0.19,0.16,0.15,0.14,352.77,352.77,0.0,0.0
1629645079.89995193,94328920,0.23,0.2,0.15,0.15,352.77,352.77,0.0,0.0
1629645079.99991202,94428880,0.25,0.24,0.16,0.15,352.77,352.77,0.0,0.0
1629645080.09987211,94528840,0.23,0.24,0.16,0.16,352.77,352.77,0.0,0.0
1629645080.19983196,94628800,0.22,0.23,0.16,0.16,352.77,352.77,0.0,0.0
1629645080.29979205,94728760,0.21,0.21,0.14,0.15,352.77,352.77,0.0,0.0
1629645080.39975214,94828720,0.23,0.21,0.12,0.12,352.77,352.77,0.0,0.0
1629645080.49971199,94928680,0.23,0.23,0.1,0.1,352.77,352.77,0.0,0.0
1629645080.59967208,95028640,0.21,0.22,0.09,0.08,352.77,352.77,0.0,0.0
1629645080.69963193,95128600,0.19,0.19,0.09,0.07,352.77,352.77,0.0,0.0
1629645080.79959202,95228560,0.17,0.16,0.08,0.06,352.77,352.77,0.0,0.0
1629645080.89955211,95328520,0.18,0.14,0.09,0.05,352.77,352.77,0.0,0.0
1629645080.99951196,95428480,0.2,0.17,0.1,0.07,352.77,352.78,0.0,0.0
1629645081.09947205,95528440,0.19,0.2,0.14,0.1,352.77,352.78,0.0,0.0
1629645081.19943213,95628400,0.16,0.18,0.18,0.14,352.77,352.78,0.0,0.0
1629645081.29939198,95728360,0.14,0.15,0.2,0.19,352.77,352.78,0.0,0.0
1629645081.39935207,95828320,0.12,0.12,0.22,0.22,352.77,352.77,0.0,0.0
1629645081.49931216,95928280,0.11,0.1,0.2,0.22,352.77,352.77,0.0,0.0
1629645081.59927201,96028240,0.12,0.08,0.17,0.2,352.77,352.77,0.0,0.0
1629645081.69923210,96128200,0.14,0.11,0.15,0.17,352.77,352.77,0.0,0.0
1629645081.79919195,96228160,0.13,0.12,0.17,0.16,352.77,352.77,0.0,0.0
1629645081.89998507,96328953,0.15,0.13,0.18,0.17,352.77,352.77,0.0,0.0
1629645081.99994516,96428913,0.17,0.14,0.2,0.17,352.77,352.77,0.0,0.0
1629645082.09990501,96528873,0.19,0.16,0.23,0.19,352.77,352.77,0.0,0.0
1629645082.19986510,96628833,0.21,0.19,0.23,0.22,352.77,352.77,0.0,0.0
1629645082.29982495,96728793,-0.88,4.12,5.01,6.59,351.64,353.0,0.0,0.0
1629645082.39978504,96828753,-2.12,10.57,11.58,21.08,347.82,354.59,0.0,0.04
1629645082.49974513,96928713,-4.48,14.27,12.64,32.44,341.95,355.97,0.0,0.09
1629645082.59970498,97028673,-8.51,12.79,8.82,37.05,335.96,354.01,0.0,0.1
1629645082.69966507,97128633,-13.04,7.3,1.09,34.45,329.97,348.51,0.0,0.09
1629645082.79962516,97228593,-16.06,0.77,-8.24,26.34,323.97,341.77,0.0,0.1
1629645082.89958501,97328553,-16.98,-5.0,-16.45,15.1,317.97,335.15,0.01,0.12
1629645082.99954510,97428513,-16.23,-9.12,-22.17,3.55,311.97,328.39,0.01,0.15
1629645083.09950495,97528473,-14.17,-10.58,-25.46,-6.01,305.96,320.44,0.01,0.17
1629645083.19946504,97628433,-10.97,-8.62,-26.86,-12.82,299.96,311.01,0.01,0.17
1629645083.29942513,97728393,-7.07,-3.75,-26.84,-16.75,293.96,300.57,0.02,0.17
1629645083.39938498,97828353,-3.24,2.49,-25.82,-18.19,287.96,290.07,0.02,0.15
1629645083.49934506,97928313,-0.23,8.3,-24.21,-17.88,281.97,280.48,0.02,0.13
1629645083.59930515,98028273,1.45,12.28,-22.46,-16.64,275.97,272.34,0.02,0.11
1629645083.69926500,98128233,1.76,13.71,-20.89,-15.11,269.97,265.73,0.01,0.09
1629645083.79922509,98228193,1.03,12.66,-19.7,-13.74,263.97,260.36,0.01,0.07
1629645083.90001798,98328986,-0.06,9.83,-18.94,-12.83,257.97,255.83,0.01,0.06
1629645083.99997807,98428946,-0.93,6.47,-18.48,-12.46,252.89,251.76,0.01,0.05
1629645084.09993815,98528906,-1.19,4.19,-18.25,-12.77,249.62,248.02,0.01,0.04
1629645084.19989800,98628866,-0.88,3.5,-18.13,-13.54,247.37,244.78,0.01,0.04
1629645084.29985809,98728826,-0.39,3.87,-17.96,-14.34,245.63,242.22,0.01,0.03
1629645084.39981794,98828786,-0.14,4.44,-17.72,-14.88,244.17,240.4,0.01,0.03
1629645084.49977803,98928746,-0.27,4.53,-17.43,-15.08,242.87,239.28,0.01,0.02
1629645084.59973812,99028706,-0.77,3.86,-17.19,-15.03,241.67,238.73,0.01,0.02
1629645084.69969797,99128666,-1.47,2.54,-17.04,-14.85,240.54,238.55,0.01,0.02
1629645084.79965806,99228626,-2.1,0.95,-17.01,-14.68,239.49,238.55,0.01,0.02
1629645084.89961815,99328586,-2.5,-0.53,-17.1,-14.63,238.53,238.56,0.01,0.03
1629645084.99957800,99428546,-2.6,-1.59,-17.3,-14.74,237.68,238.45,0.01,0.03
1629645085.09953809,99528506,-2.41,-2.09,-17.59,-15.05,236.95,238.16,0.01,0.03
1629645085.19949794,99628466,-2.05,-2.04,-17.83,-15.45,236.34,237.68,0.01,0.02
1629645085.29945803,99728426,-1.62,-1.62,-17.96,-15.84,235.84,237.03,0.01,0.02
1629645085.39941812,99828386,-1.21,-0.98,-17.98,-16.15,235.43,236.3,0.01,0.01
1629645085.49937797,99928346,-0.92,-0.35,-17.93,-16.38,235.1,235.55,0.01,0.01
1629645085.59933805,100028306,-0.76,0.14,-17.84,-16.56,234.83,234.88,0.01,0.01
1629645085.69929814,100128266,-0.7,0.45,-17.71,-16.67,234.62,234.33,0.0,0.01
1629645085.79925799,100228226,-0.71,0.55,-17.57,-16.72,234.43,233.94,0.0,0.01
1629645085.89921808,100328186,-0.75,0.51,-17.43,-16.7,234.28,233.72,0.0,0.01
1629645086.00001097,100428979,-0.81,0.36,-17.28,-16.63,234.16,233.64,0.0,0.01
1629645086.09997106,100528939,-0.86,0.14,-17.13,-16.51,234.06,233.68,0.0,0.01
1629645086.19993114,100628899,-0.9,-0.1,-17.02,-16.39,233.98,233.8,0.0,0.01
1629645086.29989100,100728859,-0.9,-0.33,-16.98,-16.33,233.92,233.95,0.0,0.01
1629645086.39985108,100828819,-0.83,-0.49,-16.98,-16.33,233.89,234.1,0.0,0.01
1629645086.49981093,100928779,-0.72,-0.55,-16.97,-16.34,233.88,234.24,0.0,0.01
1629645086.59977102,101028739,-0.63,-0.55,-16.95,-16.37,233.89,234.34,0.0,0.01
1629645086.69973111,101128699,-0.53,-0.52,-16.93,-16.4,233.92,234.4,0.0,0.01
1629645086.79969096,101228659,-0.4,-0.43,-16.9,-16.42,233.96,234.44,0.0,0.01
1629645086.89965105,101328619,-0.27,-0.29,-16.9,-16.45,234.03,234.46,0.0,0.01
1629645086.99961114,101428579,-0.17,-0.14,-16.89,-16.51,234.11,234.47,0.0,0.01
1629645087.09957099,101528539,-0.12,-0.01,-16.88,-16.55,234.19,234.49,0.0,0.01
1629645087.19953108,101628499,-0.1,0.04,-16.86,-16.59,234.29,234.52,0.0,0.01
1629645087.29949093,101728459,-0.06,0.09,-16.83,-16.61,234.39,234.58,0.0,0.01
1629645087.39945102,101828419,-0.02,0.12,-16.77,-16.59,234.5,234.66,0.0,0.01
1629645087.49941111,101928379,0.01,0.16,-16.71,-16.54,234.61,234.77,0.0,0.01
1629645087.59937096,102028339,0.05,0.18,-16.7,-16.52,234.72,234.9,0.0,0.01
1629645087.69933105,102128299,0.07,0.17,-16.72,-16.54,234.84,235.04,0.0,0.01
1629645087.79929113,102228259,0.08,0.14,-16.75,-16.58,234.96,235.19,0.0,0.01
1629645087.89925098,102328219,0.09,0.12,-16.79,-16.63,235.08,235.34,0.0,0.01
1629645087.99921107,102428179,0.09,0.09,-16.81,-16.68,235.2,235.49,0.0,0.01
1629645088.10000396,102528972,0.08,0.06,-16.81,-16.71,235.32,235.63,0.0,0.01
1629645088.19996405,102628932,0.09,0.05,-16.8,-16.7,235.44,235.76,0.0,0.01
1629645088.29992414,102728892,0.12,0.05,-16.8,-16.7,235.55,235.89,0.0,0.01
1629645088.39988399,102828852,0.15,0.07,-16.81,-16.71,235.67,236.0,0.0,0.01
1629645088.49984407,102928812,0.2,0.12,-16.83,-16.74,235.79,236.11,0.0,0.01
1629645088.59980416,103028772,0.24,0.17,-16.87,-16.79,235.91,236.21,0.0,0.01
1629645088.69976401,103128732,0.26,0.21,-16.9,-16.84,236.02,236.32,0.0,0.0
1629645088.79972410,103228692,0.28,0.24,-16.92,-16.87,236.14,236.42,0.0,0.0
1629645088.89968395,103328652,0.28,0.25,-16.92,-16.88,236.25,236.52,0.0,0.0
1629645088.99964404,103428612,0.29,0.26,-16.92,-16.89,236.36,236.62,0.0,0.0
1629645089.09960413,103528572,0.3,0.27,-16.93,-16.89,236.46,236.73,0.0,0.0
1629645089.19956398,103628532,0.3,0.26,-16.96,-16.92,236.57,236.83,0.0,0.0
1629645089.29952407,103728492,0.27,0.24,-16.97,-16.95,236.67,236.93,0.0,0.0
1629645089.39948416,103828452,0.26,0.21,-16.98,-16.96,236.76,237.03,0.0,0.0
1629645089.49944401,103928412,0.26,0.21,-16.98,-16.95,236.86,237.13,0.0,0.0
1629645089.59940410,104028372,0.26,0.23,-17.02,-16.96,236.95,237.22,0.0,0.0
1629645089.69936395,104128332,0.26,0.23,-17.06,-16.99,237.03,237.31,0.0,0.0
1629645089.79932404,104228292,0.26,0.23,-17.09,-17.02,237.12,237.39,0.0,0.0
1629645089.89928412,104328252,0.26,0.23,-17.13,-17.06,237.2,237.47,0.0,0.0
1629645089.99924397,104428212,0.26,0.23,-17.17,-17.1,237.28,237.55,0.0,0.0
1629645090.09920406,104528172,0.25,0.23,-17.19,-17.14,237.35,237.62,0.0,0.0
1629645090.19999695,104628965,0.23,0.21,-17.19,-17.15,237.43,237.68,0.0,0.0
1629645090.29995704,104728925,0.22,0.18,-17.2,-17.17,237.49,237.75,0.0,0.0
1629645090.39991713,104828885,0.2,0.15,-17.23,-17.2,237.56,237.81,0.0,0.0
1629645090.49987698,104928845,0.21,0.13,-17.26,-17.24,237.62,237.87,0.0,0.0
1629645090.59983706,105028805,0.25,0.14,-17.29,-17.29,237.69,237.93,0.0,0.0
1629645090.69979715,105128765,0.29,0.19,-17.31,-17.32,237.75,237.99,0.0,0.0
1629645090.79975700,105228725,0.31,0.23,-17.33,-17.34,237.81,238.05,0.0,0.0
1629645090.89971709,105328685,0.31,0.26,-17.35,-17.34,237.86,238.1,0.0,0.0
1629645090.99967694,105428645,0.27,0.24,-17.38,-17.37,237.92,238.15,0.0,0.0
1629645091.09963703,105528605,0.25,0.21,-17.42,-17.4,237.97,238.2,0.0,0.0
1629645091.19959712,105628565,0.25,0.2,-17.46,-17.45,238.01,238.25,0.0,0.0
1629645091.29955697,105728525,0.26,0.2,-17.46,-17.45,238.06,238.29,0.0,0.0
1629645091.39951706,105828485,0.29,0.22,-17.45,-17.45,238.1,238.33,0.0,0.0
1629645091.49947715,105928445,0.28,0.23,-17.46,-17.45,238.15,238.37,0.0,0.0
1629645091.59943700,106028405,0.25,0.22,-17.48,-17.45,238.19,238.41,0.0,0.0
1629645091.69939709,106128365,0.23,0.21,-17.53,-17.47,238.22,238.45,0.0,0.0
1629645091.79935694,106228325,0.22,0.19,-17.59,-17.54,238.26,238.48,0.0,0.0
1629645091.89931703,106328285,0.21,0.17,-17.62,-17.59,238.29,238.51,0.0,0.0
1629645091.99927711,106428245,0.22,0.16,-17.64,-17.62,238.32,238.54,0.0,0.0
1629645092.09923697,106528205,0.21,0.17,-17.64,-17.63,238.35,238.57,0.0,0.0
1629645092.19919705,106628165,0.21,0.17,-17.62,-17.61,238.37,238.59,0.0,0.0
1629645092.29998994,106728958,0.21,0.17,-17.59,-17.58,238.4,238.62,0.0,0.0
1629645092.39995003,106828918,0.22,0.17,-17.59,-17.57,238.43,238.64,0.0,0.0
1629645092.49991012,106928878,0.21,0.17,-17.62,-17.57,238.45,238.66,0.0,0.0
1629645092.59986997,107028838,0.2,0.16,-17.67,-17.64,238.47,238.68,0.0,0.0
1629645092.69983006,107128798,0.17,0.13,-17.71,-17.7,238.49,238.7,0.0,0.0
1629645092.79979014,107228758,0.17,0.1,-17.74,-17.75,238.51,238.71,0.0,0.0
1629645092.89974999,107328718,0.16,0.1,-17.74,-17.78,238.53,238.73,0.0,0.0
1629645092.99971008,107428678,0.13,0.09,-17.74,-17.77,238.55,238.74,0.0,0.0
1629645093.09966993,107528638,0.14,0.09,-17.74,-17.76,238.56,238.76,0.0,0.0
1629645093.19963002,107628598,0.16,0.11,-17.74,-17.74,238.58,238.77,0.0,0.0
1629645093.29959011,107728558,0.15,0.12,-17.75,-17.73,238.59,238.78,0.0,0.0
1629645093.39954996,107828518,0.13,0.11,-17.76,-17.74,238.61,238.79,0.0,0.0
1629645093.49951005,107928478,0.1,0.08,-17.78,-17.75,238.62,238.81,0.0,0.0
1629645093.59947014,108028438,0.09,0.04,-17.81,-17.78,238.63,238.82,0.0,0.0
1629645093.69942999,108128398,0.11,0.05,-17.84,-17.82,238.64,238.83,0.0,0.0
1629645093.79939008,108228358,0.11,0.06,-17.87,-17.86,238.66,238.84,0.0,0.0
1629645093.89935017,108328318,0.11,0.07,-17.87,-17.87,238.67,238.85,0.0,0.0
1629645093.99931002,108428278,0.14,0.1,-17.89,-17.87,238.68,238.86,0.0,0.0
1629645094.09927011,108528238,0.18,0.14,-17.89,-17.87,238.69,238.87,0.0,0.0
1629645094.19922996,108628198,0.18,0.17,-17.89,-17.87,238.7,238.87,0.0,0.0
1629645094.29919004,108728158,0.17,0.17,-17.89,-17.87,238.72,238.88,0.0,0.0
1629645094.39998293,108828951,0.15,0.15,-17.88,-17.86,238.73,238.89,0.0,0.0
1629645094.49994302,108928911,0.13,0.12,-17.87,-17.85,238.74,238.9,0.0,0.0
1629645094.59990311,109028871,0.11,0.07,-17.86,-17.85,238.75,238.91,0.0,0.0
1629645094.69986296,109128831,0.13,0.06,-17.87,-17.86,238.76,238.92,0.0,0.0
1629645094.79982305,109228791,0.16,0.07,-17.88,-17.89,238.77,238.93,0.0,0.0
1629645094.89978313,109328751,0.2,0.1,-17.92,-17.92,238.78,238.94,0.0,0.0
1629645094.99974298,109428711,0.23,0.15,-17.96,-17.96,238.79,238.95,0.0,0.0
1629645095.09970307,109528671,0.25,0.2,-17.96,-17.97,238.8,238.96,0.0,0.0
1629645095.19966316,109628631,0.25,0.22,-17.93,-17.95,238.81,238.97,0.0,0.0
1629645095.29962301,109728591,0.23,0.22,-17.91,-17.91,238.82,238.97,0.0,0.0
1629645095.39958310,109828551,0.22,0.2,-17.92,-17.9,238.83,238.98,0.0,0.0
1629645095.49954295,109928511,0.21,0.19,-17.97,-17.94,238.84,238.99,0.0,0.0
1629645095.59950304,110028471,0.2,0.16,-18.01,-18.0,238.85,239.0,0.0,0.0
1629645095.69946313,110128431,0.21,0.15,-18.05,-18.05,238.85,239.01,0.0,0.0
1629645095.79942298,110228391,0.23,0.16,-18.08,-18.1,238.86,239.01,0.0,0.0
1629645095.89938307,110328351,0.22,0.15,-18.1,-18.13,238.86,239.02,0.0,0.0
1629645095.99934316,110428311,0.21,0.15,-18.08,-18.13,238.87,239.02,0.0,0.0
1629645096.09930301,110528271,0.21,0.15,-18.06,-18.11,238.87,239.02,0.0,0.0
1629645096.19926310,110628231,0.2,0.15,-18.07,-18.1,238.88,239.02,0.0,0.0
1629645096.29922295,110728191,0.19,0.15,-18.07,-18.09,238.88,239.02,0.0,0.0
1629645096.40001607,110828984,0.17,0.15,-18.08,-18.08,238.88,239.02,0.0,0.0
1629645096.49997616,110928944,0.16,0.14,-18.07,-18.06,238.89,239.02,0.0,0.0
1629645096.59993601,111028904,0.15,0.13,-18.05,-18.04,238.89,239.02,0.0,0.0
1629645096.69989610,111128864,0.15,0.11,-18.07,-18.04,238.89,239.03,0.0,0.0
1629645096.79985595,111228824,0.16,0.11,-18.1,-18.08,238.89,239.03,0.0,0.0
1629645096.89981604,111328784,0.17,0.12,-18.12,-18.11,238.89,239.03,0.0,0.0
1629645096.99977612,111428744,0.17,0.12,-18.12,-18.12,238.89,239.03,0.0,0.0
1629645097.09973598,111528704,0.15,0.11,-18.12,-18.12,238.89,239.03,0.0,0.0
1629645097.19969606,111628664,0.13,0.1,-18.11,-18.12,238.89,239.03,0.0,0.0
1629645097.29965615,111728624,0.15,0.1,-18.11,-18.1,238.89,239.02,0.0,0.0
1629645097.39961600,111828584,0.17,0.13,-18.1,-18.1,238.89,239.02,0.0,0.0
1629645097.49957609,111928544,0.18,0.15,-18.11,-18.1,238.89,239.01,0.0,0.0
1629645097.59953594,112028504,0.17,0.15,-18.15,-18.13,238.89,239.01,0.0,0.0
1629645097.69949603,112128464,0.16,0.13,-18.16,-18.17,238.89,239.01,0.0,0.0
1629645097.79945612,112228424,0.18,0.14,-18.16,-18.18,238.89,239.01,0.0,0.0
1629645097.89941597,112328384,0.2,0.17,-18.13,-18.15,238.89,239.0,0.0,0.0
1629645097.99937606,112428344,0.22,0.18,-18.13,-18.14,238.89,239.0,0.0,0.0
1629645098.09933615,112528304,0.22,0.19,-18.15,-18.15,238.89,239.0,0.0,0.0
1629645098.19929600,112628264,0.21,0.18,-18.16,-18.18,238.9,239.0,0.0,0.0
1629645098.29925609,112728224,0.18,0.17,-18.17,-18.18,238.9,239.01,0.0,0.0
1629645098.39921594,112828184,0.17,0.15,-18.16,-18.18,238.9,239.01,0.0,0.0
1629645098.50000906,112928977,0.17,0.15,-18.15,-18.17,238.9,239.01,0.0,0.0
1629645098.59996915,113028937,0.18,0.14,-18.14,-18.16,238.9,239.01,0.0,0.0
1629645098.69992900,113128897,0.2,0.15,-18.15,-18.16,238.9,239.01,0.0,0.0
1629645098.79988909,113228857,0.21,0.16,-18.15,-18.16,238.9,239.01,0.0,0.0
1629645098.89984894,113328817,0.22,0.18,-18.14,-18.16,238.9,239.01,0.0,0.0
1629645098.99980903,113428777,0.2,0.17,-18.14,-18.15,238.9,239.01,0.0,0.0
1629645099.09976912,113528737,0.18,0.15,-18.14,-18.15,238.9,239.01,0.0,0.0
1629645099.19972897,113628697,0.16,0.13,-18.14,-18.16,238.9,239.01,0.0,0.0
1629645099.29968905,113728657,0.15,0.12,-18.12,-18.14,238.9,239.01,0.0,0.0
1629645099.39964914,113828617,0.18,0.13,-18.11,-18.13,238.91,239.01,0.0,0.0
1629645099.49960899,113928577,0.22,0.18,-18.11,-18.12,238.91,239.01,0.0,0.0
1629645099.59956908,114028537,0.25,0.22,-18.11,-18.1,238.91,239.01,0.0,0.0
1629645099.69952893,114128497,0.23,0.23,-18.13,-18.12,238.91,239.01,0.0,0.0
1629645099.79948902,114228457,0.24,0.22,-18.17,-18.16,238.91,239.01,0.0,0.0
1629645099.89944911,114328417,0.26,0.23,-18.19,-18.19,238.91,239.01,0.0,0.0
1629645099.99940896,114428377,0.26,0.23,-18.21,-18.22,238.92,239.01,0.0,0.0
1629645100.09936905,114528337,0.28,0.23,-18.23,-18.24,238.92,239.01,0.0,0.0
1629645100.19932914,114628297,0.28,0.25,-18.24,-18.25,238.92,239.01,0.0,0.0
1629645100.29928899,114728257,0.27,0.24,-18.24,-18.26,238.92,239.01,0.0,0.0
1629645100.39924908,114828217,0.24,0.22,-18.23,-18.25,238.92,239.02,0.0,0.0
1629645100.49920917,114928177,0.21,0.19,-18.21,-18.22,238.92,239.02,0.0,0.0
1629645100.60000205,115028970,0.2,0.17,-18.19,-18.2,238.92,239.02,0.0,0.0
1629645100.69996214,115128930,0.21,0.17,-18.19,-18.19,238.92,239.02,0.0,0.0
1629645100.79992199,115228890,0.22,0.18,-18.21,-18.2,238.92,239.02,0.0,0.0
1629645100.89988208,115328850,0.25,0.21,-18.21,-18.21,238.92,239.01,0.0,0.0
1629645100.99984193,115428810,0.28,0.24,-18.22,-18.22,238.92,239.01,0.0,0.0
1629645101.09980202,115528770,0.28,0.25,-18.23,-18.23,238.92,239.01,0.0,0.0
1629645101.19976211,115628730,0.26,0.24,-18.24,-18.25,238.92,239.01,0.0,0.0
1629645101.29972196,115728690,0.24,0.21,-18.22,-18.25,238.92,239.01,0.0,0.0
1629645101.39968204,115828650,0.24,0.2,-18.21,-18.23,238.93,239.01,0.0,0.0
1629645101.49964213,115928610,0.28,0.22,-18.21,-18.22,238.93,239.01,0.0,0.0
1629645101.59960198,116028570,0.29,0.24,-18.22,-18.22,238.93,239.01,0.0,0.0
1629645101.69956207,116128530,0.26,0.24,-18.25,-18.24,238.93,239.01,0.0,0.0
1629645101.79952216,116228490,0.27,0.24,-18.28,-18.26,238.93,239.01,0.0,0.0
1629645101.89948201,116328450,0.26,0.26,-18.26,-18.27,238.93,239.01,0.0,0.0
1629645101.99944210,116428410,0.24,0.24,-18.25,-18.25,238.93,239.01,0.0,0.0
1629645102.09940195,116528370,0.22,0.22,-18.25,-18.24,238.93,239.01,0.0,0.0
1629645102.19936204,116628330,0.23,0.21,-18.26,-18.26,238.93,239.0,0.0,0.0
1629645102.29932213,116728290,0.25,0.23,-18.24,-18.26,238.93,239.0,0.0,0.0
1629645102.39928198,116828250,0.24,0.23,-18.23,-18.24,238.93,239.0,0.0,0.0
1629645102.49924207,116928210,0.25,0.23,-18.22,-18.23,238.92,239.0,0.0,0.0
1629645102.59920216,117028170,0.25,0.23,-18.24,-18.24,238.92,239.0,0.0,0.0
1629645102.69999504,117128963,0.27,0.25,-18.22,-18.24,238.92,239.0,0.0,0.0
1629645102.79995513,117228923,0.27,0.24,-18.22,-18.24,238.92,238.99,0.0,0.0
1629645102.89991498,117328883,0.28,0.25,-18.25,-18.26,238.92,238.99,0.0,0.0
1629645102.99987507,117428843,0.29,0.27,-18.27,-18.29,238.92,238.99,0.0,0.0
1629645103.09983516,117528803,0.28,0.27,-18.24,-18.28,238.92,238.99,0.0,0.0
1629645103.19979501,117628763,0.27,0.27,-18.22,-18.25,238.92,238.99,0.0,0.0
1629645103.29975510,117728723,0.27,0.25,-18.22,-18.24,238.92,238.99,0.0,0.0
1629645103.39971495,117828683,0.25,0.22,-18.23,-18.24,238.92,238.99,0.0,0.0
1629645103.49967504,117928643,0.24,0.2,-18.24,-18.25,238.92,238.99,0.0,0.0
1629645103.59963512,118028603,0.25,0.19,-18.25,-18.27,238.92,238.99,0.0,0.0
1629645103.69959497,118128563,0.26,0.19,-18.24,-18.27,238.92,238.99,0.0,0.0
1629645103.79955506,118228523,0.27,0.22,-18.22,-18.25,238.92,238.99,0.0,0.0
1629645103.89951515,118328483,0.29,0.25,-18.2,-18.22,238.92,238.99,0.0,0.0
1629645103.99947500,118428443,0.31,0.27,-18.2,-18.21,238.93,238.99,0.0,0.0
1629645104.09943509,118528403,0.3,0.27,-18.22,-18.22,238.93,238.99,0.0,0.0
1629645104.19939494,118628363,0.28,0.24,-18.25,-18.27,238.93,238.99,0.0,0.0
1629645104.29935503,118728323,0.27,0.23,-18.26,-18.29,238.93,238.99,0.0,0.0
1629645104.39931512,118828283,0.25,0.22,-18.25,-18.27,238.93,238.99,0.0,0.0
1629645104.49927497,118928243,0.25,0.23,-18.25,-18.25,238.92,238.99,0.0,0.0
1629645104.59923506,119028203,0.24,0.22,-18.27,-18.26,238.92,238.99,0.0,0.0
1629645104.69919515,119128163,0.2,0.2,-18.3,-18.28,238.92,238.99,0.0,0.0
1629645104.79998803,119228956,0.17,0.16,-18.31,-18.3,238.92,238.99,0.0,0.0
1629645104.89994812,119328916,0.18,0.14,-18.26,-18.29,238.91,238.98,0.0,0.0
1629645104.99990797,119428876,0.23,0.18,-18.22,-18.24,238.91,238.98,0.0,0.0
1629645105.09986806,119528836,0.28,0.24,-18.24,-18.22,238.91,238.98,0.0,0.0
1629645105.19982815,119628796,0.29,0.27,-18.26,-18.24,238.91,238.97,0.0,0.0
1629645105.29978800,119728756,0.28,0.28,-18.26,-18.25,238.91,238.97,0.0,0.0
1629645105.39974809,119828716,0.27,0.28,-18.23,-18.22,238.91,238.97,0.0,0.0
1629645105.49970794,119928676,0.28,0.27,-18.21,-18.2,238.91,238.96,0.0,0.0
1629645105.59966803,120028636,0.29,0.27,-18.22,-18.21,238.91,238.96,0.0,0.0
1629645105.69962811,120128596,0.29,0.27,-18.25,-18.24,238.91,238.96,0.0,0.0
1629645105.79958797,120228556,0.28,0.26,-18.28,-18.29,238.91,238.96,0.0,0.0
1629645105.89954805,120328516,0.27,0.24,-18.29,-18.32,238.91,238.96,0.0,0.0
1629645105.99950814,120428476,0.29,0.25,-18.28,-18.31,238.91,238.97,0.0,0.0
1629645106.09946799,120528436,0.32,0.28,-18.24,-18.28,238.91,238.97,0.0,0.0
1629645106.19942808,120628396,0.35,0.32,-18.23,-18.25,238.92,238.97,0.0,0.0
1629645106.29938793,120728356,0.33,0.32,-18.25,-18.26,238.92,238.97,0.0,0.0
1629645106.39934802,120828316,0.31,0.3,-18.26,-18.27,238.92,238.97,0.0,0.0
1629645106.49930811,120928276,0.3,0.27,-18.25,-18.28,238.92,238.97,0.0,0.0
1629645106.59926796,121028236,0.32,0.28,-18.25,-18.29,238.92,238.97,0.0,0.0
1629645106.69922805,121128196,0.32,0.29,-18.25,-18.28,238.92,238.97,0.0,0.0
1629645106.79918814,121228156,0.29,0.28,-18.23,-18.26,238.93,238.97,0.0,0.0
1629645106.89998102,121328949,0.27,0.25,-18.21,-18.23,238.93,238.97,0.0,0.0
1629645106.99994111,121428909,0.26,0.24,-18.21,-18.22,238.93,238.97,0.0,0.0
1629645107.09990096,121528869,0.27,0.23,-18.22,-18.22,238.93,238.98,0.0,0.0
1629645107.19986105,121628829,0.3,0.25,-18.23,-18.24,238.93,238.98,0.0,0.0
1629645107.29982114,121728789,0.34,0.29,-18.24,-18.26,238.93,238.98,0.0,0.0
1629645107.39978099,121828749,0.36,0.33,-18.25,-18.27,238.93,238.98,0.0,0.0
1629645107.49974108,121928709,0.34,0.35,-18.26,-18.27,238.93,238.98,0.0,0.0
1629645107.59970117,122028669,0.33,-0.86,-18.3,-19.5,238.94,238.98,0.0,0.0
1629645107.69966102,122128629,0.41,-7.6,-18.61,-26.2,238.94,239.53,0.0,0.0
1629645107.79962111,122228589,1.27,-14.52,-18.13,-32.67,238.96,240.99,0.0,0.01
1629645107.89958096,122328549,3.78,-17.86,-15.84,-35.64,239.03,242.05,0.0,0.01
1629645107.99954104,122428509,8.0,-16.05,-11.77,-34.49,239.2,241.63,0.0,0.01
1629645108.09950113,122528469,12.64,-10.48,-6.78,-30.01,239.48,240.31,0.01,0.01
1629645108.19946098,122628429,16.12,-3.73,-2.41,-23.64,239.85,239.18,0.01,0.01
1629645108.29942107,122728389,17.73,1.83,0.04,-17.35,240.29,238.57,0.0,0.01
1629645108.39938116,122828349,17.67,4.99,0.32,-12.94,240.75,238.2,0.0,0.01
1629645108.49934101,122928309,16.58,5.88,-1.01,-11.04,241.2,237.81,0.01,0.02
1629645108.59930110,123028269,15.21,5.35,-3.03,-11.2,241.61,237.56,0.01,0.01
1629645108.69926095,123128229,14.09,4.44,-5.0,-12.48,241.97,237.7,0.01,0.01
1629645108.79922104,123228189,13.37,3.83,-6.53,-13.99,242.29,238.31,0.01,0.01
1629645108.90001416,123328982,12.92,3.75,-7.59,-15.17,242.57,239.33,0.01,0.01
1629645108.99997401,123428942,12.46,4.03,-8.24,-15.86,242.68,240.57,0.01,0.01
1629645109.09993410,123528902,11.19,4.04,-8.43,-16.09,242.25,241.8,0.01,0.0
1629645109.19989395,123628862,9.18,3.17,-8.39,-15.9,241.44,242.72,0.01,0.01
1629645109.29985404,123728822,7.0,1.65,-8.31,-15.44,240.38,243.08,0.01,0.01
1629645109.39981413,123828782,5.05,-0.05,-8.28,-14.84,239.16,242.76,0.01,0.01
1629645109.49977398,123928742,3.56,-1.47,-8.36,-14.24,237.84,241.77,0.0,0.01
1629645109.59973407,124028702,2.54,-2.36,-8.57,-13.75,236.46,240.21,0.0,0.01
1629645109.69969416,124128662,1.91,-2.71,-8.89,-13.41,235.05,238.23,0.0,0.01
1629645109.79965401,124228622,1.51,-2.66,-9.31,-13.25,233.63,236.01,0.0,0.01
1629645109.89961410,124328582,1.2,-2.39,-9.82,-13.26,232.22,233.68,0.0,0.01
1629645109.99957395,124428542,0.9,-2.1,-10.35,-13.4,230.81,231.38,0.0,0.01
1629645110.09953403,124528502,0.62,-1.87,-10.86,-13.6,229.42,229.21,0.0,0.01
1629645110.19949412,124628462,0.32,-1.73,-11.37,-13.84,228.06,227.22,0.0,0.02
1629645110.29945397,124728422,0.04,-1.69,-11.86,-14.1,226.73,225.47,0.0,0.02
1629645110.39941406,124828382,-0.19,-1.71,-12.34,-14.37,225.44,223.97,0.0,0.02
1629645110.49937415,124928342,-0.43,-1.78,-12.78,-14.63,224.18,222.69,0.0,0.02
1629645110.59933400,125028302,-0.66,-1.88,-13.19,-14.88,222.97,221.61,0.0,0.01
1629645110.69929409,125128262,-0.87,-2.01,-13.58,-15.11,221.8,220.68,0.0,0.01
1629645110.79925394,125228222,-1.05,-2.13,-13.96,-15.34,220.68,219.86,0.0,0.01
1629645110.89921403,125328182,-1.22,-2.25,-14.3,-15.55,219.6,219.1,0.0,0.01
1629645111.00000715,125428975,-1.37,-2.35,-14.61,-15.75,218.58,218.36,0.0,0.01
1629645111.09996700,125528935,-1.46,-2.41,-14.89,-15.93,217.61,217.61,0.0,0.01
1629645111.19992709,125628895,-1.49,-2.41,-15.16,-16.09,216.69,216.84,0.0,0.01
1629645111.29988694,125728855,-1.47,-2.34,-15.42,-16.25,215.82,216.04,0.0,0.0
1629645111.39984703,125828815,-1.44,-2.22,-15.66,-16.41,215.0,215.22,0.0,0.0
1629645111.49980712,125928775,-1.39,-2.06,-15.92,-16.57,214.23,214.38,0.0,0.0
1629645111.59976697,126028735,-1.32,-1.9,-16.16,-16.75,213.5,213.55,0.0,0.0
1629645111.69972706,126128695,-1.24,-1.72,-16.38,-16.92,212.82,212.75,0.0,0.0
1629645111.79968715,126228655,-1.16,-1.54,-16.57,-17.07,212.19,211.98,0.0,0.0
1629645111.89964700,126328615,-1.09,-1.38,-16.75,-17.21,211.59,211.27,0.0,0.0
1629645111.99960709,126428575,-1.02,-1.25,-16.91,-17.33,211.03,210.62,0.0,0.0
