timestamp,TimeUS,DesRoll,Roll,DesPitch,Pitch,DesYaw,Yaw,ErrRP,ErrYaw
1629644429.50004005,61528712,0.0,0.11,0.0,0.09,352.93,352.94,0.0,0.0
1629644429.59999990,61628672,0.0,0.11,0.0,0.09,352.93,352.94,0.0,0.0
1629644429.69995999,61728632,0.0,0.11,0.0,0.09,352.93,352.94,0.0,0.0
1629644429.79992008,61828592,0.0,0.11,0.0,0.09,352.93,352.94,0.0,0.0
1629644429.89987993,61928552,0.0,0.11,0.0,0.09,352.94,352.95,0.0,0.0
1629644429.99984002,62028512,0.0,0.11,0.0,0.09,352.94,352.95,0.0,0.0
1629644430.09980011,62128472,0.0,0.11,0.0,0.09,352.94,352.95,0.0,0.0
1629644430.19975996,62228432,0.0,0.11,0.0,0.09,352.94,352.95,0.0,0.0
1629644430.29972005,62328392,0.0,0.11,0.0,0.09,352.94,352.95,0.0,0.0
1629644430.39968014,62428352,0.0,0.11,0.0,0.09,352.94,352.95,0.0,0.0
1629644430.49963999,62528312,0.0,0.11,0.0,0.09,352.94,352.95,0.0,0.0
1629644430.59960008,62628272,0.0,0.11,0.0,0.09,352.94,352.95,0.0,0.0
1629644430.69955993,62728232,0.0,0.11,0.0,0.09,352.94,352.95,0.0,0.0
1629644430.79952002,62828192,0.0,0.11,0.0,0.09,352.94,352.95,0.0,0.0
1629644430.90031314,62928985,0.0,0.11,0.0,0.09,352.94,352.95,0.0,0.0
1629644431.00027299,63028945,0.0,0.11,0.0,0.09,352.94,352.95,0.0,0.0
1629644431.10023308,63128905,0.0,0.11,0.0,0.09,352.94,352.95,0.0,0.0
1629644431.20019293,63228865,0.0,0.11,0.0,0.09,352.94,352.95,0.0,0.0
1629644431.30015302,63328825,0.0,0.11,0.0,0.09,352.94,352.95,0.0,0.0
1629644431.40011311,63428785,0.0,0.11,0.0,0.09,352.94,352.95,0.0,0.0
1629644431.50007296,63528745,0.0,0.11,0.0,0.09,352.94,352.95,0.0,0.0
1629644431.60003304,63628705,0.0,0.11,0.0,0.09,352.94,352.95,0.0,0.0
1629644431.69999313,63728665,0.0,0.11,0.0,0.09,352.94,352.95,0.0,0.0
1629644431.79995298,63828625,0.0,0.11,0.0,0.09,352.94,352.95,0.0,0.0
1629644431.89991307,63928585,0.0,0.11,0.0,0.09,352.94,352.95,0.0,0.0
1629644431.99987292,64028545,-0.11,0.11,-0.11,0.09,352.94,352.95,0.0,0.0
1629644432.09983301,64128505,-0.1,0.11,-0.11,0.09,352.94,352.95,0.0,0.0
1629644432.19979310,64228465,-0.16,0.11,-0.18,0.09,352.94,352.95,0.0,0.0
1629644432.29975295,64328425,-0.23,0.11,-0.25,0.09,352.94,352.95,0.0,0.0
1629644432.39971304,64428385,-0.29,0.11,-0.3,0.09,352.94,352.95,0.0,0.0
1629644432.49967313,64528345,-0.32,0.11,-0.34,0.09,352.94,352.95,0.0,0.0
1629644432.59963298,64628305,-0.34,0.11,-0.38,0.09,352.94,352.95,0.0,0.0
1629644432.69959307,64728265,-0.37,0.11,-0.41,0.1,352.94,352.95,0.0,0.0
1629644432.79955292,64828225,-0.41,0.11,-0.44,0.09,352.94,352.96,0.0,0.0
1629644432.89951301,64928185,-0.41,0.11,-0.47,0.1,352.94,352.96,0.0,0.0
1629644433.00030613,65028978,-0.43,0.11,-0.49,0.1,352.94,352.96,0.0,0.0
1629644433.10026598,65128938,-0.45,0.11,-0.52,0.1,352.94,352.96,0.0,0.0
1629644433.20022607,65228898,-0.44,0.11,-0.56,0.1,352.94,352.96,0.0,0.0
1629644433.30018592,65328858,-0.49,0.11,-0.59,0.1,352.94,352.96,0.0,0.0
1629644433.40014601,65428818,-0.53,0.11,-0.6,0.1,352.94,352.96,0.0,0.0
1629644433.50010610,65528778,-0.54,0.1,-0.62,0.08,352.94,352.96,0.0,0.0
1629644433.60006595,65628738,-0.55,-0.17,-0.65,-0.22,352.94,352.96,0.0,0.0
1629644433.70002604,65728698,-0.52,-0.54,-0.65,-0.65,352.94,352.96,0.0,0.0
1629644433.79998612,65828658,-0.44,-0.81,-0.53,-0.95,352.94,352.96,0.0,0.0
1629644433.89994597,65928618,-0.29,-0.88,-0.32,-0.98,352.94,352.96,0.0,0.0
1629644433.99990606,66028578,-0.06,-0.75,-0.07,-0.82,352.94,352.95,0.0,0.0
1629644434.09986591,66128538,0.16,-0.5,0.16,-0.54,352.94,352.94,0.0,0.0
1629644434.19982600,66228498,0.35,-0.21,0.38,-0.23,352.94,352.94,0.0,0.0
1629644434.29978609,66328458,0.48,0.03,0.52,0.04,352.94,352.94,0.0,0.0
1629644434.39974594,66428418,0.54,0.2,0.59,0.23,352.94,352.94,0.0,0.0
1629644434.49970603,66528378,0.53,0.28,0.59,0.32,352.94,352.94,0.0,0.0
1629644434.59966612,66628338,0.5,0.28,0.55,0.32,352.94,352.94,0.0,0.0
1629644434.69962597,66728298,0.45,0.24,0.51,0.27,352.94,352.94,0.0,0.0
1629644434.79958606,66828258,0.44,0.19,0.49,0.23,352.94,352.94,0.0,0.0
1629644434.89954591,66928218,0.44,0.19,0.45,0.2,352.94,352.94,0.0,0.0
1629644434.99950600,67028178,0.44,0.19,0.44,0.18,352.94,352.94,0.0,0.0
1629644435.10029912,67128971,0.44,0.21,0.46,0.2,352.94,352.95,0.0,0.0
1629644435.20025897,67228931,0.45,0.23,0.51,0.25,352.94,352.95,0.0,0.0
1629644435.30021906,67328891,0.5,0.28,0.55,0.32,352.71,352.72,0.0,0.0
1629644435.40017891,67428851,0.53,0.34,0.55,0.38,352.71,352.72,0.0,0.0
1629644435.50013900,67528811,0.54,0.39,0.52,0.4,352.71,352.72,0.0,0.0
1629644435.60009909,67628771,0.49,0.4,0.48,0.39,352.71,352.72,0.0,0.0
1629644435.70005894,67728731,0.46,0.38,0.45,0.36,352.71,352.72,0.0,0.0
1629644435.80001903,67828691,0.43,0.35,0.39,0.31,352.71,352.72,0.0,0.0
1629644435.89997911,67928651,0.38,0.31,0.34,0.26,352.71,352.72,0.0,0.0
1629644435.99993896,68028611,0.32,0.27,0.33,0.22,352.71,352.72,0.0,0.0
1629644436.09989905,68128571,0.25,0.21,0.31,0.2,352.71,352.72,0.0,0.0
1629644436.19985890,68228531,0.23,0.15,0.3,0.2,352.71,352.72,0.0,0.0
1629644436.29981899,68328491,0.23,0.14,0.3,0.22,352.71,352.73,0.0,0.0
1629644436.39977908,68428451,0.25,0.16,0.27,0.21,352.71,352.73,0.0,0.0
1629644436.49973893,68528411,0.26,0.19,0.25,0.2,352.71,352.73,0.0,0.0
1629644436.59969902,68628371,0.24,0.19,0.21,0.18,352.71,352.73,0.0,0.0
1629644436.69965911,68728331,0.21,0.18,0.16,0.15,352.71,352.73,0.0,0.0
1629644436.79961896,68828291,0.15,0.14,0.11,0.1,352.71,352.72,0.0,0.0
1629644436.89957905,68928251,0.14,0.11,0.09,0.05,352.71,352.72,0.0,0.0
1629644436.99953914,69028211,0.14,0.09,0.11,0.04,352.71,352.72,0.0,0.0
1629644437.09949899,69128171,0.14,0.09,0.12,0.06,352.71,352.72,0.0,0.0
1629644437.20029211,69228964,0.15,0.1,0.13,0.07,352.71,352.72,0.0,0.0
1629644437.30025196,69328924,0.15,0.12,0.17,0.11,352.71,352.72,0.0,0.0
1629644437.40021205,69428884,0.1,0.09,0.18,0.14,352.71,352.72,0.0,0.0
1629644437.50017214,69528844,0.08,0.06,0.16,0.15,352.71,352.72,0.0,0.0
1629644437.60013199,69628804,0.1,0.06,0.15,0.14,352.71,352.72,0.0,0.0
1629644437.70009208,69728764,0.13,0.08,0.14,0.13,352.71,352.72,0.0,0.0
1629644437.80005193,69828724,0.14,0.1,0.13,0.13,352.71,352.72,0.0,0.0
1629644437.90001202,69928684,0.11,0.1,0.16,0.13,352.71,352.72,0.0,0.0
1629644437.99997211,70028644,0.08,0.07,0.16,0.15,352.71,352.72,0.0,0.0
1629644438.09993196,70128604,0.06,0.04,0.13,0.12,352.71,352.72,0.0,0.0
1629644438.19989204,70228564,0.09,0.04,0.1,0.09,352.71,352.72,0.0,0.0
1629644438.29985213,70328524,0.14,0.09,0.1,0.08,352.71,352.72,0.0,0.0
1629644438.39981198,70428484,0.16,0.13,0.09,0.07,352.71,352.72,0.0,0.0
1629644438.49977207,70528444,0.15,0.14,0.1,0.07,352.71,352.72,0.0,0.0
1629644438.59973192,70628404,0.14,0.13,0.12,0.09,352.71,352.73,0.0,0.0
1629644438.69969201,70728364,0.13,0.13,0.1,0.1,352.71,352.73,0.0,0.0
1629644438.79965210,70828324,0.12,0.11,0.08,0.08,352.71,352.73,0.0,0.0
1629644438.89961195,70928284,0.12,0.1,0.09,0.06,352.71,352.73,0.0,0.0
1629644438.99957204,71028244,0.13,0.1,0.11,0.08,352.71,352.73,0.0,0.0
1629644439.09953213,71128204,0.11,0.11,0.14,0.11,352.71,352.73,0.0,0.0
1629644439.19949198,71228164,0.08,0.1,0.14,0.15,352.71,352.73,0.0,0.0
1629644439.30028510,71328957,0.08,0.08,0.13,0.16,352.71,352.73,0.0,0.0
1629644439.40024495,71428917,0.1,0.08,0.12,0.15,352.71,352.73,0.0,0.0
1629644439.50020504,71528877,0.13,0.1,0.1,0.12,352.71,352.73,0.0,0.0
1629644439.60016513,71628837,0.15,0.13,0.11,0.1,352.71,352.73,0.0,0.0
1629644439.70012498,71728797,0.17,0.16,0.13,0.11,352.71,352.73,0.0,0.0
1629644439.80008507,71828757,0.2,0.19,0.16,0.12,352.71,352.73,0.0,0.0
1629644439.90004492,71928717,0.18,0.21,0.18,0.15,352.71,352.73,0.0,0.0
1629644440.00000501,72028677,0.13,0.18,0.14,0.15,352.71,352.72,0.0,0.0
1629644440.09996510,72128637,0.11,0.14,0.11,0.14,352.71,352.72,0.0,0.0
1629644440.19992495,72228597,0.09,0.11,0.12,0.12,352.71,352.72,0.0,0.0
1629644440.29988503,72328557,0.09,0.09,0.12,0.12,352.71,352.72,0.0,0.0
1629644440.39984512,72428517,0.1,0.08,0.12,0.1,352.71,352.72,0.0,0.0
1629644440.49980497,72528477,0.12,0.1,0.12,0.11,352.71,352.72,0.0,0.0
1629644440.59976506,72628437,0.12,0.1,0.12,0.11,352.71,352.71,0.0,0.0
1629644440.69972491,72728397,0.07,0.08,0.15,0.13,352.71,352.71,0.0,0.0
1629644440.79968500,72828357,0.03,0.03,0.18,0.15,352.71,352.72,0.0,0.0
1629644440.89964509,72928317,0.02,0.0,0.15,0.15,352.71,352.72,0.0,0.0
1629644440.99960494,73028277,0.07,0.01,0.13,0.13,352.71,352.72,0.0,0.0
1629644441.09956503,73128237,0.11,0.06,0.13,0.13,352.71,352.72,0.0,0.0
1629644441.19952512,73228197,0.13,0.1,0.11,0.11,352.71,352.72,0.0,0.0
1629644441.29948497,73328157,0.13,0.12,0.1,0.08,352.71,352.72,0.0,0.0
1629644441.40027809,73428950,0.15,0.13,0.12,0.08,352.71,352.72,0.0,0.0
1629644441.50023794,73528910,0.16,0.16,0.15,0.11,352.71,352.72,0.0,0.0
1629644441.60019803,73628870,0.15,0.16,0.13,0.12,352.71,352.72,0.0,0.0
1629644441.70015812,73728830,0.18,0.17,0.1,0.11,352.71,352.72,0.0,0.0
1629644441.80011797,73828790,0.2,0.19,0.06,0.07,352.71,352.73,0.0,0.0
1629644441.90007806,73928750,0.19,0.2,0.05,0.04,352.71,352.73,0.0,0.0
1629644442.00003791,74028710,0.17,0.18,0.04,0.02,352.71,352.73,0.0,0.0
1629644442.09999800,74128670,0.17,0.17,0.07,0.02,352.71,352.73,0.0,0.0
1629644442.19995809,74228630,0.19,0.18,0.11,0.06,352.71,352.72,0.0,0.0
1629644442.29991794,74328590,0.2,0.19,0.11,0.1,352.71,352.72,0.0,0.0
1629644442.39987803,74428550,0.19,0.18,0.09,0.11,352.71,352.72,0.0,0.0
1629644442.49983811,74528510,0.19,0.18,0.06,0.09,352.71,352.72,0.0,0.0
1629644442.59979796,74628470,0.19,0.17,0.0,0.03,352.71,352.72,0.0,0.0
1629644442.69975805,74728430,0.2,0.17,-0.01,-0.02,352.71,352.72,0.0,0.0
1629644442.79971790,74828390,0.2,0.18,-0.02,-0.05,352.71,352.72,0.0,0.0
1629644442.89967799,74928350,0.16,0.17,-0.02,-0.07,352.71,352.71,0.0,0.0
1629644442.99963808,75028310,0.12,0.13,0.0,-0.04,352.71,352.71,0.0,0.0
1629644443.09959793,75128270,0.12,0.1,0.03,0.0,352.71,352.71,0.0,0.0
1629644443.19955802,75228230,0.15,0.1,0.03,0.03,352.71,352.72,0.0,0.0
1629644443.29951811,75328190,0.16,0.13,0.03,0.05,352.71,352.72,0.0,0.0
1629644443.40031099,75428983,0.2,0.16,0.04,0.06,352.71,352.72,0.0,0.0
1629644443.50027108,75528943,0.23,0.21,0.03,0.06,352.71,352.72,0.0,0.0
1629644443.60023093,75628903,0.22,0.24,0.0,0.03,352.71,352.73,0.0,0.0
1629644443.70019102,75728863,0.17,0.21,0.0,0.0,352.71,352.72,0.0,0.0
1629644443.80015111,75828823,0.13,0.15,0.02,0.01,352.71,352.72,0.0,0.0
1629644443.90011096,75928783,0.14,0.13,0.03,0.02,352.71,352.72,0.0,0.0
1629644444.00007105,76028743,0.16,0.14,0.04,0.03,352.71,352.72,0.0,0.0
1629644444.10003114,76128703,0.14,0.13,0.06,0.05,352.71,352.72,0.0,0.0
1629644444.19999099,76228663,0.13,0.12,0.08,0.07,352.71,352.72,0.0,0.0
1629644444.29995108,76328623,0.15,0.12,0.08,0.08,352.71,352.72,0.0,0.0
1629644444.39991093,76428583,0.18,0.14,0.08,0.09,352.71,352.72,0.0,0.0
1629644444.49987102,76528543,0.18,0.16,0.12,0.1,352.71,352.73,0.0,0.0
1629644444.59983110,76628503,0.19,0.18,0.14,0.13,352.71,352.73,0.0,0.0
1629644444.69979095,76728463,0.17,0.18,0.15,0.14,352.71,352.73,0.0,0.0
1629644444.79975104,76828423,0.14,0.16,0.15,0.15,352.71,352.73,0.0,0.0
1629644444.89971113,76928383,0.1,0.13,0.17,0.17,352.71,352.73,0.0,0.0
1629644444.99967098,77028343,0.08,0.09,0.16,0.16,352.71,352.72,0.0,0.0
1629644445.09963107,77128303,0.11,0.08,0.16,0.14,352.71,352.72,0.0,0.0
1629644445.19959092,77228263,0.16,0.11,0.19,0.15,352.71,352.72,0.0,0.0
1629644445.29955101,77328223,0.2,0.16,0.19,0.15,352.71,352.72,0.0,0.0
1629644445.39951110,77428183,0.2,0.19,0.18,0.15,352.71,352.72,0.0,0.0
1629644445.50030398,77528976,0.16,0.18,0.19,0.17,352.71,352.72,0.0,0.0
1629644445.60026407,77628936,0.13,0.14,0.19,0.19,352.71,352.72,0.0,0.0
1629644445.70022392,77728896,0.13,0.11,0.15,0.18,352.71,352.72,0.0,0.0
1629644445.80018401,77828856,0.15,0.13,0.14,0.14,352.71,352.72,0.0,0.0
1629644445.90014410,77928816,0.16,0.15,0.16,0.14,352.71,352.72,0.0,0.0
1629644446.00010395,78028776,0.18,0.17,0.18,0.15,352.71,352.72,0.0,0.0
1629644446.10006404,78128736,0.17,0.19,0.14,0.15,352.71,352.72,0.0,0.0
1629644446.20002413,78228696,0.16,0.18,0.08,0.1,352.71,352.72,0.0,0.0
1629644446.29998398,78328656,0.12,0.14,0.03,0.04,352.71,352.72,0.0,0.0
1629644446.39994407,78428616,0.11,0.11,0.06,0.02,352.71,352.72,0.0,0.0
1629644446.49990392,78528576,0.12,0.11,0.12,0.06,352.71,352.72,0.0,0.0
1629644446.59986401,78628536,0.12,0.11,0.17,0.12,352.71,352.72,0.0,0.0
1629644446.69982409,78728496,0.11,0.12,0.2,0.18,352.71,352.72,0.0,0.0
1629644446.79978395,78828456,0.09,0.09,0.2,0.21,352.71,352.71,0.0,0.0
1629644446.89974403,78928416,0.09,0.08,0.18,0.2,352.71,352.71,0.0,0.0
1629644446.99970412,79028376,0.08,0.06,0.15,0.18,352.71,352.71,0.0,0.0
1629644447.09966397,79128336,0.1,0.07,0.13,0.15,352.71,352.71,0.0,0.0
1629644447.19962406,79228296,0.12,0.09,0.11,0.12,352.71,352.71,0.0,0.0
1629644447.29958391,79328256,0.09,0.09,0.1,0.09,352.71,352.71,0.0,0.0
1629644447.39954400,79428216,0.07,0.07,0.14,0.11,352.71,352.71,0.0,0.0
1629644447.49950409,79528176,0.06,0.05,0.18,0.15,352.71,352.72,0.0,0.0
1629644447.60029697,79628969,0.08,0.05,0.19,0.19,352.71,352.72,0.0,0.0
1629644447.70025706,79728929,0.11,0.07,0.19,0.21,352.71,352.72,0.0,0.0
1629644447.80021691,79828889,0.12,0.1,0.17,0.19,352.71,352.72,0.0,0.0
1629644447.90017700,79928849,0.09,0.1,0.13,0.15,352.71,352.72,0.0,0.0
1629644448.00013709,80028809,0.06,0.07,0.1,0.1,352.71,352.72,0.0,0.0
1629644448.10009694,80128769,0.05,0.05,0.09,0.07,352.71,352.72,0.0,0.0
1629644448.20005703,80228729,0.07,0.06,0.11,0.07,352.71,352.72,0.0,0.0
1629644448.30001712,80328689,0.1,0.07,0.14,0.09,352.71,352.72,0.0,0.0
1629644448.39997697,80428649,0.12,0.1,0.15,0.12,352.71,352.72,0.0,0.0
1629644448.49993706,80528609,0.13,0.13,0.12,0.13,352.71,352.72,0.0,0.0
1629644448.59989691,80628569,0.15,0.14,0.12,0.12,352.71,352.72,0.0,0.0
1629644448.69985700,80728529,0.17,0.16,0.13,0.13,352.71,352.72,0.0,0.0
1629644448.79981709,80828489,0.16,0.17,0.13,0.12,352.71,352.72,0.0,0.0
1629644448.89977694,80928449,0.14,0.17,0.13,0.13,352.71,352.72,0.0,0.0
1629644448.99973702,81028409,0.14,0.15,0.14,0.13,352.71,352.72,0.0,0.0
1629644449.09969711,81128369,0.15,0.14,0.13,0.12,352.71,352.71,0.0,0.0
1629644449.19965696,81228329,0.15,0.14,0.11,0.11,352.71,352.71,0.0,0.0
1629644449.29961705,81328289,0.14,0.14,0.09,0.1,352.71,352.71,0.0,0.0
1629644449.39957690,81428249,0.14,0.15,0.08,0.09,352.71,352.72,0.0,0.0
1629644449.49953699,81528209,0.16,0.16,0.1,0.1,352.71,352.72,0.0,0.0
1629644449.59949708,81628169,0.18,0.17,0.1,0.11,352.71,352.72,0.0,0.0
1629644449.70028996,81728962,0.18,0.17,0.12,0.13,352.71,352.72,0.0,0.0
1629644449.80025005,81828922,0.18,0.18,0.15,0.15,352.71,352.72,0.0,0.0
1629644449.90020990,81928882,0.18,0.17,0.18,0.18,352.71,352.72,0.0,0.0
1629644450.00016999,82028842,0.2,0.17,0.19,0.19,352.71,352.72,0.0,0.0
1629644450.10013008,82128802,0.17,0.17,0.18,0.2,352.71,352.72,0.0,0.0
1629644450.20008993,82228762,0.12,0.14,0.13,0.17,352.71,352.72,0.0,0.0
1629644450.30005002,82328722,0.12,0.11,0.11,0.12,352.71,352.72,0.0,0.0
1629644450.40001011,82428682,0.12,0.1,0.12,0.09,352.71,352.72,0.0,0.0
1629644450.49996996,82528642,0.13,0.11,0.17,0.13,352.71,352.72,0.0,0.0
1629644450.59993005,82628602,0.15,0.12,0.19,0.16,352.71,352.72,0.0,0.0
1629644450.69989014,82728562,0.17,0.15,0.2,0.19,352.71,352.72,0.0,0.0
1629644450.79984999,82828522,0.18,0.17,0.18,0.19,352.71,352.72,0.0,0.0
1629644450.89981008,82928482,0.19,0.18,0.14,0.17,352.71,352.72,0.0,0.0
1629644450.99976993,83028442,0.18,0.19,0.13,0.15,352.71,352.72,0.0,0.0
1629644451.09973001,83128402,0.13,0.16,0.11,0.12,352.71,352.72,0.0,0.0
1629644451.19969010,83228362,0.1,0.11,0.12,0.1,352.71,352.71,0.0,0.0
1629644451.29964995,83328322,0.1,0.08,0.13,0.1,352.71,352.71,0.0,0.0
1629644451.39961004,83428282,0.1,0.07,0.14,0.1,352.71,352.71,0.0,0.0
1629644451.49957013,83528242,0.09,0.06,0.17,0.13,352.71,352.71,0.0,0.0
1629644451.59952998,83628202,0.1,0.08,0.19,0.16,352.71,352.72,0.0,0.0
1629644451.69949007,83728162,0.11,0.09,0.21,0.18,352.71,352.72,0.0,0.0
1629644451.80028296,83828955,0.14,0.11,0.2,0.2,352.71,352.72,0.0,0.0
1629644451.90024304,83928915,0.16,0.12,0.18,0.2,352.71,352.72,0.0,0.0
1629644452.00020313,84028875,0.17,0.15,0.16,0.18,352.71,352.72,0.0,0.0
1629644452.10016298,84128835,0.2,0.18,0.14,0.15,352.71,352.72,0.0,0.0
1629644452.20012307,84228795,0.21,0.21,0.09,0.11,352.71,352.72,0.0,0.0
1629644452.30008292,84328755,0.18,0.21,0.09,0.08,352.71,352.72,0.0,0.0
1629644452.40004301,84428715,0.17,0.18,0.1,0.08,352.71,352.71,0.0,0.0
1629644452.50000310,84528675,0.15,0.15,0.1,0.08,352.71,352.71,0.0,0.0
1629644452.59996295,84628635,0.14,0.14,0.07,0.07,352.71,352.72,0.0,0.0
1629644452.69992304,84728595,0.14,0.14,0.06,0.06,352.71,352.72,0.0,0.0
1629644452.79988313,84828555,0.16,0.14,0.06,0.04,352.71,352.72,0.0,0.0
1629644452.89984298,84928515,0.17,0.15,0.09,0.04,352.71,352.72,0.0,0.0
1629644452.99980307,85028475,0.14,0.14,0.11,0.06,352.71,352.72,0.0,0.0
1629644453.09976292,85128435,0.12,0.12,0.15,0.11,352.71,352.72,0.0,0.0
1629644453.19972301,85228395,0.11,0.1,0.19,0.16,352.71,352.72,0.0,0.0
1629644453.29968309,85328355,0.11,0.09,0.22,0.21,352.71,352.71,0.0,0.0
1629644453.39964294,85428315,0.14,0.1,0.23,0.25,352.71,352.71,0.0,0.0
1629644453.49960303,85528275,0.17,0.14,0.17,0.22,352.71,352.72,0.0,0.0
1629644453.59956312,85628235,0.16,0.16,0.1,0.15,352.71,352.72,0.0,0.0
1629644453.69952297,85728195,0.13,0.15,0.06,0.08,352.71,352.72,0.0,0.0
1629644453.79948306,85828155,0.13,0.13,0.05,0.03,352.71,352.72,0.0,0.0
1629644453.90027595,85928948,0.13,0.13,0.07,0.02,352.71,352.72,0.0,0.0
1629644454.00023603,86028908,0.14,0.12,0.09,0.03,352.71,352.71,0.0,0.0
1629644454.10019612,86128868,0.13,0.12,0.12,0.07,352.71,352.71,0.0,0.0
1629644454.20015597,86228828,0.15,0.13,0.14,0.11,352.71,352.72,0.0,0.0
1629644454.30011606,86328788,0.17,0.14,0.12,0.13,352.71,352.72,0.0,0.0
1629644454.40007591,86428748,0.18,0.16,0.12,0.12,352.71,352.71,0.0,0.0
1629644454.50003600,86528708,0.61,0.26,-1.21,-0.15,352.71,352.71,0.0,0.0
1629644454.59999609,86628668,2.24,1.43,-11.97,-5.76,352.71,352.64,0.0,0.0
1629644454.69995594,86728628,2.72,2.64,-20.38,-16.53,352.71,352.35,0.0,0.0
1629644454.79991603,86828588,2.33,3.02,-19.02,-22.05,352.71,352.28,0.0,0.01
1629644454.89987612,86928548,1.54,2.46,-13.77,-20.54,352.71,352.61,0.0,0.01
1629644454.99983597,87028508,0.78,1.45,-7.79,-14.42,352.71,353.01,0.0,0.01
1629644455.09979606,87128468,0.31,0.5,-3.13,-7.0,352.7,353.23,0.0,0.01
1629644455.19975591,87228428,0.16,-0.06,-0.78,-1.13,352.7,353.26,0.0,0.02
1629644455.29971600,87328388,0.21,-0.24,-0.53,1.75,352.7,353.2,0.01,0.02
1629644455.39967608,87428348,0.39,-0.09,-1.46,1.86,352.7,353.11,0.01,0.02
1629644455.49963593,87528308,0.53,0.19,-2.56,0.34,352.7,352.99,0.01,0.01
1629644455.59959602,87628268,0.57,0.43,-3.07,-1.45,352.7,352.85,0.01,0.01
1629644455.69955611,87728228,0.51,0.55,-2.76,-2.5,352.7,352.71,0.01,0.01
1629644455.79951596,87828188,0.37,0.5,-1.8,-2.45,352.7,352.61,0.01,0.01
1629644455.90030909,87928981,0.16,0.32,-0.59,-1.5,352.7,352.54,0.01,0.01
1629644456.00026894,88028941,-0.02,0.07,0.5,-0.16,352.7,352.49,0.01,0.0
1629644456.10022902,88128901,-0.1,-0.11,1.28,1.08,352.7,352.48,0.01,0.0
1629644456.20018911,88228861,-0.1,-0.19,1.66,1.92,352.7,352.48,0.01,0.0
1629644456.30014896,88328821,-0.07,-0.19,1.73,2.26,352.7,352.51,0.01,0.0
1629644456.40010905,88428781,-0.04,-0.15,1.62,2.19,352.7,352.55,0.01,0.0
1629644456.50006890,88528741,-0.02,-0.09,1.49,1.92,352.7,352.6,0.0,0.0
1629644456.60002899,88628701,-0.03,-0.06,1.43,1.65,352.7,352.66,0.0,0.0
1629644456.69998908,88728661,-0.02,-0.03,1.44,1.47,352.7,352.71,0.0,0.0
1629644456.79994893,88828621,-0.02,-0.02,1.53,1.43,352.7,352.75,0.0,0.0
1629644456.89990902,88928581,-0.02,-0.02,1.67,1.51,352.7,352.78,0.0,0.0
1629644456.99986911,89028541,0.0,0.0,1.78,1.65,352.7,352.8,0.0,0.0
1629644457.09982896,89128501,0.03,0.01,1.81,1.77,352.7,352.81,0.0,0.0
1629644457.19978905,89228461,0.05,0.04,1.76,1.8,352.7,352.8,0.0,0.0
1629644457.29974914,89328421,0.04,0.06,1.67,1.74,352.7,352.79,0.0,0.0
1629644457.39970899,89428381,0.04,0.06,1.54,1.62,352.7,352.77,0.0,0.0
1629644457.49966908,89528341,0.05,0.06,1.43,1.47,352.7,352.75,0.0,0.0
1629644457.59962893,89628301,0.08,0.07,1.3,1.31,352.7,352.73,0.0,0.0
1629644457.69958901,89728261,0.07,0.08,1.22,1.18,352.7,352.71,0.0,0.0
1629644457.79954910,89828221,0.05,0.07,1.16,1.1,352.7,352.69,0.0,0.0
1629644457.89950895,89928181,0.06,0.07,1.1,1.03,352.7,352.68,0.0,0.0
1629644458.00030208,90028974,0.09,0.08,1.02,0.98,352.7,352.68,0.0,0.0
1629644458.10026193,90128934,0.11,0.1,0.95,0.92,352.7,352.68,0.0,0.0
1629644458.20022202,90228894,0.13,0.12,0.87,0.85,352.7,352.68,0.0,0.0
1629644458.30018210,90328854,0.15,0.15,0.8,0.78,352.7,352.68,0.0,0.0
1629644458.40014195,90428814,0.14,0.15,0.73,0.71,352.7,352.69,0.0,0.0
1629644458.50010204,90528774,0.12,0.14,0.66,0.64,352.7,352.69,0.0,0.0
1629644458.60006213,90628734,0.12,0.13,0.56,0.55,352.7,352.7,0.0,0.0
1629644458.70002198,90728694,0.11,0.11,0.48,0.46,352.7,352.71,0.0,0.0
1629644458.79998207,90828654,0.15,0.12,0.4,0.38,352.7,352.71,0.0,0.0
1629644458.89994192,90928614,0.18,0.15,0.36,0.32,352.7,352.72,0.0,0.0
1629644458.99990201,91028574,0.17,0.17,0.33,0.28,352.7,352.72,0.0,0.0
1629644459.09986210,91128534,0.12,0.15,0.3,0.25,352.7,352.72,0.0,0.0
1629644459.19982195,91228494,0.08,0.09,0.28,0.24,352.7,352.72,0.0,0.0
1629644459.29978204,91328454,0.08,0.06,0.24,0.23,352.7,352.71,0.0,0.0
1629644459.39974213,91428414,0.08,0.05,0.19,0.19,352.7,352.71,0.0,0.0
1629644459.49970198,91528374,0.08,0.05,0.14,0.15,352.7,352.7,0.0,0.0
1629644459.59966207,91628334,0.09,0.06,0.1,0.1,352.7,352.7,0.0,0.0
1629644459.69962192,91728294,0.09,0.07,0.1,0.08,352.7,352.7,0.0,0.0
1629644459.79958200,91828254,0.11,0.09,0.08,0.07,352.7,352.69,0.0,0.0
1629644459.89954209,91928214,0.16,0.13,0.05,0.05,352.7,352.69,0.0,0.0
1629644459.99950194,92028174,0.19,0.18,0.02,0.02,352.7,352.69,0.0,0.0
1629644460.10029507,92128967,0.18,0.2,0.02,0.0,352.7,352.7,0.0,0.0
1629644460.20025492,92228927,0.16,0.18,0.03,0.0,352.7,352.7,0.0,0.0
1629644460.30021501,92328887,0.16,0.17,0.07,0.03,352.7,352.7,0.0,0.0
1629644460.40017509,92428847,0.16,0.16,0.07,0.06,352.7,352.7,0.0,0.0
1629644460.50013494,92528807,0.16,0.16,0.05,0.06,352.7,352.7,0.0,0.0
1629644460.60009503,92628767,0.15,0.15,0.07,0.06,352.7,352.71,0.0,0.0
1629644460.70005512,92728727,0.15,0.15,0.08,0.07,352.7,352.71,0.0,0.0
1629644460.80001497,92828687,0.13,0.13,0.04,0.05,352.7,352.71,0.0,0.0
1629644460.89997506,92928647,0.14,0.12,0.01,0.02,352.7,352.71,0.0,0.0
1629644460.99993491,93028607,0.15,0.13,0.02,0.01,352.7,352.71,0.0,0.0
1629644461.09989500,93128567,0.15,0.13,0.01,0.0,352.7,352.7,0.0,0.0
1629644461.19985509,93228527,0.15,0.13,0.04,0.01,352.7,352.7,0.0,0.0
1629644461.29981494,93328487,0.16,0.14,0.05,0.03,352.7,352.7,0.0,0.0
1629644461.39977503,93428447,0.19,0.16,0.05,0.04,352.7,352.7,0.0,0.0
1629644461.49973512,93528407,0.22,0.2,0.04,0.04,352.7,352.7,0.0,0.0
1629644461.59969497,93628367,0.2,0.21,0.04,0.04,352.7,352.7,0.0,0.0
1629644461.69965506,93728327,0.17,0.18,0.04,0.04,352.7,352.7,0.0,0.0
1629644461.79961491,93828287,0.16,0.16,0.07,0.05,352.7,352.69,0.0,0.0
1629644461.89957500,93928247,0.16,0.15,0.08,0.07,352.7,352.69,0.0,0.0
1629644461.99953508,94028207,0.17,0.15,0.1,0.09,352.7,352.7,0.0,0.0
1629644462.09949493,94128167,0.17,0.16,0.11,0.11,352.7,352.7,0.0,0.0
1629644462.20028806,94228960,0.19,0.17,0.12,0.14,352.7,352.7,0.0,0.0
1629644462.30024791,94328920,0.23,0.2,0.12,0.14,352.7,352.7,0.0,0.0
1629644462.40020800,94428880,0.24,0.23,0.13,0.13,352.7,352.7,0.0,0.0
1629644462.50016809,94528840,0.23,0.24,0.13,0.13,352.7,352.7,0.0,0.0
1629644462.60012794,94628800,0.21,0.23,0.14,0.13,352.7,352.7,0.0,0.0
1629644462.70008802,94728760,0.2,0.21,0.11,0.12,352.7,352.69,0.0,0.0
1629644462.80004811,94828720,0.22,0.2,0.09,0.1,352.7,352.69,0.0,0.0
1629644462.90000796,94928680,0.22,0.2,0.07,0.07,352.7,352.69,0.0,0.0
1629644462.99996805,95028640,0.21,0.19,0.07,0.05,352.7,352.69,0.0,0.0
1629644463.09992790,95128600,0.19,0.18,0.07,0.05,352.7,352.69,0.0,0.0
1629644463.19988799,95228560,0.18,0.17,0.07,0.05,352.7,352.7,0.0,0.0
1629644463.29984808,95328520,0.19,0.17,0.08,0.06,352.7,352.7,0.0,0.0
1629644463.39980793,95428480,0.22,0.19,0.09,0.07,352.7,352.7,0.0,0.0
1629644463.49976802,95528440,0.21,0.19,0.13,0.11,352.7,352.7,0.0,0.0
1629644463.59972811,95628400,0.17,0.17,0.18,0.15,352.7,352.7,0.0,0.0
1629644463.69968796,95728360,0.15,0.15,0.21,0.19,352.7,352.7,0.0,0.0
1629644463.79964805,95828320,0.13,0.12,0.23,0.22,352.7,352.7,0.0,0.0
1629644463.89960814,95928280,0.12,0.11,0.22,0.23,352.7,352.7,0.0,0.0
1629644463.99956799,96028240,0.13,0.12,0.18,0.19,352.7,352.7,0.0,0.0
1629644464.09952807,96128200,0.15,0.15,0.17,0.17,352.7,352.7,0.0,0.0
1629644464.19948792,96228160,0.13,0.14,0.2,0.17,352.7,352.7,0.0,0.0
1629644464.30028105,96328953,0.14,0.14,0.22,0.2,352.7,352.7,0.0,0.0
1629644464.40024114,96428913,0.16,0.15,0.23,0.22,352.7,352.7,0.0,0.0
1629644464.50020099,96528873,0.18,0.16,0.25,0.25,352.7,352.7,0.0,0.0
1629644464.60016108,96628833,0.2,0.18,0.24,0.26,352.7,352.7,0.0,0.0
1629644464.70012093,96728793,0.2,0.19,0.21,0.24,352.7,352.7,0.0,0.0
1629644464.80008101,96828753,0.18,0.18,0.18,0.19,352.7,352.7,0.0,0.0
1629644464.90004110,96928713,0.15,0.15,0.19,0.18,352.7,352.7,0.0,0.0
1629644465.00000095,97028673,0.11,0.11,0.19,0.17,352.7,352.7,0.0,0.0
1629644465.09996104,97128633,0.08,0.07,0.19,0.17,352.7,352.7,0.0,0.0
1629644465.19992113,97228593,0.09,0.06,0.19,0.17,352.7,352.7,0.0,0.0
1629644465.29988098,97328553,0.11,0.07,0.21,0.18,352.7,352.7,0.0,0.0
1629644465.39984107,97428513,0.1,0.09,0.22,0.2,352.7,352.7,0.0,0.0
1629644465.49980092,97528473,0.09,0.1,0.22,0.22,352.7,352.7,0.0,0.0
1629644465.59976101,97628433,0.1,0.09,0.22,0.23,352.7,352.7,0.0,0.0
1629644465.69972110,97728393,0.11,0.09,0.22,0.23,352.7,352.7,0.0,0.0
1629644465.79968095,97828353,0.1,0.09,0.2,0.2,352.7,352.7,0.0,0.0
1629644465.89964104,97928313,0.11,0.09,0.16,0.18,352.7,352.7,0.0,0.0
1629644465.99960113,98028273,0.13,0.1,0.12,0.13,352.7,352.7,0.0,0.0
1629644466.09956098,98128233,0.15,0.13,0.12,0.11,352.7,352.7,0.0,0.0
1629644466.19952106,98228193,0.13,0.13,0.15,0.12,352.7,352.7,0.0,0.0
1629644466.30031395,98328986,0.13,0.12,0.15,0.14,352.7,352.71,0.0,0.0
1629644466.40027404,98428946,0.13,0.12,0.18,0.16,352.7,352.7,0.0,0.0
1629644466.50023413,98528906,0.12,0.12,0.21,0.2,352.7,352.7,0.0,0.0
1629644466.60019398,98628866,0.13,0.11,0.19,0.21,352.7,352.7,0.0,0.0
1629644466.70015407,98728826,0.13,0.12,0.18,0.2,352.7,352.7,0.0,0.0
1629644466.80011392,98828786,0.11,0.11,0.16,0.17,352.7,352.7,0.0,0.0
1629644466.90007401,98928746,0.12,0.11,0.14,0.15,352.7,352.7,0.0,0.0
1629644467.00003409,99028706,0.14,0.12,0.11,0.11,352.7,352.69,0.0,0.0
1629644467.09999394,99128666,0.13,0.13,0.1,0.09,352.7,352.69,0.0,0.0
1629644467.19995403,99228626,0.14,0.13,0.1,0.07,352.7,352.7,0.0,0.0
1629644467.29991412,99328586,0.15,0.14,0.13,0.09,352.7,352.7,0.0,0.0
1629644467.39987397,99428546,0.15,0.15,0.15,0.12,352.7,352.7,0.0,0.0
1629644467.49983406,99528506,0.17,0.17,0.12,0.13,352.7,352.7,0.0,0.0
1629644467.59979391,99628466,0.19,0.18,0.12,0.12,352.7,352.71,0.0,0.0
1629644467.69975400,99728426,0.2,0.2,0.12,0.12,352.7,352.71,0.0,0.0
1629644467.79971409,99828386,0.22,0.21,0.15,0.12,352.7,352.71,0.0,0.0
1629644467.89967394,99928346,0.21,0.22,0.16,0.14,352.7,352.71,0.0,0.0
1629644467.99963403,100028306,0.17,0.19,0.14,0.14,352.7,352.71,0.0,0.0
1629644468.09959412,100128266,0.15,0.16,0.14,0.14,352.7,352.7,0.0,0.0
1629644468.19955397,100228226,0.13,0.12,0.12,0.12,352.7,352.7,0.0,0.0
1629644468.29951406,100328186,0.14,0.12,0.12,0.11,352.7,352.7,0.0,0.0
1629644468.40030694,100428979,0.15,0.12,0.13,0.11,352.7,352.7,0.0,0.0
1629644468.50026703,100528939,0.15,0.13,0.17,0.14,352.7,352.7,0.0,0.0
1629644468.60022712,100628899,0.13,0.13,0.21,0.18,352.7,352.7,0.0,0.0
1629644468.70018697,100728859,0.12,0.11,0.19,0.19,352.7,352.7,0.0,0.0
1629644468.80014706,100828819,0.13,0.11,0.15,0.16,352.7,352.7,0.0,0.0
1629644468.90010691,100928779,0.16,0.14,0.14,0.13,352.7,352.7,0.0,0.0
1629644469.00006700,101028739,0.14,0.16,0.13,0.11,352.7,352.7,0.0,0.0
1629644469.10002708,101128699,0.11,0.14,0.15,0.11,352.7,352.7,0.0,0.0
1629644469.19998693,101228659,0.12,0.11,0.18,0.13,352.7,352.7,0.0,0.0
1629644469.29994702,101328619,0.15,0.12,0.17,0.14,352.7,352.7,0.0,0.0
1629644469.39990711,101428579,0.17,0.14,0.16,0.14,352.7,352.7,0.0,0.0
1629644469.49986696,101528539,0.15,0.16,0.15,0.14,352.7,352.7,0.0,0.0
1629644469.59982705,101628499,0.12,0.13,0.13,0.13,352.7,352.7,0.0,0.0
1629644469.69978690,101728459,0.12,0.11,0.14,0.13,352.7,352.7,0.0,0.0
1629644469.79974699,101828419,0.13,0.1,0.18,0.14,352.7,352.7,0.0,0.0
1629644469.89970708,101928379,0.17,0.12,0.23,0.19,352.7,352.7,0.0,0.0
1629644469.99966693,102028339,0.2,0.17,0.23,0.23,352.7,352.71,0.0,0.0
1629644470.09962702,102128299,0.22,0.21,0.2,0.22,352.7,352.71,0.0,0.0
1629644470.19958711,102228259,0.21,0.21,0.16,0.18,352.7,352.71,0.0,0.0
1629644470.29954696,102328219,0.19,0.2,0.12,0.14,352.7,352.71,0.0,0.0
1629644470.39950705,102428179,0.15,0.17,0.09,0.09,352.7,352.71,0.0,0.0
1629644470.50029993,102528972,0.11,0.12,0.1,0.07,352.7,352.71,0.0,0.0
1629644470.60026002,102628932,0.09,0.07,0.14,0.09,352.7,352.71,0.0,0.0
1629644470.70022011,102728892,0.09,0.05,0.16,0.13,352.7,352.7,0.0,0.0
1629644470.80017996,102828852,0.11,0.05,0.18,0.16,352.7,352.7,0.0,0.0
1629644470.90014005,102928812,0.16,0.1,0.18,0.19,352.7,352.71,0.0,0.0
1629644471.00010014,103028772,0.19,0.15,0.15,0.17,352.7,352.71,0.0,0.0
1629644471.10005999,103128732,0.21,0.2,0.13,0.14,352.7,352.71,0.0,0.0
1629644471.20002007,103228692,0.21,0.22,0.12,0.11,352.7,352.71,0.0,0.0
1629644471.29997993,103328652,0.21,0.22,0.14,0.11,352.7,352.72,0.0,0.0
1629644471.39994001,103428612,0.2,0.21,0.16,0.13,352.7,352.72,0.0,0.0
1629644471.49990010,103528572,0.22,0.21,0.18,0.16,352.7,352.72,0.0,0.0
1629644471.59985995,103628532,0.21,0.21,0.18,0.18,352.7,352.71,0.0,0.0
1629644471.69982004,103728492,0.18,0.2,0.19,0.19,352.7,352.71,0.0,0.0
1629644471.79978013,103828452,0.16,0.17,0.22,0.21,352.7,352.71,0.0,0.0
1629644471.89973998,103928412,0.17,0.16,0.24,0.24,352.7,352.71,0.0,0.0
1629644471.99970007,104028372,0.17,0.16,0.24,0.24,352.7,352.71,0.0,0.0
1629644472.09965992,104128332,0.18,0.16,0.22,0.23,352.7,352.7,0.0,0.0
1629644472.19962001,104228292,0.18,0.17,0.21,0.21,352.7,352.7,0.0,0.0
1629644472.29958010,104328252,0.19,0.18,0.18,0.19,352.7,352.7,0.0,0.0
1629644472.39953995,104428212,0.19,0.18,0.17,0.17,352.7,352.7,0.0,0.0
1629644472.49950004,104528172,0.19,0.19,0.17,0.15,352.7,352.7,0.0,0.0
1629644472.60029292,104628965,0.17,0.17,0.2,0.16,352.7,352.7,0.0,0.0
1629644472.70025301,104728925,0.16,0.16,0.21,0.19,352.7,352.7,0.0,0.0
1629644472.80021310,104828885,0.14,0.14,0.2,0.2,352.7,352.7,0.0,0.0
1629644472.90017295,104928845,0.14,0.12,0.19,0.19,352.7,352.7,0.0,0.0
1629644473.00013304,105028805,0.19,0.14,0.17,0.17,352.7,352.7,0.0,0.0
1629644473.10009313,105128765,0.24,0.19,0.16,0.16,352.7,352.7,0.0,0.0
1629644473.20005298,105228725,0.27,0.25,0.16,0.15,352.7,352.71,0.0,0.0
1629644473.30001307,105328685,0.27,0.28,0.16,0.15,352.7,352.71,0.0,0.0
1629644473.39997292,105428645,0.24,0.26,0.15,0.14,352.7,352.71,0.0,0.0
1629644473.49993300,105528605,0.22,0.23,0.13,0.13,352.7,352.71,0.0,0.0
1629644473.59989309,105628565,0.22,0.21,0.12,0.11,352.7,352.71,0.0,0.0
1629644473.69985294,105728525,0.25,0.22,0.15,0.12,352.7,352.71,0.0,0.0
1629644473.79981303,105828485,0.29,0.25,0.18,0.15,352.7,352.71,0.0,0.0
1629644473.89977312,105928445,0.31,0.3,0.21,0.19,352.7,352.71,0.0,0.0
1629644473.99973297,106028405,0.3,0.31,0.22,0.22,352.7,352.71,0.0,0.0
1629644474.09969306,106128365,0.3,0.3,0.2,0.22,352.7,352.7,0.0,0.0
1629644474.19965291,106228325,0.29,0.29,0.15,0.18,352.7,352.7,0.0,0.0
1629644474.29961300,106328285,0.28,0.28,0.13,0.14,352.7,352.7,0.0,0.0
1629644474.39957309,106428245,0.29,0.27,0.12,0.11,352.7,352.7,0.0,0.0
1629644474.49953294,106528205,0.29,0.27,0.14,0.11,352.7,352.7,0.0,0.0
1629644474.59949303,106628165,0.28,0.26,0.16,0.13,352.7,352.7,0.0,0.0
1629644474.70028591,106728958,0.27,0.26,0.21,0.17,352.7,352.7,0.0,0.0
1629644474.80024600,106828918,0.27,0.25,0.23,0.21,352.7,352.7,0.0,0.0
1629644474.90020609,106928878,0.25,0.24,0.23,0.23,352.7,352.7,0.0,0.0
1629644475.00016594,107028838,0.23,0.22,0.19,0.21,352.7,352.7,0.0,0.0
1629644475.10012603,107128798,0.2,0.2,0.16,0.17,352.7,352.7,0.0,0.0
1629644475.20008612,107228758,0.18,0.17,0.13,0.13,352.7,352.7,0.0,0.0
1629644475.30004597,107328718,0.15,0.15,0.13,0.11,352.7,352.7,0.0,0.0
1629644475.40000606,107428678,0.12,0.11,0.14,0.11,352.7,352.71,0.0,0.0
1629644475.49996591,107528638,0.12,0.09,0.15,0.11,352.7,352.71,0.0,0.0
1629644475.59992599,107628598,0.13,0.1,0.16,0.14,352.7,352.71,0.0,0.0
1629644475.69988608,107728558,0.13,0.12,0.17,0.16,352.7,352.71,0.0,0.0
1629644475.79984593,107828518,0.11,0.11,0.18,0.17,352.7,352.71,0.0,0.0
1629644475.89980602,107928478,0.08,0.09,0.18,0.18,352.7,352.71,0.0,0.0
1629644475.99976611,108028438,0.06,0.06,0.17,0.17,352.7,352.71,0.0,0.0
1629644476.09972596,108128398,0.07,0.05,0.15,0.15,352.7,352.71,0.0,0.0
1629644476.19968605,108228358,0.07,0.05,0.13,0.13,352.7,352.71,0.0,0.0
1629644476.29964614,108328318,0.06,0.04,0.14,0.12,352.7,352.7,0.0,0.0
1629644476.39960599,108428278,0.1,0.05,0.13,0.11,352.7,352.7,0.0,0.0
1629644476.49956608,108528238,0.15,0.1,0.13,0.1,352.7,352.7,0.0,0.0
1629644476.59952593,108628198,0.16,0.14,0.14,0.12,352.7,352.7,0.0,0.0
1629644476.69948602,108728158,0.16,0.16,0.16,0.14,352.7,352.7,0.0,0.0
1629644476.80027890,108828951,0.15,0.15,0.18,0.17,352.7,352.7,0.0,0.0
1629644476.90023899,108928911,0.13,0.14,0.21,0.2,352.7,352.7,0.0,0.0
1629644477.00019908,109028871,0.11,0.11,0.22,0.22,352.7,352.71,0.0,0.0
1629644477.10015893,109128831,0.13,0.11,0.21,0.23,352.7,352.71,0.0,0.0
1629644477.20011902,109228791,0.15,0.12,0.2,0.22,352.7,352.71,0.0,0.0
1629644477.30007911,109328751,0.18,0.15,0.18,0.2,352.7,352.71,0.0,0.0
1629644477.40003896,109428711,0.21,0.19,0.15,0.16,352.7,352.71,0.0,0.0
1629644477.49999905,109528671,0.23,0.22,0.15,0.14,352.7,352.71,0.0,0.0
1629644477.59995914,109628631,0.24,0.24,0.19,0.15,352.7,352.71,0.0,0.0
1629644477.69991899,109728591,0.23,0.24,0.23,0.2,352.7,352.71,0.0,0.0
1629644477.79987907,109828551,0.23,0.24,0.23,0.22,352.7,352.71,0.0,0.0
1629644477.89983892,109928511,0.23,0.24,0.2,0.21,352.7,352.71,0.0,0.0
1629644477.99979901,110028471,0.23,0.22,0.17,0.18,352.7,352.71,0.0,0.0
1629644478.09975910,110128431,0.23,0.22,0.14,0.15,352.7,352.71,0.0,0.0
1629644478.19971895,110228391,0.25,0.23,0.11,0.11,352.7,352.71,0.0,0.0
1629644478.29967904,110328351,0.24,0.24,0.09,0.07,352.7,352.71,0.0,0.0
1629644478.39963913,110428311,0.22,0.23,0.11,0.06,352.7,352.7,0.0,0.0
1629644478.49959898,110528271,0.21,0.22,0.13,0.09,352.7,352.7,0.0,0.0
1629644478.59955907,110628231,0.19,0.2,0.14,0.12,352.7,352.71,0.0,0.0
1629644478.69951892,110728191,0.18,0.18,0.15,0.14,352.7,352.71,0.0,0.0
1629644478.80031204,110828984,0.16,0.16,0.16,0.15,352.7,352.71,0.0,0.0
1629644478.90027213,110928944,0.15,0.15,0.17,0.17,352.7,352.71,0.0,0.0
1629644479.00023198,111028904,0.15,0.14,0.2,0.19,352.7,352.71,0.0,0.0
1629644479.10019207,111128864,0.16,0.14,0.19,0.2,352.7,352.71,0.0,0.0
1629644479.20015192,111228824,0.18,0.15,0.17,0.18,352.7,352.71,0.0,0.0
1629644479.30011201,111328784,0.2,0.18,0.16,0.17,352.7,352.71,0.0,0.0
1629644479.40007210,111428744,0.21,0.19,0.17,0.15,352.7,352.71,0.0,0.0
1629644479.50003195,111528704,0.19,0.19,0.17,0.16,352.7,352.7,0.0,0.0
1629644479.59999204,111628664,0.16,0.16,0.19,0.16,352.7,352.7,0.0,0.0
1629644479.69995213,111728624,0.17,0.15,0.2,0.18,352.7,352.7,0.0,0.0
1629644479.79991198,111828584,0.19,0.16,0.21,0.19,352.7,352.7,0.0,0.0
1629644479.89987206,111928544,0.2,0.19,0.21,0.21,352.7,352.7,0.0,0.0
1629644479.99983191,112028504,0.19,0.19,0.17,0.19,352.7,352.7,0.0,0.0
1629644480.09979200,112128464,0.19,0.19,0.15,0.16,352.7,352.7,0.0,0.0
1629644480.19975209,112228424,0.21,0.19,0.16,0.14,352.7,352.71,0.0,0.0
1629644480.29971194,112328384,0.23,0.2,0.19,0.15,352.7,352.71,0.0,0.0
1629644480.39967203,112428344,0.24,0.22,0.19,0.17,352.7,352.71,0.0,0.0
1629644480.49963212,112528304,0.25,0.23,0.17,0.17,352.7,352.71,0.0,0.0
1629644480.59959197,112628264,0.23,0.23,0.16,0.15,352.7,352.71,0.0,0.0
1629644480.69955206,112728224,0.2,0.21,0.16,0.15,352.7,352.71,0.0,0.0
1629644480.79951191,112828184,0.18,0.18,0.17,0.15,352.7,352.7,0.0,0.0
1629644480.90030503,112928977,0.17,0.16,0.18,0.16,352.7,352.7,0.0,0.0
1629644481.00026512,113028937,0.18,0.16,0.18,0.17,352.7,352.7,0.0,0.0
1629644481.10022497,113128897,0.2,0.17,0.17,0.17,352.7,352.7,0.0,0.0
1629644481.20018506,113228857,0.21,0.19,0.17,0.17,352.7,352.7,0.0,0.0
1629644481.30014491,113328817,0.21,0.2,0.19,0.18,352.7,352.7,0.0,0.0
1629644481.40010500,113428777,0.17,0.18,0.2,0.18,352.7,352.71,0.0,0.0
1629644481.50006509,113528737,0.14,0.15,0.19,0.18,352.7,352.71,0.0,0.0
1629644481.60002494,113628697,0.1,0.11,0.21,0.18,352.7,352.71,0.0,0.0
1629644481.69998503,113728657,0.09,0.07,0.23,0.2,352.7,352.71,0.0,0.0
1629644481.79994512,113828617,0.54,0.17,-0.57,0.08,352.7,352.71,0.0,0.0
1629644481.89990497,113928577,1.44,0.99,-8.49,-4.51,352.7,352.68,0.0,0.0
1629644481.99986506,114028537,1.77,1.71,-13.6,-11.47,352.7,352.57,0.0,0.0
1629644482.09982491,114128497,1.58,1.94,-14.9,-15.93,352.7,352.52,0.0,0.01
1629644482.19978499,114228457,1.07,1.61,-13.53,-16.71,352.7,352.61,0.0,0.01
1629644482.29974508,114328417,0.5,0.94,-10.78,-14.45,352.7,352.76,0.0,0.01
1629644482.39970493,114428377,0.14,0.27,-7.98,-10.69,352.7,352.87,0.0,0.01
1629644482.49966502,114528337,0.07,-0.1,-5.9,-7.04,352.7,352.9,0.0,0.01
1629644482.59962511,114628297,0.17,-0.15,-4.7,-4.43,352.7,352.9,0.0,0.01
1629644482.69958496,114728257,0.33,0.01,-4.14,-3.07,352.7,352.87,0.0,0.01
1629644482.79954505,114828217,0.42,0.22,-3.82,-2.62,352.7,352.84,0.0,0.01
1629644482.89950514,114928177,0.41,0.36,-3.38,-2.51,352.7,352.79,0.0,0.01
1629644483.00029802,115028970,0.31,0.36,-2.68,-2.28,352.7,352.74,0.0,0.01
1629644483.10025811,115128930,0.17,0.25,-1.82,-1.75,352.7,352.7,0.0,0.01
1629644483.20021796,115228890,0.01,0.08,-0.91,-0.98,352.7,352.66,0.0,0.0
1629644483.30017805,115328850,-0.11,-0.08,-0.02,-0.09,352.7,352.63,0.0,0.0
1629644483.40013790,115428810,-0.23,-0.24,0.76,0.77,352.7,352.61,0.0,0.0
1629644483.50009799,115528770,-0.36,-0.37,1.42,1.54,352.7,352.61,0.0,0.0
1629644483.60005808,115628730,-0.53,-0.51,1.99,2.16,351.25,352.58,0.0,0.0
1629644483.70001793,115728690,-0.73,-0.63,2.52,2.71,347.1,352.2,0.0,0.0
1629644483.79997802,115828650,-0.97,-0.72,3.0,3.21,341.14,350.73,0.0,0.0
1629644483.89993811,115928610,-1.3,-0.87,3.41,3.67,335.14,347.6,0.0,0.0
1629644483.99989796,116028570,-1.84,-1.23,3.72,4.03,329.14,342.77,0.0,0.01
1629644484.09985805,116128530,-2.6,-1.88,3.85,4.24,323.14,336.48,0.0,0.01
1629644484.19981813,116228490,-3.5,-2.77,3.76,4.2,317.14,329.06,0.0,0.02
1629644484.29977798,116328450,-4.5,-3.86,3.43,3.89,311.14,320.86,0.0,0.03
1629644484.39973807,116428410,-5.5,-5.03,2.83,3.25,305.14,312.21,0.0,0.05
1629644484.49969792,116528370,-6.39,-6.13,1.96,2.27,299.14,303.43,0.0,0.06
1629644484.59965801,116628330,-7.06,-7.0,0.9,1.01,293.14,294.82,0.0,0.06
1629644484.69961810,116728290,-7.52,-7.57,-0.23,-0.37,287.14,286.61,0.0,0.07
1629644484.79957795,116828250,-7.77,-7.84,-1.4,-1.77,281.14,278.97,0.0,0.08
1629644484.89953804,116928210,-7.74,-7.8,-2.52,-3.06,275.14,271.96,0.0,0.08
1629644484.99949813,117028170,-7.5,-7.49,-3.55,-4.18,269.14,265.58,0.0,0.08
1629644485.10029101,117128963,-7.13,-7.03,-4.42,-5.06,263.14,259.74,0.0,0.07
1629644485.20025110,117228923,-6.71,-6.51,-5.21,-5.74,257.14,254.33,0.0,0.07
1629644485.30021095,117328883,-6.26,-6.03,-5.95,-6.29,251.14,249.22,0.0,0.07
1629644485.40017104,117428843,-5.78,-5.58,-6.65,-6.81,245.14,244.26,0.0,0.06
1629644485.50013113,117528803,-5.26,-5.17,-7.29,-7.3,239.14,239.3,0.0,0.06
1629644485.60009098,117628763,-4.68,-4.73,-7.98,-7.84,233.14,234.22,0.0,0.05
1629644485.70005107,117728723,-3.99,-4.21,-8.73,-8.48,227.14,228.95,0.0,0.05
1629644485.80001092,117828683,-3.18,-3.54,-9.48,-9.22,221.14,223.42,0.0,0.05
1629644485.89997101,117928643,-2.23,-2.69,-10.18,-9.98,215.14,217.62,0.0,0.05
1629644485.99993110,118028603,-1.1,-1.6,-10.77,-10.67,209.14,211.56,0.0,0.05
1629644486.09989095,118128563,0.14,-0.32,-11.19,-11.21,203.24,205.3,0.0,0.05
1629644486.19985104,118228523,1.5,1.28,-11.44,-11.52,199.31,198.98,0.0,0.05
1629644486.29981112,118328483,2.86,3.3,-11.53,-11.51,197.75,193.11,0.0,0.06
1629644486.39977098,118428443,4.05,5.37,-11.56,-11.25,197.23,188.43,0.0,0.06
1629644486.49973106,118528403,4.86,7.05,-11.66,-10.95,197.22,185.41,0.0,0.06
1629644486.59969091,118628363,5.19,8.01,-11.92,-10.85,197.42,184.12,0.0,0.05
1629644486.69965100,118728323,5.06,8.17,-12.35,-11.04,197.71,184.37,0.0,0.04
1629644486.79961109,118828283,4.56,7.57,-12.92,-11.54,198.01,185.85,0.0,0.04
1629644486.89957094,118928243,3.84,6.39,-13.6,-12.33,198.29,188.23,0.0,0.04
1629644486.99953103,119028203,3.02,4.85,-14.28,-13.28,198.54,191.21,0.0,0.05
1629644487.09949112,119128163,2.16,3.15,-14.84,-14.21,198.75,194.46,0.0,0.05
1629644487.20028400,119228956,1.41,1.51,-15.2,-14.96,198.94,197.65,0.0,0.06
1629644487.30024409,119328916,0.84,0.14,-15.34,-15.41,199.11,200.47,0.0,0.06
1629644487.40020394,119428876,0.52,-0.79,-15.39,-15.58,199.27,202.64,0.0,0.06
1629644487.50016403,119528836,0.4,-1.26,-15.44,-15.61,199.44,204.06,0.0,0.06
1629644487.60012412,119628796,0.42,-1.3,-15.49,-15.59,199.62,204.71,0.0,0.05
1629644487.70008397,119728756,0.58,-1.02,-15.54,-15.58,199.8,204.67,0.0,0.05
1629644487.80004406,119828716,0.85,-0.48,-15.58,-15.57,199.98,204.1,0.0,0.04
1629644487.90000391,119928676,1.18,0.21,-15.66,-15.59,200.17,203.16,0.0,0.03
1629644487.99996400,120028636,1.52,0.99,-15.75,-15.65,200.36,202.06,0.0,0.02
1629644488.09992409,120128596,1.8,1.72,-15.85,-15.74,200.54,200.97,0.0,0.02
1629644488.19988394,120228556,2.0,2.3,-15.96,-15.85,200.71,200.03,0.0,0.02
1629644488.29984403,120328516,2.12,2.7,-16.03,-15.94,200.87,199.34,0.0,0.01
1629644488.39980412,120428476,2.18,2.92,-16.07,-15.99,201.02,198.96,0.0,0.01
1629644488.49976397,120528436,2.17,2.96,-16.09,-16.02,201.15,198.88,0.0,0.01
1629644488.59972405,120628396,2.09,2.85,-16.13,-16.05,201.28,199.08,0.0,0.01
1629644488.69968390,120728356,1.93,2.59,-16.21,-16.11,201.39,199.49,0.0,0.01
1629644488.79964399,120828316,1.74,2.24,-16.29,-16.21,201.49,200.05,0.0,0.01
1629644488.89960408,120928276,1.57,1.87,-16.35,-16.3,201.58,200.67,0.0,0.01
1629644488.99956393,121028236,1.45,1.53,-16.42,-16.39,201.67,201.29,0.0,0.02
1629644489.09952402,121128196,1.33,1.27,-16.48,-16.47,201.76,201.84,0.0,0.02
1629644489.19948411,121228156,1.23,1.05,-16.52,-16.54,201.84,202.28,0.0,0.02
1629644489.30027699,121328949,1.18,0.91,-16.54,-16.57,201.92,202.59,0.0,0.02
1629644489.40023708,121428909,1.18,0.87,-16.57,-16.6,201.99,202.77,0.0,0.02
1629644489.50019693,121528869,1.23,0.93,-16.6,-16.62,202.07,202.82,0.0,0.01
1629644489.60015702,121628829,1.31,1.06,-16.64,-16.65,202.15,202.78,0.0,0.01
1629644489.70011711,121728789,1.4,1.22,-16.69,-16.68,202.23,202.67,0.0,0.01
1629644489.80007696,121828749,1.47,1.4,-16.73,-16.72,202.31,202.52,0.0,0.01
1629644489.90003705,121928709,1.5,1.53,-16.78,-16.76,202.39,202.38,0.0,0.01
1629644489.99999714,122028669,1.53,1.63,-16.84,-16.83,202.46,202.26,0.0,0.01
1629644490.09995699,122128629,1.53,1.69,-16.89,-16.88,202.53,202.18,0.0,0.01
1629644490.19991708,122228589,1.5,1.69,-16.92,-16.93,202.6,202.15,0.0,0.01
1629644490.29987693,122328549,1.48,1.66,-16.95,-16.96,202.66,202.17,0.0,0.01
1629644490.39983702,122428509,1.49,1.64,-16.95,-16.97,202.72,202.24,0.0,0.01
1629644490.49979711,122528469,1.5,1.63,-16.94,-16.95,202.78,202.35,0.0,0.01
1629644490.59975696,122628429,1.5,1.61,-16.97,-16.96,202.84,202.48,0.0,0.01
1629644490.69971704,122728389,1.46,1.56,-17.02,-16.99,202.9,202.63,0.0,0.01
1629644490.79967713,122828349,1.42,1.49,-17.08,-17.05,202.95,202.77,0.0,0.01
1629644490.89963698,122928309,1.35,1.4,-17.14,-17.12,203.0,202.9,0.0,0.01
1629644490.99959707,123028269,1.29,1.31,-17.17,-17.19,203.05,203.02,0.0,0.01
1629644491.09955692,123128229,1.29,1.25,-17.19,-17.22,203.09,203.12,0.0,0.01
1629644491.19951701,123228189,1.33,1.25,-17.19,-17.23,203.14,203.19,0.0,0.01
1629644491.30031013,123328982,1.36,1.3,-17.21,-17.24,203.18,203.23,0.0,0.01
1629644491.40026999,123428942,1.38,1.35,-17.24,-17.26,203.22,203.26,0.0,0.0
1629644491.50023007,123528902,1.42,1.4,-17.25,-17.26,203.27,203.27,0.0,0.0
1629644491.60018992,123628862,1.47,1.46,-17.28,-17.27,203.31,203.27,0.0,0.0
1629644491.70015001,123728822,1.47,1.51,-17.31,-17.29,203.35,203.27,0.0,0.0
1629644491.80011010,123828782,1.44,1.52,-17.32,-17.32,203.39,203.28,0.0,0.0
1629644491.90006995,123928742,1.41,1.49,-17.33,-17.33,203.43,203.29,0.0,0.0
1629644492.00003004,124028702,1.39,1.45,-17.35,-17.36,203.47,203.31,0.0,0.0
1629644492.09999013,124128662,1.39,1.43,-17.36,-17.37,203.51,203.34,0.0,0.0
1629644492.19994998,124228622,1.4,1.43,-17.39,-17.39,203.55,203.38,0.0,0.0
1629644492.29991007,124328582,1.41,1.43,-17.43,-17.42,203.58,203.43,0.0,0.0
1629644492.39986992,124428542,1.4,1.43,-17.45,-17.46,203.62,203.47,0.0,0.0
1629644492.49983001,124528502,1.41,1.43,-17.45,-17.47,203.65,203.52,0.0,0.0
1629644492.59979010,124628462,1.42,1.44,-17.42,-17.46,203.68,203.57,0.0,0.0
1629644492.69974995,124728422,1.43,1.45,-17.33,-17.39,203.71,203.62,0.0,0.0
1629644492.79971004,124828382,1.46,1.47,-17.24,-17.29,203.73,203.66,0.0,0.0
1629644492.89967012,124928342,1.47,1.49,-17.18,-17.19,203.75,203.7,0.0,0.0
1629644492.99962997,125028302,1.45,1.49,-17.15,-17.13,203.78,203.73,0.0,0.0
1629644493.09959006,125128262,1.43,1.48,-17.14,-17.12,203.79,203.75,0.0,0.0
1629644493.19954991,125228222,1.42,1.46,-17.16,-17.13,203.81,203.77,0.0,0.0
1629644493.29951000,125328182,1.41,1.44,-17.16,-17.15,203.83,203.77,0.0,0.0
1629644493.40030313,125428975,1.39,1.42,-17.15,-17.15,203.85,203.78,0.0,0.0
1629644493.50026298,125528935,1.38,1.4,-17.13,-17.15,203.86,203.78,0.0,0.0
1629644493.60022306,125628895,1.4,1.4,-17.11,-17.13,203.88,203.78,0.0,0.0
1629644493.70018291,125728855,1.44,1.44,-17.09,-17.1,203.89,203.79,0.0,0.0
1629644493.80014300,125828815,1.46,1.48,-17.07,-17.08,203.9,203.8,0.0,0.0
1629644493.90010309,125928775,1.47,1.5,-17.08,-17.07,203.92,203.81,0.0,0.0
1629644494.00006294,126028735,1.47,1.5,-17.09,-17.07,203.93,203.82,0.0,0.0
1629644494.10002303,126128695,1.47,1.5,-17.1,-17.08,203.94,203.83,0.0,0.0
1629644494.19998312,126228655,1.47,1.51,-17.1,-17.09,203.96,203.85,0.0,0.0
1629644494.29994297,126328615,1.47,1.5,-17.11,-17.1,203.97,203.87,0.0,0.0
1629644494.39990306,126428575,1.45,1.49,-17.11,-17.11,203.98,203.89,0.0,0.0
1629644494.49986291,126528535,1.42,1.46,-17.12,-17.12,203.99,203.91,0.0,0.0
1629644494.59982300,126628495,1.37,1.41,-17.15,-17.14,203.99,203.93,0.0,0.0
1629644494.69978309,126728455,1.36,1.36,-17.16,-17.16,204.0,203.94,0.0,0.0
1629644494.79974294,126828415,1.39,1.36,-17.15,-17.17,204.01,203.95,0.0,0.0
1629644494.89970303,126928375,1.41,1.38,-17.14,-17.16,204.01,203.96,0.0,0.0
1629644494.99966311,127028335,1.43,1.41,-17.15,-17.15,204.02,203.96,0.0,0.0
1629644495.09962296,127128295,1.43,1.44,-17.16,-17.17,204.03,203.96,0.0,0.0
1629644495.19958305,127228255,1.4,1.44,-17.18,-17.19,204.03,203.96,0.0,0.0
1629644495.29954290,127328215,1.39,1.43,-17.17,-17.19,204.04,203.97,0.0,0.0
1629644495.39950299,127428175,1.39,1.41,-17.13,-17.18,204.05,203.97,0.0,0.0
1629644495.50029612,127528968,1.4,1.4,-17.09,-17.13,204.05,203.97,0.0,0.0
1629644495.60025597,127628928,1.39,1.4,-17.06,-17.09,204.06,203.98,0.0,0.0
1629644495.70021605,127728888,1.39,1.4,-17.07,-17.06,204.06,203.99,0.0,0.0
1629644495.80017591,127828848,1.39,1.4,-17.1,-17.08,204.07,203.99,0.0,0.0
1629644495.90013599,127928808,1.4,1.4,-17.12,-17.12,204.07,204.0,0.0,0.0
1629644496.00009608,128028768,1.4,1.42,-17.12,-17.14,204.08,204.01,0.0,0.0
1629644496.10005593,128128728,1.41,1.43,-17.11,-17.13,204.08,204.02,0.0,0.0
1629644496.20001602,128228688,1.41,1.43,-17.12,-17.13,204.08,204.02,0.0,0.0
1629644496.29997611,128328648,1.39,1.43,-17.12,-17.13,204.09,204.03,0.0,0.0
1629644496.39993596,128428608,1.39,1.41,-17.12,-17.13,204.09,204.03,0.0,0.0
1629644496.49989605,128528568,1.41,1.42,-17.11,-17.12,204.1,204.04,0.0,0.0
1629644496.59985614,128628528,1.42,1.43,-17.09,-17.1,204.1,204.04,0.0,0.0
1629644496.69981599,128728488,1.45,1.46,-17.07,-17.08,204.11,204.04,0.0,0.0
1629644496.79977608,128828448,1.49,1.49,-17.04,-17.05,204.11,204.04,0.0,0.0
1629644496.89973593,128928408,1.51,1.52,-17.04,-17.04,204.12,204.05,0.0,0.0
1629644496.99969602,129028368,1.48,1.53,-17.04,-17.04,204.12,204.05,0.0,0.0
1629644497.09965611,129128328,1.45,1.5,-17.05,-17.04,204.13,204.06,0.0,0.0
1629644497.19961596,129228288,1.45,1.49,-17.06,-17.05,204.14,204.07,0.0,0.0
1629644497.29957604,129328248,1.45,1.48,-17.04,-17.05,204.14,204.07,0.0,0.0
1629644497.39953613,129428208,1.45,1.47,-17.03,-17.04,204.15,204.08,0.0,0.0
1629644497.49949598,129528168,1.44,1.46,-17.06,-17.06,204.15,204.09,0.0,0.0
1629644497.60028911,129628961,1.46,1.45,-17.09,-17.09,204.16,204.09,0.0,0.0
1629644497.70024896,129728921,1.48,1.47,-17.11,-17.12,204.16,204.1,0.0,0.0
1629644497.80020905,129828881,1.47,1.49,-17.11,-17.14,204.17,204.11,0.0,0.0
1629644497.90016913,129928841,1.44,1.48,-17.11,-17.14,204.17,204.12,0.0,0.0
1629644498.00012898,130028801,1.41,1.44,-17.1,-17.13,204.18,204.13,0.0,0.0
1629644498.10008907,130128761,1.43,1.41,-17.09,-17.12,204.18,204.13,0.0,0.0
1629644498.20004892,130228721,1.45,1.43,-17.08,-17.1,204.18,204.14,0.0,0.0
1629644498.30000901,130328681,1.45,1.45,-17.09,-17.09,204.19,204.15,0.0,0.0
1629644498.39996910,130428641,1.46,1.46,-17.1,-17.09,204.19,204.15,0.0,0.0
1629644498.49992895,130528601,1.47,1.47,-17.11,-17.09,204.19,204.16,0.0,0.0
1629644498.59988904,130628561,1.45,1.47,-17.13,-17.11,204.2,204.16,0.0,0.0
1629644498.69984913,130728521,1.43,1.46,-17.13,-17.13,204.2,204.16,0.0,0.0
1629644498.79980898,130828481,1.42,1.44,-17.13,-17.14,204.2,204.16,0.0,0.0
1629644498.89976907,130928441,1.42,1.42,-17.12,-17.15,204.2,204.15,0.0,0.0
1629644498.99972892,131028401,1.43,1.42,-17.11,-17.14,204.2,204.15,0.0,0.0
1629644499.09968901,131128361,1.45,1.44,-17.09,-17.12,204.2,204.15,0.0,0.0
1629644499.19964910,131228321,1.44,1.45,-17.08,-17.1,204.21,204.15,0.0,0.0
1629644499.29960895,131328281,1.43,1.45,-17.08,-17.09,204.21,204.15,0.0,0.0
1629644499.39956903,131428241,1.39,1.42,-17.1,-17.09,204.21,204.15,0.0,0.0
1629644499.49952912,131528201,1.4,1.41,-17.09,-17.09,204.21,204.15,0.0,0.0
1629644499.59948897,131628161,1.43,1.42,-17.08,-17.09,204.21,204.16,0.0,0.0
1629644499.70028210,131728954,1.44,1.44,-17.07,-17.08,204.21,204.16,0.0,0.0
1629644499.80024195,131828914,1.46,1.45,-17.07,-17.07,204.21,204.16,0.0,0.0
1629644499.90020204,131928874,1.47,1.47,-17.06,-17.06,204.21,204.17,0.0,0.0
1629644500.00016212,132028834,1.48,1.48,-17.07,-17.07,204.22,204.17,0.0,0.0
1629644500.10012197,132128794,1.48,1.48,-17.07,-17.07,204.22,204.18,0.0,0.0
1629644500.20008206,132228754,1.47,1.48,-17.05,-17.06,204.23,204.18,0.0,0.0
1629644500.30004191,132328714,1.49,1.49,-17.04,-17.05,204.23,204.19,0.0,0.0
1629644500.40000200,132428674,1.5,1.49,-17.03,-17.03,204.24,204.19,0.0,0.0
1629644500.49996209,132528634,1.53,1.51,-17.03,-17.03,204.24,204.2,0.0,0.0
1629644500.59992194,132628594,1.54,1.54,-17.05,-17.05,204.25,204.2,0.0,0.0
1629644500.69988203,132728554,1.47,1.54,-17.13,-17.07,204.25,204.21,0.0,0.0
1629644500.79984212,132828514,-1.28,0.15,-20.13,-18.6,204.26,204.19,0.0,0.0
1629644500.89980197,132928474,-2.75,-2.15,-21.76,-21.1,204.26,204.24,0.0,0.0
1629644500.99976206,133028434,-2.4,-3.13,-21.4,-22.18,204.28,204.29,0.0,0.0
1629644501.09972191,133128394,-1.31,-2.63,-20.29,-21.71,204.32,204.27,0.0,0.0
1629644501.19968200,133228354,-0.19,-1.3,-19.15,-20.39,204.39,204.23,0.0,0.0
1629644501.29964209,133328314,0.56,0.07,-18.4,-18.99,204.48,204.26,0.0,0.01
1629644501.39960194,133428274,0.86,1.01,-18.11,-18.05,204.59,204.33,0.0,0.01
1629644501.49956203,133528234,0.8,1.36,-18.16,-17.69,204.7,204.43,0.0,0.01
1629644501.59952211,133628194,0.58,1.23,-18.41,-17.82,204.81,204.55,0.0,0.01
1629644501.69948196,133728154,0.39,0.89,-18.65,-18.2,204.92,204.69,0.0,0.0
1629644501.80027509,133828947,0.27,0.55,-18.79,-18.57,205.03,204.84,0.0,0.0
1629644501.90023494,133928907,0.24,0.3,-18.79,-18.79,205.14,205.01,0.0,0.0
1629644502.00019503,134028867,0.29,0.21,-18.75,-18.86,205.25,205.17,0.0,0.0
1629644502.10015512,134128827,0.41,0.26,-18.67,-18.81,205.36,205.33,0.0,0.0
1629644502.20011497,134228787,0.52,0.39,-18.57,-18.7,205.47,205.47,0.0,0.0
1629644502.30007505,134328747,0.59,0.53,-18.48,-18.56,205.58,205.61,0.0,0.0
1629644502.40003490,134428707,0.63,0.63,-18.44,-18.46,205.7,205.73,0.0,0.0
1629644502.49999499,134528667,0.64,0.68,-18.46,-18.42,205.81,205.83,0.0,0.0
1629644502.59995508,134628627,0.64,0.69,-18.51,-18.45,205.92,205.94,0.0,0.0
1629644502.69991493,134728587,0.64,0.68,-18.54,-18.51,206.03,206.03,0.0,0.0
1629644502.79987502,134828547,0.63,0.66,-18.52,-18.53,206.13,206.12,0.0,0.0
1629644502.89983511,134928507,0.61,0.63,-18.49,-18.53,206.23,206.21,0.0,0.0
1629644502.99979496,135028467,0.6,0.6,-18.46,-18.51,206.33,206.3,0.0,0.0
1629644503.09975505,135128427,0.6,0.59,-18.45,-18.48,206.43,206.39,0.0,0.0
1629644503.19971514,135228387,0.61,0.59,-18.43,-18.45,206.52,206.48,0.0,0.0
1629644503.29967499,135328347,0.61,0.61,-18.4,-18.41,206.61,206.57,0.0,0.0
1629644503.39963508,135428307,0.59,0.61,-18.41,-18.39,206.7,206.66,0.0,0.0
1629644503.49959493,135528267,0.56,0.58,-18.43,-18.41,206.78,206.75,0.0,0.0
1629644503.59955502,135628227,0.54,0.55,-18.45,-18.43,206.86,206.84,0.0,0.0
1629644503.69951510,135728187,0.54,0.53,-18.46,-18.46,206.93,206.92,0.0,0.0
1629644503.80030799,135828980,0.54,0.53,-18.47,-18.48,207.01,207.0,0.0,0.0
1629644503.90026808,135928940,0.56,0.54,-18.46,-18.48,207.08,207.07,0.0,0.0
1629644504.00022793,136028900,0.58,0.56,-18.45,-18.47,207.15,207.14,0.0,0.0
1629644504.10018802,136128860,0.57,0.57,-18.43,-18.46,207.21,207.21,0.0,0.0
1629644504.20014811,136228820,0.55,0.57,-18.42,-18.44,207.28,207.27,0.0,0.0
1629644504.30010796,136328780,0.51,0.54,-18.41,-18.42,207.34,207.33,0.0,0.0
1629644504.40006804,136428740,0.48,0.5,-18.39,-18.4,207.4,207.39,0.0,0.0
1629644504.50002813,136528700,0.47,0.47,-18.4,-18.39,207.45,207.44,0.0,0.0
1629644504.59998798,136628660,0.5,0.47,-18.41,-18.4,207.5,207.5,0.0,0.0
1629644504.69994807,136728620,0.51,0.49,-18.44,-18.42,207.55,207.54,0.0,0.0
1629644504.79990792,136828580,0.51,0.51,-18.45,-18.45,207.6,207.59,0.0,0.0
1629644504.89986801,136928540,0.51,0.52,-18.43,-18.46,207.65,207.64,0.0,0.0
1629644504.99982810,137028500,0.5,0.52,-18.42,-18.46,207.69,207.68,0.0,0.0
1629644505.09978795,137128460,0.47,0.5,-18.41,-18.45,207.73,207.72,0.0,0.0
1629644505.19974804,137228420,0.47,0.48,-18.4,-18.44,207.77,207.76,0.0,0.0
1629644505.29970813,137328380,0.49,0.48,-18.37,-18.41,207.81,207.8,0.0,0.0
1629644505.39966798,137428340,0.48,0.47,-18.31,-18.36,207.85,207.83,0.0,0.0
1629644505.49962807,137528300,0.47,0.46,-18.28,-18.3,207.88,207.87,0.0,0.0
1629644505.59958792,137628260,0.48,0.46,-18.28,-18.28,207.91,207.9,0.0,0.0
1629644505.69954801,137728220,0.48,0.47,-18.3,-18.29,207.94,207.93,0.0,0.0
1629644505.79950809,137828180,0.47,0.47,-18.32,-18.3,207.97,207.97,0.0,0.0
1629644505.90030098,137928973,0.46,0.46,-18.34,-18.32,208.0,207.99,0.0,0.0
1629644506.00026107,138028933,0.44,0.44,-18.33,-18.34,208.03,208.02,0.0,0.0
1629644506.10022092,138128893,0.42,0.41,-18.3,-18.32,208.05,208.04,0.0,0.0
1629644506.20018101,138228853,0.41,0.39,-18.29,-18.31,208.07,208.07,0.0,0.0
1629644506.30014110,138328813,0.4,0.37,-18.32,-18.32,208.09,208.09,0.0,0.0
1629644506.40010095,138428773,0.42,0.37,-18.33,-18.35,208.11,208.11,0.0,0.0
1629644506.50006104,138528733,0.45,0.41,-18.32,-18.35,208.13,208.12,0.0,0.0
1629644506.60002112,138628693,0.46,0.44,-18.3,-18.33,208.15,208.14,0.0,0.0
1629644506.69998097,138728653,0.48,0.47,-18.28,-18.31,208.17,208.15,0.0,0.0
1629644506.79994106,138828613,0.47,0.48,-18.25,-18.27,208.19,208.17,0.0,0.0
1629644506.89990091,138928573,0.46,0.47,-18.24,-18.24,208.2,208.18,0.0,0.0
1629644506.99986100,139028533,0.44,0.46,-18.24,-18.23,208.22,208.2,0.0,0.0
1629644507.09982109,139128493,0.45,0.46,-18.26,-18.25,208.23,208.22,0.0,0.0
1629644507.19978094,139228453,0.47,0.46,-18.28,-18.28,208.24,208.23,0.0,0.0
1629644507.29974103,139328413,0.45,0.46,-18.31,-18.31,208.26,208.24,0.0,0.0
1629644507.39970112,139428373,0.42,0.44,-18.33,-18.34,208.27,208.26,0.0,0.0
1629644507.49966097,139528333,0.39,0.41,-18.32,-18.36,208.27,208.27,0.0,0.0
1629644507.59962106,139628293,0.39,0.38,-18.29,-18.34,208.28,208.28,0.0,0.0
1629644507.69958091,139728253,0.41,0.38,-18.26,-18.3,208.29,208.29,0.0,0.0
1629644507.79954100,139828213,0.46,0.4,-18.23,-18.26,208.3,208.3,0.0,0.0
1629644507.89950109,139928173,0.47,0.43,-18.23,-18.23,208.31,208.31,0.0,0.0
1629644508.00029397,140028966,0.45,0.44,-18.23,-18.23,208.31,208.31,0.0,0.0
1629644508.10025406,140128926,0.41,0.43,-18.22,-18.22,208.32,208.32,0.0,0.0
1629644508.20021391,140228886,0.37,0.38,-18.22,-18.22,208.33,208.32,0.0,0.0
1629644508.30017400,140328846,0.37,0.37,-18.23,-18.23,208.33,208.33,0.0,0.0
1629644508.40013409,140428806,0.38,0.36,-18.26,-18.25,208.33,208.33,0.0,0.0
1629644508.50009394,140528766,0.38,0.36,-18.26,-18.27,208.34,208.33,0.0,0.0
1629644508.60005403,140628726,0.4,0.38,-18.25,-18.28,208.34,208.33,0.0,0.0
1629644508.70001411,140728686,0.42,0.4,-18.25,-18.27,208.34,208.33,0.0,0.0
1629644508.79997396,140828646,0.41,0.42,-18.25,-18.26,208.34,208.33,0.0,0.0
1629644508.89993405,140928606,0.42,0.43,-18.24,-18.25,208.34,208.33,0.0,0.0
1629644508.99989390,141028566,0.42,0.44,-18.23,-18.25,208.35,208.33,0.0,0.0
1629644509.09985399,141128526,0.4,0.43,-18.22,-18.24,208.35,208.33,0.0,0.0
1629644509.19981408,141228486,0.38,0.4,-18.21,-18.22,208.35,208.33,0.0,0.0
1629644509.29977393,141328446,0.39,0.39,-18.19,-18.21,208.35,208.34,0.0,0.0
1629644509.39973402,141428406,0.4,0.39,-18.18,-18.19,208.35,208.34,0.0,0.0
1629644509.49969411,141528366,0.39,0.39,-18.2,-18.19,208.35,208.34,0.0,0.0
1629644509.59965396,141628326,0.37,0.37,-18.25,-18.23,208.35,208.34,0.0,0.0
1629644509.69961405,141728286,0.35,0.35,-18.27,-18.27,208.35,208.34,0.0,0.0
1629644509.79957414,141828246,0.35,0.34,-18.27,-18.29,208.35,208.34,0.0,0.0
1629644509.89953399,141928206,0.37,0.35,-18.26,-18.28,208.34,208.34,0.0,0.0
1629644509.99949408,142028166,0.39,0.36,-18.26,-18.28,208.34,208.34,0.0,0.0
1629644510.10028696,142128959,0.41,0.39,-18.25,-18.27,208.34,208.34,0.0,0.0
1629644510.20024705,142228919,0.43,0.41,-18.26,-18.28,208.35,208.34,0.0,0.0
1629644510.30020714,142328879,0.45,0.44,-18.26,-18.28,208.35,208.34,0.0,0.0
1629644510.40016699,142428839,0.45,0.45,-18.26,-18.27,208.35,208.33,0.0,0.0
1629644510.50012708,142528799,0.46,0.46,-18.25,-18.26,208.35,208.33,0.0,0.0
1629644510.60008693,142628759,0.46,0.47,-18.22,-18.25,208.36,208.33,0.0,0.0
1629644510.70004702,142728719,0.44,0.47,-18.2,-18.23,208.36,208.33,0.0,0.0
1629644510.80000710,142828679,0.43,0.45,-18.18,-18.21,208.36,208.33,0.0,0.0
1629644510.89996696,142928639,0.47,0.46,-18.18,-18.2,208.37,208.34,0.0,0.0
1629644510.99992704,143028599,0.48,0.47,-18.18,-18.19,208.37,208.34,0.0,0.0
1629644511.09988713,143128559,0.46,0.47,-18.2,-18.19,208.37,208.35,0.0,0.0
1629644511.19984698,143228519,0.42,0.45,-18.21,-18.2,208.37,208.35,0.0,0.0
1629644511.29980707,143328479,0.4,0.42,-18.2,-18.21,208.37,208.36,0.0,0.0
1629644511.39976692,143428439,0.41,0.4,-18.22,-18.22,208.37,208.36,0.0,0.0
1629644511.49972701,143528399,0.41,0.4,-18.21,-18.22,208.37,208.36,0.0,0.0
1629644511.59968710,143628359,0.43,0.41,-18.2,-18.21,208.37,208.37,0.0,0.0
1629644511.69964695,143728319,0.45,0.42,-18.18,-18.2,208.37,208.37,0.0,0.0
1629644511.79960704,143828279,0.43,0.43,-18.18,-18.18,208.38,208.37,0.0,0.0
1629644511.89956713,143928239,0.41,0.41,-18.19,-18.19,208.38,208.37,0.0,0.0
1629644511.99952698,144028199,0.4,0.38,-18.2,-18.2,208.38,208.37,0.0,0.0
1629644512.09948707,144128159,0.38,0.35,-18.19,-18.2,208.38,208.37,0.0,0.0
1629644512.20027995,144228952,0.38,0.36,-18.19,-18.2,208.38,208.37,0.0,0.0
1629644512.30024004,144328912,0.39,0.37,-18.2,-18.2,208.38,208.37,0.0,0.0
