timestamp,TimeUS,DesRoll,Roll,DesPitch,Pitch,DesYaw,Yaw,ErrRP,ErrYaw
1629646116.90003991,41128542,0.0,0.09,0.0,0.08,352.89,352.9,0.0,0.0
1629646117.00000000,41228502,0.0,0.09,0.0,0.08,352.89,352.9,0.0,0.0
1629646117.09995985,41328462,0.0,0.1,0.0,0.08,352.89,352.9,0.0,0.0
1629646117.19991994,41428422,0.0,0.1,0.0,0.08,352.89,352.9,0.0,0.0
1629646117.29988003,41528382,0.0,0.1,0.0,0.08,352.89,352.9,0.0,0.0
1629646117.39983988,41628342,0.0,0.1,0.0,0.08,352.89,352.9,0.0,0.0
1629646117.49979997,41728302,0.0,0.1,0.0,0.08,352.88,352.89,0.0,0.0
1629646117.59976006,41828262,0.0,0.1,0.0,0.08,352.88,352.89,0.0,0.0
1629646117.69971991,41928222,0.0,0.1,0.0,0.08,352.88,352.89,0.0,0.0
1629646117.79967999,42028182,0.0,0.1,0.0,0.08,352.88,352.89,0.0,0.0
1629646117.90047288,42128975,0.0,0.1,0.0,0.08,352.88,352.89,0.0,0.0
1629646118.00043297,42228935,0.0,0.1,0.0,0.08,352.88,352.89,0.0,0.0
1629646118.10039306,42328895,0.0,0.1,0.0,0.09,352.88,352.89,0.0,0.0
1629646118.20035291,42428855,0.0,0.1,0.0,0.09,352.88,352.89,0.0,0.0
1629646118.30031300,42528815,0.0,0.1,0.0,0.09,352.88,352.89,0.0,0.0
1629646118.40027285,42628775,0.0,0.1,0.0,0.08,352.88,352.89,0.0,0.0
1629646118.50023293,42728735,0.0,0.1,0.0,0.09,352.88,352.89,0.0,0.0
1629646118.60019302,42828695,0.0,0.1,0.0,0.08,352.88,352.89,0.0,0.0
1629646118.70015287,42928655,0.0,0.1,0.0,0.08,352.88,352.89,0.0,0.0
1629646118.80011296,43028615,0.0,0.1,0.0,0.08,352.87,352.88,0.0,0.0
1629646118.90007305,43128575,0.0,0.1,0.0,0.08,352.87,352.88,0.0,0.0
1629646119.00003290,43228535,0.0,0.1,0.0,0.08,352.87,352.88,0.0,0.0
1629646119.09999299,43328495,0.0,0.1,0.0,0.08,352.87,352.88,0.0,0.0
1629646119.19995308,43428455,0.0,0.1,0.0,0.08,352.87,352.88,0.0,0.0
1629646119.29991293,43528415,0.0,0.1,0.0,0.08,352.87,352.88,0.0,0.0
1629646119.39987302,43628375,0.0,0.1,0.0,0.08,352.87,352.88,0.0,0.0
1629646119.49983287,43728335,0.0,0.1,0.0,0.08,352.87,352.88,0.0,0.0
1629646119.59979296,43828295,0.0,0.1,0.0,0.08,352.87,352.88,0.0,0.0
1629646119.69975305,43928255,0.0,0.1,0.0,0.08,352.87,352.88,0.0,0.0
1629646119.79971290,44028215,0.0,0.1,0.0,0.08,352.87,352.88,0.0,0.0
1629646119.89967299,44128175,0.0,0.1,0.0,0.08,352.87,352.88,0.0,0.0
1629646120.00046587,44228968,0.0,0.09,0.0,0.08,352.87,352.88,0.0,0.0
1629646120.10042596,44328928,0.0,0.09,0.0,0.08,352.87,352.88,0.0,0.0
1629646120.20038605,44428888,0.0,0.09,0.0,0.07,352.87,352.88,0.0,0.0
1629646120.30034590,44528848,0.0,0.09,0.0,0.07,352.87,352.88,0.0,0.0
1629646120.40030599,44628808,0.0,0.09,0.0,0.07,352.87,352.88,0.0,0.0
1629646120.50026608,44728768,0.0,0.09,0.0,0.07,352.87,352.88,0.0,0.0
1629646120.60022593,44828728,0.0,0.09,0.0,0.07,352.87,352.88,0.0,0.0
1629646120.70018601,44928688,0.0,0.09,0.0,0.07,352.87,352.88,0.0,0.0
1629646120.80014586,45028648,0.0,0.09,0.0,0.07,352.87,352.88,0.0,0.0
1629646120.90010595,45128608,0.0,0.09,0.0,0.07,352.87,352.88,0.0,0.0
1629646121.00006604,45228568,0.0,0.09,0.0,0.07,352.87,352.88,0.0,0.0
1629646121.10002589,45328528,0.0,0.09,0.0,0.07,352.87,352.88,0.0,0.0
1629646121.19998598,45428488,0.0,0.09,0.0,0.07,352.87,352.88,0.0,0.0
1629646121.29994607,45528448,0.0,0.09,0.0,0.07,352.87,352.88,0.0,0.0
1629646121.39990592,45628408,0.0,0.08,0.0,0.07,352.87,352.88,0.0,0.0
1629646121.49986601,45728368,0.0,0.08,0.0,0.07,352.87,352.88,0.0,0.0
1629646121.59982586,45828328,0.0,0.08,0.0,0.07,352.87,352.88,0.0,0.0
1629646121.69978595,45928288,-0.02,0.08,-0.02,0.07,352.87,352.88,0.0,0.0
1629646121.79974604,46028248,-0.06,0.08,-0.06,0.07,352.87,352.88,0.0,0.0
1629646121.89970589,46128208,-0.05,0.08,-0.06,0.07,352.87,352.88,0.0,0.0
1629646121.99966598,46228168,-0.1,0.08,-0.11,0.07,352.87,352.88,0.0,0.0
1629646122.10045886,46328961,-0.16,0.08,-0.16,0.07,352.87,352.88,0.0,0.0
1629646122.20041895,46428921,-0.2,0.08,-0.21,0.07,352.87,352.88,0.0,0.0
1629646122.30037904,46528881,-0.22,0.08,-0.23,0.07,352.87,352.88,0.0,0.0
1629646122.40033889,46628841,-0.24,0.08,-0.26,0.07,352.87,352.88,0.0,0.0
1629646122.50029898,46728801,-0.26,0.08,-0.28,0.06,352.87,352.88,0.0,0.0
1629646122.60025907,46828761,-0.3,0.08,-0.29,0.06,352.87,352.88,0.0,0.0
1629646122.70021892,46928721,-0.3,0.08,-0.29,0.06,352.87,352.88,0.0,0.0
1629646122.80017900,47028681,-0.29,0.08,-0.28,0.06,352.87,352.88,0.0,0.0
1629646122.90013885,47128641,-0.3,0.08,-0.29,0.06,352.87,352.88,0.0,0.0
1629646123.00009894,47228601,-0.31,0.08,-0.3,0.06,352.87,352.88,0.0,0.0
1629646123.10005903,47328561,-0.32,0.08,-0.31,0.06,352.87,352.88,0.0,0.0
1629646123.20001888,47428521,-0.32,0.08,-0.36,0.06,352.87,352.88,0.0,0.0
1629646123.29997897,47528481,-0.32,0.03,-0.37,0.02,352.87,352.88,0.0,0.0
1629646123.39993906,47628441,-0.38,-0.21,-0.35,-0.18,352.87,352.88,0.0,0.0
1629646123.49989891,47728401,-0.37,-0.47,-0.31,-0.41,352.87,352.88,0.0,0.0
1629646123.59985900,47828361,-0.28,-0.61,-0.23,-0.53,352.87,352.88,0.0,0.0
1629646123.69981885,47928321,-0.1,-0.58,-0.13,-0.53,352.87,352.88,0.0,0.0
1629646123.79977894,48028281,1.48,0.2,-5.64,-2.58,352.87,352.89,0.0,0.0
1629646123.89973903,48128241,2.71,1.78,-17.69,-11.99,352.86,352.77,0.0,0.0
1629646123.99969888,48228201,2.79,2.82,-20.24,-20.58,352.86,352.59,0.0,0.0
1629646124.09965897,48328161,2.19,2.81,-16.13,-22.01,352.86,352.75,0.0,0.01
1629646124.20045185,48428954,1.34,1.99,-10.03,-17.51,352.86,353.14,0.0,0.0
1629646124.30041194,48528914,0.65,0.92,-4.51,-10.15,352.86,353.42,0.0,0.01
1629646124.40037203,48628874,0.3,0.08,-1.13,-3.23,352.86,353.46,0.0,0.01
1629646124.50033188,48728834,0.26,-0.31,-0.11,1.05,352.86,353.36,0.0,0.02
1629646124.60029197,48828794,0.43,-0.28,-0.72,2.27,352.86,353.21,0.0,0.02
1629646124.70025206,48928754,0.67,0.02,-1.95,1.23,352.86,353.07,0.01,0.02
1629646124.80021191,49028714,0.82,0.39,-2.83,-0.66,352.86,352.92,0.01,0.01
1629646124.90017200,49128674,0.83,0.65,-2.91,-2.18,352.86,352.78,0.01,0.01
1629646125.00013208,49228634,0.71,0.72,-2.18,-2.64,352.75,352.57,0.01,0.01
1629646125.10009193,49328594,0.5,0.61,-1.03,-2.03,352.75,352.52,0.01,0.01
1629646125.20005202,49428554,0.27,0.37,0.13,-0.79,352.75,352.5,0.01,0.0
1629646125.30001187,49528514,0.1,0.11,1.04,0.54,352.75,352.51,0.01,0.0
1629646125.39997196,49628474,0.0,-0.09,1.55,1.57,352.75,352.53,0.01,0.0
1629646125.49993205,49728434,-0.03,-0.19,1.74,2.12,352.75,352.58,0.0,0.0
1629646125.59989190,49828394,-0.05,-0.23,1.75,2.25,352.75,352.63,0.0,0.0
1629646125.69985199,49928354,-0.03,-0.21,1.68,2.12,352.75,352.69,0.0,0.0
1629646125.79981208,50028314,0.0,-0.14,1.58,1.87,352.75,352.75,0.0,0.0
1629646125.89977193,50128274,0.0,-0.07,1.51,1.63,352.75,352.79,0.0,0.0
1629646125.99973202,50228234,0.0,-0.04,1.51,1.47,352.75,352.83,0.0,0.0
1629646126.09969187,50328194,-0.02,-0.04,1.54,1.43,352.75,352.85,0.0,0.0
1629646126.19965196,50428154,-0.05,-0.06,1.56,1.44,352.75,352.86,0.0,0.0
1629646126.30044508,50528947,-0.06,-0.08,1.56,1.47,352.75,352.86,0.0,0.0
1629646126.40040493,50628907,-0.08,-0.11,1.55,1.49,352.75,352.84,0.0,0.0
1629646126.50036502,50728867,-0.09,-0.13,1.53,1.49,352.75,352.82,0.0,0.0
1629646126.60032487,50828827,-0.08,-0.13,1.51,1.48,352.75,352.8,0.0,0.0
1629646126.70028496,50928787,-0.02,-0.08,1.47,1.45,352.75,352.78,0.0,0.0
1629646126.80024505,51028747,0.01,-0.02,1.36,1.37,352.75,352.76,0.0,0.0
1629646126.90020490,51128707,0.02,0.01,1.22,1.25,352.75,352.74,0.0,0.0
1629646127.00016499,51228667,0.05,0.05,1.09,1.1,352.75,352.73,0.0,0.0
1629646127.10012507,51328627,0.08,0.08,1.0,0.97,352.75,352.72,0.0,0.0
1629646127.20008492,51428587,0.08,0.09,0.94,0.88,352.75,352.72,0.0,0.0
1629646127.30004501,51528547,0.03,0.06,0.9,0.83,352.75,352.72,0.0,0.0
1629646127.40000486,51628507,0.01,0.01,0.83,0.78,352.75,352.72,0.0,0.0
1629646127.49996495,51728467,0.0,-0.03,0.73,0.73,352.75,352.73,0.0,0.0
1629646127.59992504,51828427,0.0,-0.04,0.64,0.64,352.75,352.74,0.0,0.0
1629646127.69988489,51928387,0.0,-0.04,0.57,0.55,352.75,352.75,0.0,0.0
1629646127.79984498,52028347,0.02,-0.02,0.51,0.48,352.75,352.76,0.0,0.0
1629646127.89980507,52128307,0.03,0.0,0.45,0.42,352.75,352.76,0.0,0.0
1629646127.99976492,52228267,0.03,0.0,0.37,0.35,352.75,352.77,0.0,0.0
1629646128.09972501,52328227,0.05,0.02,0.31,0.28,352.75,352.77,0.0,0.0
1629646128.19968486,52428187,0.08,0.05,0.27,0.24,352.75,352.77,0.0,0.0
1629646128.30047798,52528980,0.1,0.09,0.23,0.2,352.75,352.77,0.0,0.0
1629646128.40043807,52628940,0.09,0.1,0.18,0.16,352.75,352.76,0.0,0.0
1629646128.50039792,52728900,0.07,0.09,0.16,0.13,352.75,352.76,0.0,0.0
1629646128.60035801,52828860,0.08,0.08,0.15,0.12,352.75,352.76,0.0,0.0
1629646128.70031786,52928820,0.08,0.09,0.17,0.14,352.75,352.76,0.0,0.0
1629646128.80027795,53028780,0.07,0.08,0.18,0.16,352.75,352.75,0.0,0.0
1629646128.90023804,53128740,0.09,0.08,0.13,0.15,352.75,352.75,0.0,0.0
1629646129.00019789,53228700,0.08,0.08,0.09,0.11,352.75,352.75,0.0,0.0
1629646129.10015798,53328660,0.07,0.07,0.04,0.06,352.75,352.75,0.0,0.0
1629646129.20011806,53428620,0.08,0.07,0.01,0.0,352.75,352.75,0.0,0.0
1629646129.30007792,53528580,0.09,0.08,0.02,-0.01,352.75,352.75,0.0,0.0
1629646129.40003800,53628540,0.1,0.08,0.06,0.01,352.75,352.75,0.0,0.0
1629646129.49999785,53728500,0.13,0.1,0.09,0.05,352.75,352.75,0.0,0.0
1629646129.59995794,53828460,0.16,0.13,0.12,0.09,352.75,352.75,0.0,0.0
1629646129.69991803,53928420,0.18,0.17,0.11,0.12,352.75,352.75,0.0,0.0
1629646129.79987788,54028380,0.18,0.18,0.08,0.1,352.75,352.75,0.0,0.0
1629646129.89983797,54128340,0.13,0.17,0.04,0.08,352.75,352.75,0.0,0.0
1629646129.99979806,54228300,0.08,0.11,0.0,0.03,352.75,352.76,0.0,0.0
1629646130.09975791,54328260,0.04,0.05,-0.03,-0.01,352.75,352.76,0.0,0.0
1629646130.19971800,54428220,0.05,0.02,-0.01,-0.04,352.75,352.75,0.0,0.0
1629646130.29967785,54528180,0.08,0.03,0.02,-0.01,352.75,352.75,0.0,0.0
1629646130.40047097,54628973,0.1,0.07,0.03,0.01,352.75,352.75,0.0,0.0
1629646130.50043106,54728933,0.12,0.1,0.0,0.01,352.75,352.75,0.0,0.0
1629646130.60039091,54828893,0.15,0.14,0.0,0.0,352.75,352.75,0.0,0.0
1629646130.70035100,54928853,0.15,0.16,-0.01,-0.01,352.75,352.75,0.0,0.0
1629646130.80031085,55028813,0.13,0.16,-0.01,-0.02,352.75,352.75,0.0,0.0
1629646130.90027094,55128773,0.07,0.12,-0.01,-0.01,352.75,352.75,0.0,0.0
1629646131.00023103,55228733,0.03,0.06,-0.02,-0.01,352.75,352.75,0.0,0.0
1629646131.10019088,55328693,0.02,0.02,0.0,0.0,352.75,352.74,0.0,0.0
1629646131.20015097,55428653,0.04,0.01,0.06,0.04,352.75,352.74,0.0,0.0
1629646131.30011106,55528613,0.08,0.04,0.07,0.08,352.75,352.74,0.0,0.0
1629646131.40007091,55628573,0.1,0.08,0.06,0.08,352.75,352.73,0.0,0.0
1629646131.50003099,55728533,0.09,0.09,0.03,0.07,352.75,352.73,0.0,0.0
1629646131.59999108,55828493,0.07,0.07,0.02,0.05,352.75,352.73,0.0,0.0
1629646131.69995093,55928453,0.08,0.06,0.02,0.02,352.75,352.73,0.0,0.0
1629646131.79991102,56028413,0.1,0.08,0.02,0.0,352.75,352.73,0.0,0.0
1629646131.89987087,56128373,0.1,0.09,0.03,0.0,352.75,352.73,0.0,0.0
1629646131.99983096,56228333,0.1,0.1,0.02,0.0,352.75,352.74,0.0,0.0
1629646132.09979105,56328293,0.1,0.1,0.02,0.0,352.75,352.74,0.0,0.0
1629646132.19975090,56428253,0.08,0.07,0.04,0.02,352.75,352.75,0.0,0.0
1629646132.29971099,56528213,0.08,0.07,0.05,0.04,352.75,352.75,0.0,0.0
1629646132.39967108,56628173,0.11,0.08,0.04,0.05,352.75,352.75,0.0,0.0
1629646132.50046396,56728966,0.12,0.1,0.02,0.05,352.75,352.76,0.0,0.0
1629646132.60042405,56828926,0.12,0.12,0.01,0.04,352.75,352.76,0.0,0.0
1629646132.70038390,56928886,0.1,0.12,0.03,0.03,352.75,352.76,0.0,0.0
1629646132.80034399,57028846,0.08,0.1,0.04,0.03,352.75,352.76,0.0,0.0
1629646132.90030408,57128806,0.06,0.08,0.08,0.05,352.75,352.76,0.0,0.0
1629646133.00026393,57228766,0.05,0.05,0.09,0.07,352.75,352.76,0.0,0.0
1629646133.10022402,57328726,0.05,0.04,0.13,0.1,352.75,352.75,0.0,0.0
1629646133.20018387,57428686,0.05,0.04,0.16,0.14,352.75,352.75,0.0,0.0
1629646133.30014396,57528646,0.03,0.02,0.18,0.18,352.75,352.75,0.0,0.0
1629646133.40010405,57628606,0.03,0.01,0.16,0.19,352.75,352.75,0.0,0.0
1629646133.50006390,57728566,0.07,0.03,0.17,0.18,352.75,352.75,0.0,0.0
1629646133.60002398,57828526,0.1,0.07,0.17,0.18,352.75,352.74,0.0,0.0
1629646133.69998407,57928486,0.1,0.1,0.16,0.17,352.75,352.74,0.0,0.0
1629646133.79994392,58028446,0.09,0.11,0.13,0.14,352.75,352.74,0.0,0.0
1629646133.89990401,58128406,0.06,0.08,0.09,0.1,352.75,352.75,0.0,0.0
1629646133.99986386,58228366,0.04,0.05,0.07,0.06,352.75,352.75,0.0,0.0
1629646134.09982395,58328326,0.02,0.02,0.07,0.04,352.75,352.75,0.0,0.0
1629646134.19978404,58428286,0.03,0.01,0.08,0.05,352.75,352.75,0.0,0.0
1629646134.29974389,58528246,0.05,0.02,0.09,0.07,352.75,352.75,0.0,0.0
1629646134.39970398,58628206,0.05,0.02,0.08,0.08,352.75,352.75,0.0,0.0
1629646134.49966407,58728166,0.07,0.04,0.1,0.08,352.75,352.75,0.0,0.0
1629646134.60045695,58828959,0.07,0.05,0.1,0.09,352.75,352.75,0.0,0.0
1629646134.70041704,58928919,0.09,0.07,0.06,0.08,352.75,352.75,0.0,0.0
1629646134.80037689,59028879,0.12,0.09,0.02,0.05,352.75,352.75,0.0,0.0
1629646134.90033698,59128839,0.14,0.12,0.0,0.02,352.75,352.75,0.0,0.0
1629646135.00029707,59228799,0.14,0.15,0.0,0.0,352.75,352.75,0.0,0.0
1629646135.10025692,59328759,0.16,0.17,0.01,-0.01,352.75,352.75,0.0,0.0
1629646135.20021701,59428719,0.15,0.18,0.05,0.0,352.75,352.75,0.0,0.0
1629646135.30017686,59528679,0.13,0.16,0.05,0.02,352.75,352.75,0.0,0.0
1629646135.40013695,59628639,0.11,0.14,0.06,0.04,352.75,352.75,0.0,0.0
1629646135.50009704,59728599,0.08,0.1,0.04,0.05,352.75,352.75,0.0,0.0
1629646135.60005689,59828559,0.05,0.06,0.04,0.04,352.75,352.75,0.0,0.0
1629646135.70001698,59928519,0.06,0.03,0.03,0.03,352.75,352.75,0.0,0.0
1629646135.79997706,60028479,0.1,0.05,0.01,0.02,352.75,352.75,0.0,0.0
1629646135.89993691,60128439,0.1,0.08,0.0,0.0,352.75,352.75,0.0,0.0
1629646135.99989700,60228399,0.1,0.09,0.02,0.0,352.75,352.75,0.0,0.0
1629646136.09985685,60328359,0.09,0.1,0.06,0.03,352.75,352.75,0.0,0.0
1629646136.19981694,60428319,0.08,0.09,0.09,0.07,352.75,352.75,0.0,0.0
1629646136.29977703,60528279,0.07,0.08,0.09,0.1,352.75,352.75,0.0,0.0
1629646136.39973688,60628239,0.06,0.06,0.07,0.1,352.75,352.75,0.0,0.0
1629646136.49969697,60728199,0.08,0.06,0.05,0.08,352.75,352.75,0.0,0.0
1629646136.59965706,60828159,0.12,0.07,0.06,0.06,352.75,352.75,0.0,0.0
1629646136.70044994,60928952,0.12,0.11,0.04,0.04,352.75,352.75,0.0,0.0
1629646136.80041003,61028912,0.1,0.12,0.04,0.03,352.75,352.75,0.0,0.0
1629646136.90036988,61128872,0.08,0.1,0.05,0.04,352.75,352.75,0.0,0.0
1629646137.00032997,61228832,0.09,0.09,0.08,0.06,352.75,352.75,0.0,0.0
1629646137.10029006,61328792,0.11,0.1,0.09,0.08,352.75,352.75,0.0,0.0
1629646137.20024991,61428752,0.12,0.12,0.09,0.09,352.75,352.75,0.0,0.0
1629646137.30021000,61528712,0.11,0.12,0.09,0.09,352.75,352.75,0.0,0.0
1629646137.40016985,61628672,0.11,0.11,0.08,0.09,352.75,352.75,0.0,0.0
1629646137.50012994,61728632,0.12,0.12,0.1,0.09,352.75,352.75,0.0,0.0
1629646137.60009003,61828592,0.12,0.13,0.12,0.1,352.75,352.75,0.0,0.0
1629646137.70004988,61928552,0.14,0.14,0.1,0.1,352.75,352.75,0.0,0.0
1629646137.80000997,62028512,0.13,0.14,0.05,0.06,352.75,352.75,0.0,0.0
1629646137.89997005,62128472,0.1,0.12,0.03,0.01,352.75,352.75,0.0,0.0
1629646137.99992990,62228432,0.1,0.1,0.05,0.01,352.75,352.74,0.0,0.0
1629646138.09988999,62328392,0.13,0.1,0.09,0.04,352.75,352.74,0.0,0.0
1629646138.19985008,62428352,0.14,0.12,0.12,0.09,352.75,352.74,0.0,0.0
1629646138.29980993,62528312,0.14,0.14,0.14,0.13,352.75,352.74,0.0,0.0
1629646138.39977002,62628272,0.12,0.13,0.12,0.15,352.75,352.74,0.0,0.0
1629646138.49972987,62728232,0.07,0.09,0.09,0.12,352.75,352.75,0.0,0.0
1629646138.59968996,62828192,0.06,0.06,0.07,0.08,352.75,352.75,0.0,0.0
1629646138.70048308,62928985,0.07,0.05,0.06,0.06,352.75,352.75,0.0,0.0
1629646138.80044293,63028945,0.07,0.05,0.07,0.05,352.75,352.75,0.0,0.0
1629646138.90040302,63128905,0.05,0.04,0.09,0.06,352.75,352.76,0.0,0.0
1629646139.00036287,63228865,0.05,0.04,0.1,0.08,352.75,352.76,0.0,0.0
1629646139.10032296,63328825,0.03,0.03,0.15,0.12,352.75,352.76,0.0,0.0
1629646139.20028305,63428785,0.04,0.02,0.19,0.17,352.75,352.76,0.0,0.0
1629646139.30024290,63528745,0.06,0.04,0.19,0.21,352.75,352.76,0.0,0.0
1629646139.40020299,63628705,0.07,0.05,0.17,0.2,352.75,352.76,0.0,0.0
1629646139.50016308,63728665,0.09,0.07,0.16,0.18,352.75,352.76,0.0,0.0
1629646139.60012293,63828625,0.1,0.09,0.15,0.16,352.75,352.76,0.0,0.0
1629646139.70008302,63928585,0.11,0.11,0.13,0.14,352.75,352.75,0.0,0.0
1629646139.80004287,64028545,0.11,0.1,0.12,0.11,352.75,352.75,0.0,0.0
1629646139.90000296,64128505,0.1,0.09,0.13,0.11,352.75,352.75,0.0,0.0
1629646139.99996305,64228465,0.09,0.09,0.13,0.11,352.75,352.75,0.0,0.0
1629646140.09992290,64328425,0.09,0.08,0.1,0.09,352.75,352.74,0.0,0.0
1629646140.19988298,64428385,0.09,0.08,0.08,0.07,352.75,352.75,0.0,0.0
1629646140.29984307,64528345,0.09,0.08,0.08,0.06,352.75,352.75,0.0,0.0
1629646140.39980292,64628305,0.11,0.09,0.08,0.06,352.75,352.75,0.0,0.0
1629646140.49976301,64728265,0.13,0.12,0.08,0.07,352.75,352.75,0.0,0.0
1629646140.59972286,64828225,0.12,0.12,0.07,0.07,352.75,352.76,0.0,0.0
1629646140.69968295,64928185,0.14,0.12,0.06,0.06,352.75,352.76,0.0,0.0
1629646140.80047607,65028978,0.15,0.12,0.07,0.06,352.75,352.76,0.0,0.0
1629646140.90043592,65128938,0.16,0.13,0.08,0.08,352.75,352.76,0.0,0.0
1629646141.00039601,65228898,0.19,0.15,0.09,0.09,352.75,352.76,0.0,0.0
1629646141.10035586,65328858,0.17,0.17,0.1,0.1,352.75,352.76,0.0,0.0
1629646141.20031595,65428818,0.11,0.14,0.13,0.12,352.75,352.76,0.0,0.0
1629646141.30027604,65528778,0.08,0.1,0.16,0.15,352.75,352.76,0.0,0.0
1629646141.40023589,65628738,0.07,0.06,0.17,0.17,352.75,352.76,0.0,0.0
1629646141.50019598,65728698,0.08,0.05,0.13,0.15,352.75,352.76,0.0,0.0
1629646141.60015607,65828658,0.07,0.05,0.11,0.12,352.75,352.75,0.0,0.0
1629646141.70011592,65928618,0.08,0.06,0.09,0.1,352.75,352.75,0.0,0.0
1629646141.80007601,66028578,0.08,0.07,0.07,0.08,352.75,352.75,0.0,0.0
1629646141.90003586,66128538,0.07,0.07,0.04,0.04,352.75,352.75,0.0,0.0
1629646141.99999595,66228498,0.05,0.05,0.04,0.03,352.75,352.75,0.0,0.0
1629646142.09995604,66328458,0.04,0.03,0.06,0.03,352.75,352.75,0.0,0.0
1629646142.19991589,66428418,0.06,0.03,0.08,0.05,352.75,352.75,0.0,0.0
1629646142.29987597,66528378,0.07,0.04,0.11,0.07,352.75,352.75,0.0,0.0
1629646142.39983606,66628338,0.08,0.05,0.12,0.1,352.75,352.75,0.0,0.0
1629646142.49979591,66728298,0.07,0.06,0.12,0.11,352.75,352.75,0.0,0.0
1629646142.59975600,66828258,0.08,0.07,0.12,0.11,352.75,352.75,0.0,0.0
1629646142.69971585,66928218,0.08,0.09,0.09,0.1,352.75,352.75,0.0,0.0
1629646142.79967594,67028178,0.07,0.08,0.06,0.07,352.75,352.75,0.0,0.0
1629646142.90046906,67128971,0.05,0.07,0.05,0.05,352.75,352.75,0.0,0.0
1629646143.00042892,67228931,0.05,0.05,0.09,0.06,352.75,352.75,0.0,0.0
1629646143.10038900,67328891,0.11,0.08,0.12,0.09,352.75,352.75,0.0,0.0
1629646143.20034885,67428851,0.16,0.14,0.14,0.12,352.75,352.76,0.0,0.0
1629646143.30030894,67528811,0.2,0.2,0.13,0.14,352.75,352.76,0.0,0.0
1629646143.40026903,67628771,0.19,0.21,0.13,0.14,352.75,352.76,0.0,0.0
1629646143.50022888,67728731,0.18,0.2,0.13,0.14,352.75,352.76,0.0,0.0
1629646143.60018897,67828691,0.18,0.19,0.11,0.13,352.75,352.76,0.0,0.0
1629646143.70014906,67928651,0.16,0.17,0.09,0.1,352.75,352.76,0.0,0.0
1629646143.80010891,68028611,0.14,0.15,0.12,0.09,352.75,352.76,0.0,0.0
1629646143.90006900,68128571,0.1,0.13,0.12,0.09,352.75,352.76,0.0,0.0
1629646144.00002885,68228531,0.1,0.09,0.13,0.1,352.75,352.76,0.0,0.0
1629646144.09998894,68328491,0.13,0.09,0.14,0.13,352.75,352.76,0.0,0.0
1629646144.19994903,68428451,0.17,0.12,0.13,0.14,352.75,352.76,0.0,0.0
1629646144.29990888,68528411,0.19,0.16,0.13,0.14,352.75,352.76,0.0,0.0
1629646144.39986897,68628371,0.19,0.18,0.11,0.12,352.75,352.76,0.0,0.0
1629646144.49982905,68728331,0.18,0.2,0.08,0.11,352.75,352.76,0.0,0.0
1629646144.59978890,68828291,0.14,0.17,0.04,0.06,352.75,352.76,0.0,0.0
1629646144.69974899,68928251,0.13,0.15,0.04,0.04,352.75,352.75,0.0,0.0
1629646144.79970908,69028211,0.13,0.13,0.07,0.04,352.75,352.75,0.0,0.0
1629646144.89966893,69128171,0.13,0.12,0.09,0.06,352.75,352.75,0.0,0.0
1629646145.00046206,69228964,0.14,0.13,0.1,0.08,352.75,352.75,0.0,0.0
1629646145.10042191,69328924,0.14,0.13,0.13,0.11,352.75,352.75,0.0,0.0
1629646145.20038199,69428884,0.1,0.11,0.14,0.14,352.75,352.75,0.0,0.0
1629646145.30034208,69528844,0.09,0.09,0.13,0.15,352.75,352.75,0.0,0.0
1629646145.40030193,69628804,0.11,0.09,0.12,0.13,352.75,352.75,0.0,0.0
1629646145.50026202,69728764,0.14,0.11,0.1,0.11,352.75,352.75,0.0,0.0
1629646145.60022187,69828724,0.15,0.14,0.09,0.1,352.75,352.75,0.0,0.0
1629646145.70018196,69928684,0.13,0.15,0.12,0.1,352.75,352.75,0.0,0.0
1629646145.80014205,70028644,0.09,0.12,0.13,0.11,352.75,352.75,0.0,0.0
1629646145.90010190,70128604,0.08,0.08,0.09,0.1,352.75,352.75,0.0,0.0
1629646146.00006199,70228564,0.1,0.08,0.07,0.08,352.75,352.75,0.0,0.0
1629646146.10002208,70328524,0.15,0.11,0.06,0.06,352.75,352.75,0.0,0.0
1629646146.19998193,70428484,0.17,0.15,0.05,0.04,352.75,352.75,0.0,0.0
1629646146.29994202,70528444,0.15,0.15,0.05,0.03,352.75,352.75,0.0,0.0
1629646146.39990187,70628404,0.13,0.14,0.07,0.04,352.75,352.75,0.0,0.0
1629646146.49986196,70728364,0.11,0.12,0.06,0.05,352.75,352.76,0.0,0.0
1629646146.59982204,70828324,0.09,0.09,0.04,0.03,352.75,352.76,0.0,0.0
1629646146.69978189,70928284,0.09,0.07,0.05,0.03,352.75,352.76,0.0,0.0
1629646146.79974198,71028244,0.08,0.06,0.07,0.05,352.75,352.75,0.0,0.0
1629646146.89970207,71128204,0.06,0.06,0.1,0.08,352.75,352.75,0.0,0.0
1629646146.99966192,71228164,0.04,0.04,0.1,0.1,352.75,352.75,0.0,0.0
1629646147.10045505,71328957,0.04,0.03,0.08,0.09,352.75,352.75,0.0,0.0
1629646147.20041490,71428917,0.06,0.03,0.07,0.07,352.75,352.75,0.0,0.0
1629646147.30037498,71528877,0.09,0.05,0.06,0.05,352.75,352.75,0.0,0.0
1629646147.40033507,71628837,0.11,0.07,0.08,0.05,352.75,352.75,0.0,0.0
1629646147.50029492,71728797,0.13,0.1,0.1,0.07,352.75,352.75,0.0,0.0
1629646147.60025501,71828757,0.16,0.14,0.13,0.1,352.75,352.75,0.0,0.0
1629646147.70021486,71928717,0.13,0.15,0.14,0.13,352.75,352.75,0.0,0.0
1629646147.80017495,72028677,0.08,0.11,0.1,0.12,352.75,352.75,0.0,0.0
1629646147.90013504,72128637,0.05,0.07,0.06,0.08,352.75,352.75,0.0,0.0
1629646148.00009489,72228597,0.03,0.03,0.06,0.06,352.75,352.75,0.0,0.0
1629646148.10005498,72328557,0.04,0.01,0.08,0.06,352.75,352.75,0.0,0.0
1629646148.20001507,72428517,0.06,0.02,0.08,0.07,352.75,352.75,0.0,0.0
1629646148.29997492,72528477,0.08,0.06,0.09,0.09,352.75,352.75,0.0,0.0
1629646148.39993501,72628437,0.07,0.08,0.09,0.1,352.75,352.75,0.0,0.0
1629646148.49989486,72728397,0.02,0.05,0.12,0.12,352.75,352.75,0.0,0.0
1629646148.59985495,72828357,-0.02,0.0,0.14,0.14,352.75,352.75,0.0,0.0
1629646148.69981503,72928317,-0.04,-0.05,0.12,0.14,352.75,352.75,0.0,0.0
1629646148.79977489,73028277,0.0,-0.05,0.09,0.11,352.75,352.75,0.0,0.0
1629646148.89973497,73128237,0.04,-0.01,0.09,0.09,352.75,352.76,0.0,0.0
1629646148.99969506,73228197,0.07,0.02,0.07,0.07,352.75,352.76,0.0,0.0
1629646149.09965491,73328157,0.09,0.07,0.06,0.05,352.75,352.76,0.0,0.0
1629646149.20044804,73428950,0.11,0.1,0.09,0.06,352.75,352.76,0.0,0.0
1629646149.30040789,73528910,0.13,0.12,0.12,0.09,352.75,352.76,0.0,0.0
1629646149.40036798,73628870,0.13,0.13,0.11,0.11,352.75,352.76,0.0,0.0
1629646149.50032806,73728830,0.17,0.16,0.08,0.11,352.75,352.76,0.0,0.0
1629646149.60028791,73828790,0.19,0.19,0.05,0.08,352.75,352.76,0.0,0.0
1629646149.70024800,73928750,0.19,0.2,0.05,0.05,352.75,352.75,0.0,0.0
1629646149.80020785,74028710,0.16,0.18,0.06,0.05,352.75,352.75,0.0,0.0
1629646149.90016794,74128670,0.16,0.16,0.09,0.06,352.75,352.75,0.0,0.0
1629646150.00012803,74228630,0.18,0.16,0.13,0.09,352.75,352.75,0.0,0.0
1629646150.10008788,74328590,0.19,0.18,0.13,0.11,352.75,352.74,0.0,0.0
1629646150.20004797,74428550,0.18,0.18,0.12,0.11,352.75,352.74,0.0,0.0
1629646150.30000806,74528510,0.19,0.19,0.09,0.11,352.75,352.74,0.0,0.0
1629646150.39996791,74628470,0.19,0.19,0.04,0.07,352.75,352.75,0.0,0.0
1629646150.49992800,74728430,0.21,0.2,0.02,0.03,352.75,352.75,0.0,0.0
1629646150.59988785,74828390,0.21,0.21,0.01,0.01,352.75,352.75,0.0,0.0
1629646150.69984794,74928350,0.17,0.2,0.0,0.0,352.75,352.75,0.0,0.0
1629646150.79980803,75028310,0.13,0.16,0.02,0.0,352.75,352.75,0.0,0.0
1629646150.89976788,75128270,0.13,0.13,0.04,0.02,352.75,352.75,0.0,0.0
1629646150.99972796,75228230,0.16,0.14,0.03,0.02,352.75,352.75,0.0,0.0
1629646151.09968805,75328190,0.18,0.16,0.05,0.03,352.75,352.75,0.0,0.0
1629646151.20048094,75428983,0.22,0.18,0.07,0.05,352.75,352.75,0.0,0.0
1629646151.30044103,75528943,0.25,0.22,0.07,0.07,352.75,352.75,0.0,0.0
1629646151.40040088,75628903,0.24,0.24,0.03,0.05,352.75,352.74,0.0,0.0
1629646151.50036097,75728863,0.19,0.22,0.03,0.03,352.75,352.74,0.0,0.0
1629646151.60032105,75828823,0.16,0.19,0.05,0.02,352.75,352.74,0.0,0.0
1629646151.70028090,75928783,0.16,0.16,0.06,0.03,352.75,352.74,0.0,0.0
1629646151.80024099,76028743,0.18,0.16,0.07,0.05,352.75,352.74,0.0,0.0
1629646151.90020108,76128703,0.16,0.17,0.09,0.07,352.75,352.74,0.0,0.0
1629646152.00016093,76228663,0.15,0.15,0.11,0.1,352.75,352.74,0.0,0.0
1629646152.10012102,76328623,0.16,0.15,0.09,0.1,352.75,352.74,0.0,0.0
1629646152.20008087,76428583,0.19,0.16,0.08,0.07,352.75,352.74,0.0,0.0
1629646152.30004096,76528543,0.2,0.18,0.11,0.08,352.75,352.75,0.0,0.0
1629646152.40000105,76628503,0.2,0.2,0.12,0.1,352.75,352.75,0.0,0.0
1629646152.49996090,76728463,0.19,0.19,0.12,0.11,352.75,352.75,0.0,0.0
1629646152.59992099,76828423,0.15,0.16,0.12,0.11,352.75,352.75,0.0,0.0
1629646152.69988108,76928383,0.12,0.13,0.15,0.13,352.75,352.76,0.0,0.0
1629646152.79984093,77028343,0.1,0.1,0.14,0.14,352.75,352.76,0.0,0.0
1629646152.89980102,77128303,0.12,0.09,0.15,0.14,352.75,352.76,0.0,0.0
1629646152.99976087,77228263,0.17,0.13,0.18,0.16,352.75,352.76,0.0,0.0
1629646153.09972095,77328223,0.2,0.18,0.17,0.18,352.75,352.75,0.0,0.0
1629646153.19968104,77428183,0.19,0.19,0.15,0.16,352.75,352.75,0.0,0.0
1629646153.30047393,77528976,0.15,0.17,0.16,0.16,352.75,352.75,0.0,0.0
1629646153.40043402,77628936,0.11,0.14,0.15,0.15,352.75,352.75,0.0,0.0
1629646153.50039387,77728896,0.11,0.11,0.12,0.12,352.75,352.75,0.0,0.0
1629646153.60035396,77828856,0.13,0.11,0.13,0.1,352.75,352.75,0.0,0.0
1629646153.70031404,77928816,0.14,0.12,0.16,0.13,352.75,352.75,0.0,0.0
1629646153.80027390,78028776,0.16,0.13,0.19,0.17,352.75,352.75,0.0,0.0
1629646153.90023398,78128736,0.15,0.14,0.16,0.18,352.75,352.75,0.0,0.0
1629646154.00019407,78228696,0.13,0.13,0.09,0.14,352.75,352.75,0.0,0.0
1629646154.10015392,78328656,0.1,0.11,0.03,0.08,352.75,352.76,0.0,0.0
1629646154.20011401,78428616,0.08,0.09,0.05,0.03,352.75,352.76,0.0,0.0
1629646154.30007386,78528576,0.09,0.08,0.1,0.06,352.75,352.76,0.0,0.0
1629646154.40003395,78628536,0.08,0.07,0.15,0.11,352.75,352.75,0.0,0.0
1629646154.49999404,78728496,0.07,0.06,0.17,0.15,352.75,352.75,0.0,0.0
1629646154.59995389,78828456,0.05,0.05,0.17,0.18,352.75,352.75,0.0,0.0
1629646154.69991398,78928416,0.05,0.03,0.16,0.18,352.75,352.75,0.0,0.0
1629646154.79987407,79028376,0.05,0.03,0.14,0.16,352.75,352.74,0.0,0.0
1629646154.89983392,79128336,0.07,0.05,0.12,0.13,352.75,352.74,0.0,0.0
1629646154.99979401,79228296,0.09,0.07,0.1,0.1,352.75,352.74,0.0,0.0
1629646155.09975386,79328256,0.07,0.08,0.1,0.08,352.75,352.75,0.0,0.0
1629646155.19971395,79428216,0.04,0.05,0.13,0.09,352.75,352.75,0.0,0.0
1629646155.29967403,79528176,0.04,0.03,0.16,0.13,352.75,352.75,0.0,0.0
1629646155.40046692,79628969,0.06,0.04,0.17,0.15,352.75,352.75,0.0,0.0
1629646155.50042701,79728929,0.1,0.07,0.16,0.16,352.75,352.75,0.0,0.0
1629646155.60038686,79828889,0.1,0.1,0.13,0.15,352.75,352.75,0.0,0.0
1629646155.70034695,79928849,0.07,0.09,0.1,0.13,352.75,352.75,0.0,0.0
1629646155.80030704,80028809,0.03,0.04,0.07,0.08,352.75,352.75,0.0,0.0
1629646155.90026689,80128769,0.03,0.01,0.05,0.05,352.75,352.75,0.0,0.0
1629646156.00022697,80228729,0.06,0.02,0.07,0.04,352.75,352.75,0.0,0.0
1629646156.10018706,80328689,0.1,0.05,0.1,0.05,352.75,352.75,0.0,0.0
1629646156.20014691,80428649,0.14,0.09,0.12,0.07,352.75,352.75,0.0,0.0
1629646156.30010700,80528609,0.16,0.13,0.1,0.08,352.75,352.75,0.0,0.0
1629646156.40006685,80628569,0.18,0.17,0.1,0.09,352.75,352.75,0.0,0.0
1629646156.50002694,80728529,0.2,0.2,0.11,0.1,352.75,352.75,0.0,0.0
1629646156.59998703,80828489,0.19,0.2,0.12,0.11,352.75,352.75,0.0,0.0
1629646156.69994688,80928449,0.16,0.19,0.12,0.13,352.75,352.75,0.0,0.0
1629646156.79990697,81028409,0.16,0.17,0.13,0.13,352.75,352.75,0.0,0.0
1629646156.89986706,81128369,0.15,0.16,0.11,0.12,352.75,352.75,0.0,0.0
1629646156.99982691,81228329,0.15,0.14,0.09,0.11,352.75,352.75,0.0,0.0
1629646157.09978700,81328289,0.13,0.14,0.06,0.08,352.75,352.75,0.0,0.0
1629646157.19974685,81428249,0.13,0.14,0.05,0.06,352.75,352.75,0.0,0.0
1629646157.29970694,81528209,0.15,0.13,0.07,0.05,352.75,352.75,0.0,0.0
1629646157.39966702,81628169,0.16,0.14,0.08,0.06,352.75,352.75,0.0,0.0
1629646157.50045991,81728962,0.16,0.14,0.11,0.09,352.75,352.76,0.0,0.0
1629646157.60042000,81828922,0.17,0.15,0.15,0.13,352.75,352.76,0.0,0.0
1629646157.70037985,81928882,0.16,0.15,0.18,0.17,352.75,352.76,0.0,0.0
1629646157.80033994,82028842,0.17,0.15,0.19,0.2,352.75,352.76,0.0,0.0
1629646157.90030003,82128802,0.14,0.14,0.18,0.21,352.75,352.76,0.0,0.0
1629646158.00025988,82228762,0.08,0.1,0.14,0.18,352.75,352.75,0.0,0.0
1629646158.10021996,82328722,0.07,0.06,0.11,0.13,352.75,352.75,0.0,0.0
1629646158.20018005,82428682,0.07,0.05,0.12,0.11,352.75,352.75,0.0,0.0
1629646158.30013990,82528642,0.09,0.05,0.17,0.13,352.75,352.75,0.0,0.0
1629646158.40009999,82628602,0.11,0.07,0.18,0.16,352.75,352.75,0.0,0.0
1629646158.50006008,82728562,0.14,0.11,0.2,0.18,352.75,352.75,0.0,0.0
1629646158.60001993,82828522,0.15,0.14,0.18,0.19,352.75,352.75,0.0,0.0
1629646158.69998002,82928482,0.16,0.17,0.15,0.17,352.75,352.74,0.0,0.0
1629646158.79993987,83028442,0.15,0.17,0.14,0.15,352.75,352.74,0.0,0.0
1629646158.89989996,83128402,0.1,0.14,0.12,0.13,352.75,352.74,0.0,0.0
1629646158.99986005,83228362,0.07,0.09,0.13,0.11,352.75,352.74,0.0,0.0
1629646159.09981990,83328322,0.07,0.06,0.14,0.11,352.75,352.74,0.0,0.0
1629646159.19977999,83428282,0.07,0.06,0.16,0.12,352.75,352.74,0.0,0.0
1629646159.29974008,83528242,0.06,0.06,0.19,0.15,352.75,352.75,0.0,0.0
1629646159.39969993,83628202,0.07,0.06,0.21,0.18,352.75,352.75,0.0,0.0
1629646159.49966002,83728162,0.08,0.07,0.22,0.21,352.75,352.75,0.0,0.0
1629646159.60045290,83828955,0.11,0.08,0.21,0.22,352.75,352.76,0.0,0.0
1629646159.70041299,83928915,0.14,0.11,0.18,0.2,352.75,352.76,0.0,0.0
1629646159.80037308,84028875,0.16,0.13,0.17,0.18,352.75,352.76,0.0,0.0
1629646159.90033293,84128835,0.19,0.17,0.15,0.15,352.75,352.76,0.0,0.0
1629646160.00029302,84228795,0.2,0.2,0.11,0.12,352.75,352.76,0.0,0.0
1629646160.10025287,84328755,0.17,0.2,0.1,0.09,352.75,352.75,0.0,0.0
1629646160.20021296,84428715,0.16,0.18,0.11,0.09,352.75,352.75,0.0,0.0
1629646160.30017304,84528675,0.13,0.15,0.1,0.09,352.75,352.75,0.0,0.0
1629646160.40013289,84628635,0.13,0.13,0.07,0.07,352.75,352.75,0.0,0.0
1629646160.50009298,84728595,0.14,0.12,0.05,0.05,352.75,352.74,0.0,0.0
1629646160.60005307,84828555,0.16,0.13,0.05,0.03,352.75,352.74,0.0,0.0
1629646160.70001292,84928515,0.17,0.15,0.08,0.04,352.75,352.74,0.0,0.0
1629646160.79997301,85028475,0.15,0.16,0.1,0.06,352.75,352.74,0.0,0.0
1629646160.89993286,85128435,0.14,0.15,0.14,0.1,352.75,352.74,0.0,0.0
1629646160.99989295,85228395,0.12,0.13,0.18,0.15,352.75,352.74,0.0,0.0
1629646161.09985304,85328355,0.12,0.1,0.21,0.21,352.75,352.74,0.0,0.0
1629646161.19981289,85428315,0.14,0.1,0.22,0.25,352.75,352.74,0.0,0.0
1629646161.29977298,85528275,0.18,0.13,0.16,0.22,352.75,352.74,0.0,0.0
1629646161.39973307,85628235,0.17,0.16,0.09,0.14,352.75,352.74,0.0,0.0
1629646161.49969292,85728195,0.15,0.16,0.05,0.07,352.75,352.75,0.0,0.0
1629646161.59965301,85828155,0.15,0.15,0.04,0.02,352.75,352.75,0.0,0.0
1629646161.70044589,85928948,0.15,0.15,0.06,0.01,352.75,352.75,0.0,0.0
1629646161.80040598,86028908,0.15,0.14,0.08,0.03,352.75,352.75,0.0,0.0
1629646161.90036607,86128868,0.14,0.13,0.11,0.07,352.75,352.75,0.0,0.0
1629646162.00032592,86228828,0.15,0.14,0.13,0.11,352.75,352.75,0.0,0.0
1629646162.10028601,86328788,0.17,0.15,0.11,0.12,352.75,352.75,0.0,0.0
1629646162.20024586,86428748,0.18,0.16,0.11,0.12,352.75,352.75,0.0,0.0
1629646162.30020595,86528708,0.18,0.17,0.07,0.1,352.75,352.75,0.0,0.0
1629646162.40016603,86628668,0.15,0.17,0.05,0.07,352.75,352.75,0.0,0.0
1629646162.50012589,86728628,0.1,0.13,0.1,0.07,352.75,352.75,0.0,0.0
1629646162.60008597,86828588,0.06,0.07,0.13,0.1,352.75,352.75,0.0,0.0
1629646162.70004606,86928548,0.03,0.02,0.13,0.12,352.75,352.75,0.0,0.0
1629646162.80000591,87028508,0.06,0.02,0.12,0.12,352.75,352.75,0.0,0.0
1629646162.89996600,87128468,0.11,0.05,0.13,0.13,352.75,352.75,0.0,0.0
1629646162.99992585,87228428,0.15,0.11,0.14,0.13,352.75,352.75,0.0,0.0
1629646163.09988594,87328388,0.13,0.14,0.12,0.13,352.75,352.75,0.0,0.0
1629646163.19984603,87428348,0.14,0.14,0.09,0.11,352.75,352.75,0.0,0.0
1629646163.29980588,87528308,0.13,0.14,0.07,0.08,352.75,352.75,0.0,0.0
1629646163.39976597,87628268,0.12,0.13,0.06,0.05,352.75,352.75,0.0,0.0
1629646163.49972606,87728228,0.13,0.13,0.08,0.05,352.75,352.75,0.0,0.0
1629646163.59968591,87828188,0.14,0.14,0.11,0.07,352.75,352.75,0.0,0.0
1629646163.70047903,87928981,0.11,0.12,0.13,0.11,352.75,352.75,0.0,0.0
1629646163.80043888,88028941,0.07,0.09,0.14,0.13,352.75,352.75,0.0,0.0
1629646163.90039897,88128901,0.08,0.06,0.14,0.14,352.75,352.75,0.0,0.0
1629646164.00035906,88228861,0.1,0.07,0.15,0.15,352.75,352.75,0.0,0.0
1629646164.10031891,88328821,0.11,0.09,0.15,0.15,352.75,352.75,0.0,0.0
1629646164.20027900,88428781,0.11,0.1,0.13,0.14,352.75,352.75,0.0,0.0
1629646164.30023885,88528741,0.11,0.11,0.12,0.12,352.75,352.75,0.0,0.0
1629646164.40019894,88628701,0.09,0.09,0.12,0.12,352.75,352.75,0.0,0.0
1629646164.50015903,88728661,0.09,0.08,0.11,0.11,352.75,352.75,0.0,0.0
1629646164.60011888,88828621,0.11,0.08,0.1,0.1,352.75,352.75,0.0,0.0
1629646164.70007896,88928581,0.12,0.09,0.13,0.11,352.75,352.75,0.0,0.0
1629646164.80003905,89028541,0.15,0.13,0.16,0.13,352.75,352.75,0.0,0.0
1629646164.89999890,89128501,0.18,0.17,0.16,0.15,352.75,352.75,0.0,0.0
1629646164.99995899,89228461,0.19,0.19,0.16,0.16,352.75,352.75,0.0,0.0
1629646165.09991908,89328421,0.17,0.19,0.16,0.15,352.75,352.75,0.0,0.0
1629646165.19987893,89428381,0.16,0.17,0.15,0.15,352.75,352.75,0.0,0.0
1629646165.29983902,89528341,0.16,0.16,0.15,0.14,352.75,352.75,0.0,0.0
1629646165.39979887,89628301,0.18,0.17,0.13,0.13,352.75,352.75,0.0,0.0
1629646165.49975896,89728261,0.16,0.16,0.14,0.12,352.75,352.75,0.0,0.0
1629646165.59971905,89828221,0.15,0.14,0.14,0.13,352.75,352.75,0.0,0.0
1629646165.69967890,89928181,-0.34,1.3,1.19,1.64,352.52,352.77,0.0,0.0
1629646165.80047202,90028974,-1.36,7.43,8.99,13.8,350.05,353.61,0.0,0.01
1629646165.90043187,90128934,-2.54,13.25,12.67,27.4,344.93,355.51,0.0,0.07
1629646166.00039196,90228894,-4.82,15.15,11.14,35.51,338.93,355.53,0.0,0.1
1629646166.10035205,90328854,-8.08,12.44,5.25,36.35,332.94,351.55,0.0,0.09
1629646166.20031190,90428814,-10.74,7.35,-3.29,30.88,326.95,344.81,0.0,0.09
1629646166.30027199,90528774,-11.39,2.35,-11.74,21.2,320.95,337.3,0.01,0.11
1629646166.40023208,90628734,-9.94,-1.04,-17.93,9.88,314.94,329.59,0.01,0.13
1629646166.50019193,90728694,-6.9,-1.74,-21.16,-0.05,308.94,321.1,0.01,0.15
1629646166.60015202,90828654,-2.68,0.96,-21.68,-6.72,302.94,311.52,0.01,0.16
1629646166.70011187,90928614,1.78,6.17,-19.77,-9.37,296.94,301.42,0.02,0.16
1629646166.80007195,91028574,5.3,11.77,-16.09,-8.41,290.94,291.97,0.02,0.14
1629646166.90003204,91128534,6.97,15.73,-11.86,-5.3,284.95,283.97,0.02,0.11
1629646166.99999189,91228494,6.78,17.02,-8.1,-1.68,278.95,277.35,0.02,0.09
1629646167.09995198,91328454,5.28,15.74,-5.27,1.37,272.95,271.66,0.02,0.08
1629646167.19991207,91428414,3.19,12.64,-3.32,3.47,266.95,266.51,0.02,0.07
1629646167.29987192,91528374,1.16,8.75,-2.02,4.68,260.95,261.64,0.01,0.07
1629646167.39983201,91628334,-0.41,5.01,-1.1,5.28,254.95,256.82,0.01,0.06
1629646167.49979186,91728294,-1.42,2.02,-0.36,5.59,248.95,251.85,0.02,0.05
1629646167.59975195,91828254,-1.96,0.0,0.19,5.7,242.95,246.54,0.02,0.04
1629646167.69971204,91928214,-2.23,-1.15,0.6,5.68,236.95,240.78,0.02,0.03
1629646167.79967189,92028174,-2.52,-1.77,0.88,5.5,230.95,234.6,0.02,0.03
1629646167.90046501,92128967,-3.01,-2.21,1.01,5.15,224.95,228.1,0.01,0.03
1629646168.00042486,92228927,-3.7,-2.68,0.97,4.59,218.95,221.41,0.01,0.03
1629646168.10038495,92328887,-4.54,-3.27,0.76,3.86,212.95,214.68,0.01,0.03
1629646168.20034504,92428847,-5.45,-3.97,0.37,2.98,206.95,208.02,0.01,0.03
1629646168.30030489,92528807,-6.34,-4.75,-0.13,2.0,200.95,201.52,0.01,0.03
1629646168.40026498,92628767,-7.12,-5.52,-0.69,1.05,194.95,195.2,0.01,0.03
1629646168.50022507,92728727,-7.84,-6.24,-1.29,0.19,188.95,189.06,0.01,0.03
1629646168.60018492,92828687,-8.5,-6.97,-1.98,-0.61,182.95,183.08,0.01,0.03
1629646168.70014501,92928647,-9.05,-7.68,-2.73,-1.4,176.95,177.2,0.01,0.02
1629646168.80010486,93028607,-9.48,-8.31,-3.57,-2.2,170.95,171.41,0.01,0.02
1629646168.90006495,93128567,-9.76,-8.83,-4.53,-3.1,164.95,165.66,0.01,0.02
1629646169.00002503,93228527,-9.87,-9.17,-5.57,-4.08,158.95,159.89,0.01,0.02
1629646169.09998488,93328487,-9.78,-9.3,-6.7,-5.18,152.95,154.08,0.0,0.02
1629646169.19994497,93428447,-9.5,-9.19,-7.9,-6.39,146.95,148.19,0.0,0.02
1629646169.29990506,93528407,-9.04,-8.85,-9.1,-7.68,140.95,142.23,0.0,0.02
1629646169.39986491,93628367,-8.45,-8.29,-10.28,-8.98,134.94,136.18,0.0,0.02
1629646169.49982500,93728327,-7.71,-7.54,-11.41,-10.27,128.94,130.06,0.0,0.02
1629646169.59978485,93828287,-6.82,-6.6,-12.45,-11.46,122.94,123.9,0.0,0.02
1629646169.69974494,93928247,-5.78,-5.47,-13.4,-12.54,116.94,117.72,0.0,0.02
1629646169.79970503,94028207,-4.63,-4.22,-14.24,-13.49,110.94,111.55,0.0,0.02
1629646169.89966488,94128167,-3.37,-2.9,-14.95,-14.3,104.94,105.42,0.0,0.02
1629646170.00045800,94228960,-1.98,-1.42,-15.49,-14.94,99.59,99.35,0.0,0.02
1629646170.10041785,94328920,-0.52,0.73,-15.81,-15.57,96.52,93.58,0.0,0.02
1629646170.20037794,94428880,0.79,3.48,-15.92,-16.27,94.86,88.72,0.0,0.02
1629646170.30033803,94528840,1.64,6.07,-15.85,-16.9,93.91,85.27,0.0,0.01
1629646170.40029788,94628800,1.8,7.64,-15.64,-17.16,93.31,83.49,0.0,0.01
1629646170.50025797,94728760,1.27,7.7,-15.39,-16.96,92.87,83.28,0.0,0.01
1629646170.60021806,94828720,0.24,6.29,-15.16,-16.38,92.49,84.29,0.0,0.01
1629646170.70017791,94928680,-0.94,3.83,-15.06,-15.66,92.12,86.07,0.0,0.01
1629646170.80013800,95028640,-1.96,0.97,-15.12,-15.01,91.75,88.2,0.0,0.01
1629646170.90009785,95128600,-2.59,-1.66,-15.37,-14.56,91.4,90.28,0.0,0.0
1629646171.00005794,95228560,-2.76,-3.62,-15.78,-14.37,91.08,92.04,0.0,0.0
1629646171.10001802,95328520,-2.5,-4.66,-16.27,-14.43,90.81,93.26,0.0,0.01
1629646171.19997787,95428480,-1.95,-4.8,-16.75,-14.72,90.59,93.86,0.0,0.01
1629646171.29993796,95528440,-1.3,-4.25,-17.16,-15.17,90.43,93.85,0.0,0.01
1629646171.39989805,95628400,-0.66,-3.24,-17.46,-15.7,90.31,93.34,0.0,0.01
1629646171.49985790,95728360,-0.09,-2.0,-17.67,-16.25,90.24,92.49,0.0,0.02
1629646171.59981799,95828320,0.33,-0.74,-17.77,-16.76,90.2,91.47,0.0,0.02
1629646171.69977808,95928280,0.58,0.32,-17.78,-17.17,90.18,90.48,0.0,0.02
1629646171.79973793,96028240,0.68,1.11,-17.73,-17.47,90.17,89.65,0.0,0.02
1629646171.89969802,96128200,0.63,1.56,-17.6,-17.61,90.16,89.06,0.0,0.02
1629646171.99965787,96228160,0.45,1.65,-17.44,-17.59,90.14,88.76,0.0,0.01
1629646172.10045099,96328953,0.23,1.45,-17.29,-17.47,90.11,88.72,0.0,0.01
1629646172.20041108,96428913,0.01,1.07,-17.19,-17.31,90.08,88.89,0.0,0.01
1629646172.30037093,96528873,-0.16,0.6,-17.12,-17.14,90.05,89.2,0.0,0.01
1629646172.40033102,96628833,-0.27,0.14,-17.14,-17.02,90.01,89.57,0.0,0.01
1629646172.50029087,96728793,-0.34,-0.25,-17.2,-16.98,89.98,89.93,0.0,0.01
1629646172.60025096,96828753,-0.35,-0.55,-17.29,-16.99,89.95,90.24,0.0,0.01
1629646172.70021105,96928713,-0.32,-0.71,-17.37,-17.03,89.92,90.44,0.0,0.01
1629646172.80017090,97028673,-0.26,-0.76,-17.44,-17.09,89.9,90.55,0.0,0.01
1629646172.90013099,97128633,-0.17,-0.7,-17.51,-17.17,89.89,90.55,0.0,0.01
1629646173.00009108,97228593,-0.04,-0.51,-17.56,-17.26,89.88,90.47,0.0,0.01
1629646173.10005093,97328553,0.06,-0.28,-17.58,-17.33,89.88,90.33,0.0,0.01
1629646173.20001101,97428513,0.12,-0.07,-17.58,-17.39,89.89,90.17,0.0,0.01
1629646173.29997087,97528473,0.15,0.09,-17.59,-17.45,89.89,90.02,0.0,0.01
1629646173.39993095,97628433,0.18,0.24,-17.58,-17.5,89.9,89.89,0.0,0.01
1629646173.49989104,97728393,0.18,0.32,-17.57,-17.53,89.91,89.8,0.0,0.01
1629646173.59985089,97828353,0.15,0.33,-17.56,-17.55,89.91,89.76,0.0,0.01
1629646173.69981098,97928313,0.12,0.29,-17.56,-17.57,89.92,89.76,0.0,0.01
1629646173.79977107,98028273,0.1,0.24,-17.59,-17.59,89.92,89.8,0.0,0.01
1629646173.89973092,98128233,0.09,0.19,-17.57,-17.57,89.93,89.86,0.0,0.01
1629646173.99969101,98228193,0.05,0.13,-17.56,-17.53,89.93,89.93,0.0,0.01
1629646174.10048389,98328986,0.04,0.06,-17.56,-17.51,89.93,89.99,0.0,0.01
1629646174.20044398,98428946,0.03,0.01,-17.56,-17.49,89.94,90.05,0.0,0.01
1629646174.30040407,98528906,0.04,-0.02,-17.56,-17.48,89.94,90.09,0.0,0.01
1629646174.40036392,98628866,0.06,-0.02,-17.6,-17.5,89.95,90.12,0.0,0.01
1629646174.50032401,98728826,0.08,0.0,-17.63,-17.53,89.95,90.13,0.0,0.01
1629646174.60028386,98828786,0.09,0.03,-17.66,-17.58,89.96,90.12,0.0,0.01
1629646174.70024395,98928746,0.11,0.06,-17.68,-17.61,89.97,90.11,0.0,0.01
1629646174.80020404,99028706,0.13,0.09,-17.7,-17.65,89.97,90.09,0.0,0.01
1629646174.90016389,99128666,0.13,0.11,-17.71,-17.68,89.98,90.08,0.0,0.01
1629646175.00012398,99228626,0.15,0.13,-17.72,-17.7,89.99,90.06,0.0,0.01
1629646175.10008407,99328586,0.15,0.16,-17.7,-17.7,90.0,90.05,0.0,0.01
1629646175.20004392,99428546,0.16,0.17,-17.7,-17.69,90.01,90.05,0.0,0.0
1629646175.30000401,99528506,0.18,0.18,-17.73,-17.72,90.02,90.06,0.0,0.0
1629646175.39996386,99628466,0.18,0.19,-17.74,-17.74,90.03,90.07,0.0,0.0
1629646175.49992394,99728426,0.19,0.19,-17.74,-17.75,90.04,90.08,0.0,0.0
1629646175.59988403,99828386,0.21,0.21,-17.73,-17.75,90.05,90.1,0.0,0.0
1629646175.69984388,99928346,0.19,0.2,-17.73,-17.74,90.05,90.12,0.0,0.0
1629646175.79980397,100028306,0.16,0.16,-17.76,-17.75,90.06,90.13,0.0,0.0
1629646175.89976406,100128266,0.15,0.14,-17.76,-17.76,90.07,90.15,0.0,0.0
1629646175.99972391,100228226,0.15,0.12,-17.79,-17.78,90.08,90.16,0.0,0.0
1629646176.09968400,100328186,0.17,0.13,-17.8,-17.79,90.09,90.17,0.0,0.0
1629646176.20047688,100428979,0.18,0.15,-17.8,-17.8,90.1,90.17,0.0,0.0
1629646176.30043697,100528939,0.18,0.17,-17.78,-17.78,90.11,90.18,0.0,0.0
1629646176.40039706,100628899,0.17,0.17,-17.76,-17.76,90.12,90.19,0.0,0.0
1629646176.50035691,100728859,0.16,0.15,-17.79,-17.77,90.13,90.19,0.0,0.0
1629646176.60031700,100828819,0.17,0.15,-17.83,-17.81,90.13,90.2,0.0,0.0
1629646176.70027685,100928779,0.2,0.17,-17.84,-17.85,90.14,90.21,0.0,0.0
1629646176.80023694,101028739,0.19,0.16,-17.85,-17.87,90.15,90.21,0.0,0.0
1629646176.90019703,101128699,0.17,0.14,-17.84,-17.88,90.16,90.22,0.0,0.0
1629646177.00015688,101228659,0.18,0.15,-17.83,-17.86,90.17,90.22,0.0,0.0
1629646177.10011697,101328619,0.21,0.17,-17.86,-17.86,90.17,90.23,0.0,0.0
1629646177.20007706,101428579,0.22,0.19,-17.88,-17.87,90.18,90.24,0.0,0.0
1629646177.30003691,101528539,0.19,0.19,-17.9,-17.89,90.19,90.25,0.0,0.0
1629646177.39999700,101628499,0.15,0.16,-17.93,-17.91,90.19,90.26,0.0,0.0
1629646177.49995685,101728459,0.15,0.14,-17.94,-17.93,90.19,90.26,0.0,0.0
1629646177.59991693,101828419,0.16,0.14,-17.92,-17.92,90.2,90.27,0.0,0.0
1629646177.69987702,101928379,0.19,0.17,-17.88,-17.87,90.2,90.27,0.0,0.0
1629646177.79983687,102028339,0.22,0.2,-17.89,-17.86,90.21,90.27,0.0,0.0
1629646177.89979696,102128299,0.22,0.22,-17.92,-17.89,90.21,90.28,0.0,0.0
1629646177.99975705,102228259,0.22,0.21,-17.96,-17.93,90.22,90.28,0.0,0.0
1629646178.09971690,102328219,0.21,0.21,-18.0,-17.98,90.22,90.28,0.0,0.0
1629646178.19967699,102428179,0.18,0.18,-18.02,-18.02,90.23,90.28,0.0,0.0
1629646178.30046988,102528972,0.15,0.15,-18.02,-18.04,90.23,90.28,0.0,0.0
1629646178.40042996,102628932,0.15,0.14,-17.99,-18.01,90.23,90.28,0.0,0.0
1629646178.50039005,102728892,0.15,0.14,-17.98,-18.0,90.23,90.28,0.0,0.0
1629646178.60034990,102828852,0.17,0.14,-17.98,-17.99,90.24,90.28,0.0,0.0
1629646178.70030999,102928812,0.2,0.17,-17.99,-18.0,90.24,90.29,0.0,0.0
1629646178.80027008,103028772,0.23,0.2,-18.02,-18.02,90.24,90.29,0.0,0.0
1629646178.90022993,103128732,0.24,0.21,-18.04,-18.05,90.25,90.3,0.0,0.0
1629646179.00019002,103228692,0.25,0.23,-18.05,-18.06,90.25,90.3,0.0,0.0
1629646179.10014987,103328652,0.25,0.24,-18.04,-18.05,90.26,90.31,0.0,0.0
1629646179.20010996,103428612,0.26,0.24,-18.03,-18.04,90.26,90.31,0.0,0.0
1629646179.30007005,103528572,0.28,0.26,-18.02,-18.03,90.27,90.31,0.0,0.0
1629646179.40002990,103628532,0.27,0.26,-18.03,-18.04,90.27,90.32,0.0,0.0
1629646179.49998999,103728492,0.25,0.24,-18.03,-18.05,90.28,90.32,0.0,0.0
1629646179.59995008,103828452,0.24,0.23,-18.02,-18.05,90.28,90.32,0.0,0.0
1629646179.69990993,103928412,0.25,0.24,-18.0,-18.01,90.29,90.33,0.0,0.0
1629646179.79987001,104028372,0.26,0.26,-18.01,-18.0,90.29,90.33,0.0,0.0
1629646179.89982986,104128332,0.26,0.28,-18.03,-18.0,90.29,90.34,0.0,0.0
1629646179.99978995,104228292,0.26,0.28,-18.05,-18.02,90.3,90.34,0.0,0.0
1629646180.09975004,104328252,0.26,0.28,-18.07,-18.04,90.3,90.35,0.0,0.0
1629646180.19970989,104428212,0.26,0.26,-18.09,-18.07,90.3,90.35,0.0,0.0
1629646180.29966998,104528172,0.26,0.25,-18.09,-18.09,90.31,90.35,0.0,0.0
1629646180.40046287,104628965,0.24,0.24,-18.06,-18.08,90.31,90.36,0.0,0.0
1629646180.50042295,104728925,0.24,0.23,-18.04,-18.05,90.31,90.36,0.0,0.0
1629646180.60038304,104828885,0.24,0.21,-18.05,-18.05,90.32,90.36,0.0,0.0
1629646180.70034289,104928845,0.25,0.2,-18.07,-18.07,90.32,90.36,0.0,0.0
1629646180.80030298,105028805,0.3,0.24,-18.09,-18.11,90.33,90.37,0.0,0.0
1629646180.90026307,105128765,0.36,0.3,-18.09,-18.12,90.33,90.37,0.0,0.0
1629646181.00022292,105228725,0.38,0.36,-18.09,-18.12,90.34,90.38,0.0,0.0
1629646181.10018301,105328685,0.37,0.38,-18.1,-18.12,90.35,90.38,0.0,0.0
1629646181.20014286,105428645,0.34,0.37,-18.11,-18.12,90.35,90.39,0.0,0.0
1629646181.30010295,105528605,0.32,0.34,-18.13,-18.13,90.36,90.39,0.0,0.0
1629646181.40006304,105628565,0.32,0.32,-18.16,-18.16,90.36,90.4,0.0,0.0
1629646181.50002289,105728525,0.34,0.32,-18.13,-18.15,90.37,90.4,0.0,0.0
1629646181.59998298,105828485,0.37,0.34,-18.11,-18.13,90.37,90.41,0.0,0.0
1629646181.69994307,105928445,0.38,0.36,-18.1,-18.11,90.38,90.41,0.0,0.0
1629646181.79990292,106028405,0.35,0.36,-18.11,-18.1,90.38,90.42,0.0,0.0
1629646181.89986300,106128365,0.35,0.35,-18.13,-18.1,90.39,90.43,0.0,0.0
1629646181.99982285,106228325,0.35,0.34,-18.18,-18.15,90.39,90.43,0.0,0.0
1629646182.09978294,106328285,0.34,0.33,-18.2,-18.19,90.39,90.44,0.0,0.0
1629646182.19974303,106428245,0.35,0.33,-18.2,-18.21,90.39,90.44,0.0,0.0
1629646182.29970288,106528205,0.35,0.33,-18.18,-18.21,90.4,90.44,0.0,0.0
1629646182.39966297,106628165,0.35,0.33,-18.16,-18.18,90.4,90.44,0.0,0.0
1629646182.50045586,106728958,0.35,0.33,-18.11,-18.14,90.4,90.44,0.0,0.0
1629646182.60041595,106828918,0.36,0.34,-18.09,-18.1,90.4,90.44,0.0,0.0
1629646182.70037603,106928878,0.35,0.33,-18.1,-18.1,90.4,90.44,0.0,0.0
1629646182.80033588,107028838,0.35,0.32,-18.15,-18.13,90.4,90.44,0.0,0.0
1629646182.90029597,107128798,0.33,0.3,-18.17,-18.17,90.4,90.43,0.0,0.0
1629646183.00025606,107228758,0.33,0.29,-18.19,-18.21,90.4,90.43,0.0,0.0
1629646183.10021591,107328718,0.32,0.29,-18.19,-18.22,90.4,90.43,0.0,0.0
1629646183.20017600,107428678,0.3,0.28,-18.18,-18.2,90.4,90.43,0.0,0.0
1629646183.30013585,107528638,0.31,0.29,-18.17,-18.18,90.39,90.42,0.0,0.0
1629646183.40009594,107628598,0.33,0.31,-18.16,-18.16,90.39,90.42,0.0,0.0
1629646183.50005603,107728558,0.32,0.32,-18.16,-18.15,90.39,90.42,0.0,0.0
1629646183.60001588,107828518,0.3,0.3,-18.16,-18.16,90.39,90.42,0.0,0.0
1629646183.69997597,107928478,0.27,0.28,-18.16,-18.16,90.39,90.41,0.0,0.0
1629646183.79993606,108028438,0.26,0.25,-18.18,-18.17,90.39,90.41,0.0,0.0
1629646183.89989591,108128398,0.28,0.26,-18.2,-18.19,90.38,90.41,0.0,0.0
1629646183.99985600,108228358,0.28,0.27,-18.21,-18.21,90.38,90.41,0.0,0.0
1629646184.09981608,108328318,0.27,0.28,-18.21,-18.2,90.38,90.41,0.0,0.0
1629646184.19977593,108428278,0.31,0.3,-18.22,-18.2,90.38,90.41,0.0,0.0
1629646184.29973602,108528238,0.34,0.34,-18.21,-18.2,90.38,90.41,0.0,0.0
1629646184.39969587,108628198,0.34,0.37,-18.2,-18.2,90.38,90.41,0.0,0.0
1629646184.49965596,108728158,0.33,0.37,-18.19,-18.18,90.38,90.4,0.0,0.0
1629646184.60044885,108828951,0.31,0.34,-18.16,-18.16,90.38,90.4,0.0,0.0
1629646184.70040894,108928911,0.29,0.31,-18.14,-18.13,90.38,90.4,0.0,0.0
1629646184.80036902,109028871,0.27,0.26,-18.14,-18.13,90.38,90.4,0.0,0.0
1629646184.90032887,109128831,0.29,0.25,-18.14,-18.14,90.38,90.4,0.0,0.0
1629646185.00028896,109228791,0.32,0.26,-18.15,-18.16,90.38,90.4,0.0,0.0
1629646185.10024905,109328751,0.36,0.3,-18.18,-18.19,90.38,90.41,0.0,0.0
1629646185.20020890,109428711,0.4,0.35,-18.2,-18.22,90.38,90.41,0.0,0.0
1629646185.30016899,109528671,0.42,0.4,-18.19,-18.22,90.38,90.41,0.0,0.0
1629646185.40012908,109628631,0.43,0.43,-18.16,-18.19,90.39,90.41,0.0,0.0
1629646185.50008893,109728591,0.41,0.44,-18.13,-18.14,90.39,90.41,0.0,0.0
1629646185.60004902,109828551,0.39,0.41,-18.14,-18.13,90.39,90.41,0.0,0.0
1629646185.70000887,109928511,0.38,0.39,-18.17,-18.15,90.4,90.41,0.0,0.0
1629646185.79996896,110028471,0.38,0.37,-18.2,-18.2,90.4,90.41,0.0,0.0
1629646185.89992905,110128431,0.39,0.36,-18.23,-18.24,90.4,90.41,0.0,0.0
1629646185.99988890,110228391,0.41,0.37,-18.26,-18.28,90.4,90.42,0.0,0.0
1629646186.09984899,110328351,0.4,0.37,-18.27,-18.32,90.4,90.42,0.0,0.0
1629646186.19980907,110428311,0.4,0.37,-18.26,-18.31,90.4,90.42,0.0,0.0
1629646186.29976892,110528271,0.39,0.36,-18.23,-18.28,90.4,90.43,0.0,0.0
1629646186.39972901,110628231,0.39,0.35,-18.24,-18.27,90.41,90.43,0.0,0.0
1629646186.49968886,110728191,0.37,0.35,-18.24,-18.25,90.4,90.43,0.0,0.0
1629646186.60048199,110828984,0.35,0.33,-18.23,-18.24,90.4,90.43,0.0,0.0
1629646186.70044208,110928944,0.34,0.32,-18.21,-18.21,90.4,90.43,0.0,0.0
1629646186.80040193,111028904,0.33,0.31,-18.19,-18.19,90.4,90.43,0.0,0.0
1629646186.90036201,111128864,0.34,0.31,-18.2,-18.19,90.4,90.43,0.0,0.0
1629646187.00032187,111228824,0.36,0.33,-18.22,-18.22,90.4,90.42,0.0,0.0
1629646187.10028195,111328784,0.37,0.35,-18.23,-18.24,90.4,90.41,0.0,0.0
1629646187.20024204,111428744,0.37,0.35,-18.23,-18.26,90.4,90.41,0.0,0.0
1629646187.30020189,111528704,0.35,0.34,-18.22,-18.24,90.4,90.41,0.0,0.0
1629646187.40016198,111628664,0.33,0.32,-18.2,-18.22,90.39,90.4,0.0,0.0
1629646187.50012207,111728624,0.34,0.32,-18.19,-18.2,90.39,90.4,0.0,0.0
1629646187.60008192,111828584,0.36,0.34,-18.19,-18.19,90.39,90.41,0.0,0.0
1629646187.70004201,111928544,0.37,0.36,-18.2,-18.19,90.39,90.41,0.0,0.0
1629646187.80000186,112028504,0.36,0.35,-18.24,-18.23,90.39,90.41,0.0,0.0
1629646187.89996195,112128464,0.36,0.35,-18.27,-18.26,90.39,90.41,0.0,0.0
1629646187.99992204,112228424,0.38,0.36,-18.27,-18.28,90.39,90.41,0.0,0.0
1629646188.09988189,112328384,0.4,0.39,-18.23,-18.25,90.39,90.41,0.0,0.0
1629646188.19984198,112428344,0.41,0.4,-18.22,-18.23,90.39,90.41,0.0,0.0
1629646188.29980206,112528304,0.41,0.41,-18.24,-18.24,90.39,90.41,0.0,0.0
1629646188.39976192,112628264,0.39,0.38,-18.25,-18.26,90.4,90.42,0.0,0.0
1629646188.49972200,112728224,0.37,0.36,-18.25,-18.27,90.4,90.41,0.0,0.0
1629646188.59968185,112828184,0.36,0.34,-18.24,-18.26,90.4,90.41,0.0,0.0
1629646188.70047498,112928977,0.37,0.34,-18.23,-18.25,90.39,90.41,0.0,0.0
1629646188.80043507,113028937,0.38,0.35,-18.22,-18.24,90.39,90.41,0.0,0.0
1629646188.90039492,113128897,0.4,0.37,-18.22,-18.24,90.39,90.41,0.0,0.0
1629646189.00035501,113228857,0.41,0.39,-18.22,-18.24,90.4,90.41,0.0,0.0
1629646189.10031486,113328817,0.41,0.41,-18.21,-18.22,90.4,90.41,0.0,0.0
1629646189.20027494,113428777,0.39,0.4,-18.2,-18.21,90.4,90.41,0.0,0.0
1629646189.30023503,113528737,0.36,0.37,-18.2,-18.21,90.4,90.41,0.0,0.0
1629646189.40019488,113628697,0.34,0.34,-18.19,-18.21,90.4,90.41,0.0,0.0
1629646189.50015497,113728657,0.33,0.32,-18.17,-18.2,90.4,90.41,0.0,0.0
1629646189.60011506,113828617,0.36,0.33,-18.16,-18.18,90.4,90.4,0.0,0.0
1629646189.70007491,113928577,0.41,-0.5,-18.17,-19.05,90.4,90.4,0.0,0.0
1629646189.80003500,114028537,0.52,-6.94,-18.45,-25.51,90.4,90.86,0.0,0.0
1629646189.89999485,114128497,1.32,-13.92,-18.09,-32.14,90.42,92.26,0.0,0.02
1629646189.99995494,114228457,3.71,-17.54,-15.99,-35.43,90.49,93.4,0.0,0.03
1629646190.09991503,114328417,7.79,-16.1,-12.1,-34.6,90.65,93.11,0.0,0.03
1629646190.19987488,114428377,12.39,-10.77,-7.21,-30.39,90.92,91.86,0.0,0.03
1629646190.29983497,114528337,15.97,-4.09,-2.8,-24.17,91.29,90.71,0.0,0.03
1629646190.39979506,114628297,17.72,1.58,-0.16,-17.86,91.73,90.09,0.0,0.05
1629646190.49975491,114728257,17.78,4.91,0.3,-13.27,92.2,89.7,0.01,0.06
1629646190.59971499,114828217,16.78,5.95,-0.86,-11.13,92.65,89.32,0.01,0.07
1629646190.69967508,114928177,15.44,5.54,-2.8,-11.09,93.07,89.03,0.01,0.06
1629646190.80046797,115028970,14.3,4.65,-4.77,-12.26,93.44,89.11,0.01,0.05
1629646190.90042806,115128930,13.54,4.01,-6.36,-13.75,93.77,89.68,0.01,0.04
1629646191.00038791,115228890,13.06,3.87,-7.47,-14.98,94.06,90.65,0.01,0.04
1629646191.10034800,115328850,12.7,4.15,-8.16,-15.71,94.3,91.88,0.01,0.04
1629646191.20030785,115428810,12.23,4.56,-8.62,-15.99,94.51,93.16,0.01,0.04
1629646191.30026793,115528770,11.55,4.81,-8.98,-15.95,94.67,94.34,0.01,0.03
1629646191.40022802,115628730,10.65,4.74,-9.35,-15.78,94.79,95.28,0.01,0.03
1629646191.50018787,115728690,9.66,4.39,-9.73,-15.58,94.86,95.92,0.01,0.02
1629646191.60014796,115828650,8.71,3.88,-10.17,-15.41,94.89,96.25,0.01,0.02
1629646191.70010805,115928610,7.88,3.39,-10.63,-15.33,94.87,96.28,0.0,0.01
1629646191.80006790,116028570,7.17,2.99,-11.1,-15.31,94.81,96.09,0.0,0.01
1629646191.90002799,116128530,6.57,2.73,-11.57,-15.33,94.71,95.73,0.0,0.01
1629646191.99998808,116228490,6.09,2.59,-12.02,-15.4,94.59,95.27,0.0,0.01
1629646192.09994793,116328450,5.67,2.55,-12.4,-15.45,94.44,94.78,0.0,0.0
1629646192.19990802,116428410,5.26,2.52,-12.77,-15.49,94.27,94.28,0.0,0.0
1629646192.29986787,116528370,4.85,2.47,-13.13,-15.56,94.07,93.83,0.0,0.0
1629646192.39982796,116628330,4.47,2.38,-13.5,-15.66,93.86,93.43,0.0,0.0
1629646192.49978805,116728290,4.09,2.25,-13.83,-15.77,93.64,93.12,0.0,0.0
1629646192.59974790,116828250,3.69,2.07,-14.15,-15.89,93.4,92.87,0.0,0.0
1629646192.69970798,116928210,3.32,1.86,-14.48,-16.04,93.16,92.68,0.0,0.0
1629646192.79966807,117028170,2.97,1.63,-14.8,-16.22,92.91,92.53,0.0,0.0
1629646192.90046096,117128963,2.67,1.41,-15.07,-16.39,92.66,92.41,0.0,0.0
1629646193.00042105,117228923,2.38,1.19,-15.33,-16.54,92.41,92.29,0.0,0.0
1629646193.10038090,117328883,2.13,1.02,-15.58,-16.68,92.16,92.17,0.0,0.0
1629646193.20034099,117428843,1.91,0.87,-15.82,-16.84,91.91,92.02,0.0,0.0
1629646193.30030107,117528803,1.7,0.75,-16.0,-16.94,91.67,91.85,0.0,0.0
1629646193.40026093,117628763,1.52,0.64,-16.16,-17.03,91.43,91.64,0.0,0.0
1629646193.50022101,117728723,1.37,0.57,-16.33,-17.1,91.2,91.41,0.0,0.0
1629646193.60018086,117828683,1.23,0.52,-16.51,-17.18,90.98,91.16,0.0,0.0
1629646193.70014095,117928643,1.11,0.48,-16.68,-17.27,90.77,90.89,0.0,0.0
1629646193.80010104,118028603,1.03,0.47,-16.84,-17.37,90.57,90.62,0.0,0.0
1629646193.90006089,118128563,0.96,0.48,-16.97,-17.46,90.38,90.36,0.0,0.0
1629646194.00002098,118228523,0.91,0.49,-17.08,-17.52,90.2,90.12,0.0,0.0
1629646194.09998107,118328483,0.87,0.51,-17.18,-17.58,90.03,89.9,0.0,0.0
1629646194.19994092,118428443,0.83,0.52,-17.28,-17.64,89.87,89.7,0.0,0.0
1629646194.29990101,118528403,0.77,0.51,-17.4,-17.71,89.72,89.54,0.0,0.0
1629646194.39986086,118628363,0.71,0.49,-17.53,-17.79,89.59,89.4,0.0,0.0
1629646194.49982095,118728323,0.65,0.46,-17.62,-17.87,89.46,89.28,0.0,0.0
1629646194.59978104,118828283,0.59,0.41,-17.69,-17.93,89.34,89.18,0.0,0.0
1629646194.69974089,118928243,0.56,0.38,-17.77,-17.98,89.23,89.1,0.0,0.0
1629646194.79970098,119028203,0.52,0.36,-17.86,-18.04,89.13,89.03,0.0,0.0
1629646194.89966106,119128163,0.46,0.32,-17.93,-18.1,89.04,88.96,0.0,0.0
1629646195.00045395,119228956,0.43,0.29,-17.99,-18.16,88.95,88.9,0.0,0.0
1629646195.10041404,119328916,0.42,0.28,-17.99,-18.17,88.88,88.84,0.0,0.0
1629646195.20037389,119428876,0.47,0.3,-17.99,-18.15,88.81,88.79,0.0,0.0
1629646195.30033398,119528836,0.51,0.35,-18.05,-18.15,88.76,88.73,0.0,0.0
1629646195.40029407,119628796,0.52,0.41,-18.11,-18.19,88.71,88.69,0.0,0.0
1629646195.50025392,119728756,0.52,0.44,-18.16,-18.23,88.67,88.64,0.0,0.0
1629646195.60021400,119828716,0.52,0.46,-18.16,-18.26,88.64,88.6,0.0,0.0
1629646195.70017385,119928676,0.53,0.47,-18.17,-18.26,88.61,88.56,0.0,0.0
1629646195.80013394,120028636,0.54,0.49,-18.2,-18.28,88.59,88.53,0.0,0.0
1629646195.90009403,120128596,0.54,0.51,-18.24,-18.31,88.58,88.51,0.0,0.0
1629646196.00005388,120228556,0.53,0.5,-18.3,-18.35,88.57,88.49,0.0,0.0
1629646196.10001397,120328516,0.52,0.5,-18.34,-18.39,88.57,88.49,0.0,0.0
1629646196.19997406,120428476,0.55,0.51,-18.34,-18.41,88.57,88.49,0.0,0.0
1629646196.29993391,120528436,0.58,0.53,-18.33,-18.41,88.57,88.5,0.0,0.0
1629646196.39989400,120628396,0.61,0.57,-18.33,-18.39,88.58,88.52,0.0,0.0
1629646196.49985385,120728356,0.6,0.59,-18.37,-18.4,88.6,88.54,0.0,0.0
1629646196.59981394,120828316,0.58,0.58,-18.39,-18.42,88.62,88.57,0.0,0.0
1629646196.69977403,120928276,0.57,0.56,-18.4,-18.43,88.64,88.6,0.0,0.0
1629646196.79973388,121028236,0.59,0.56,-18.41,-18.44,88.66,88.63,0.0,0.0
1629646196.89969397,121128196,0.58,0.57,-18.41,-18.44,88.68,88.66,0.0,0.0
1629646196.99965405,121228156,0.55,0.55,-18.41,-18.44,88.71,88.69,0.0,0.0
1629646197.10044694,121328949,0.54,0.52,-18.39,-18.43,88.74,88.72,0.0,0.0
1629646197.20040703,121428909,0.53,0.5,-18.38,-18.42,88.77,88.75,0.0,0.0
1629646197.30036688,121528869,0.55,0.51,-18.38,-18.41,88.79,88.78,0.0,0.0
1629646197.40032697,121628829,0.58,0.54,-18.38,-18.4,88.83,88.82,0.0,0.0
1629646197.50028706,121728789,0.62,0.58,-18.4,-18.4,88.86,88.85,0.0,0.0
1629646197.60024691,121828749,0.64,0.62,-18.41,-18.41,88.9,88.88,0.0,0.0
1629646197.70020700,121928709,0.63,0.63,-18.44,-18.44,88.93,88.92,0.0,0.0
1629646197.80016708,122028669,0.63,0.63,-18.47,-18.47,88.97,88.96,0.0,0.0
1629646197.90012693,122128629,0.61,0.61,-18.49,-18.5,89.01,88.99,0.0,0.0
1629646198.00008702,122228589,0.57,0.59,-18.49,-18.53,89.05,89.03,0.0,0.0
1629646198.10004687,122328549,0.57,0.57,-18.48,-18.52,89.08,89.07,0.0,0.0
1629646198.20000696,122428509,0.59,0.57,-18.44,-18.49,89.12,89.12,0.0,0.0
1629646198.29996705,122528469,0.63,0.6,-18.4,-18.42,89.16,89.16,0.0,0.0
1629646198.39992690,122628429,0.65,0.63,-18.39,-18.39,89.2,89.2,0.0,0.0
1629646198.49988699,122728389,0.64,0.65,-18.42,-18.39,89.24,89.24,0.0,0.0
1629646198.59984708,122828349,0.62,0.64,-18.45,-18.42,89.28,89.28,0.0,0.0
1629646198.69980693,122928309,0.59,0.61,-18.48,-18.47,89.32,89.31,0.0,0.0
1629646198.79976702,123028269,0.54,0.55,-18.48,-18.5,89.36,89.35,0.0,0.0
1629646198.89972687,123128229,0.55,0.52,-18.47,-18.5,89.39,89.39,0.0,0.0
1629646198.99968696,123228189,0.58,0.54,-18.44,-18.48,89.43,89.43,0.0,0.0
1629646199.10048008,123328982,0.61,0.57,-18.44,-18.45,89.46,89.46,0.0,0.0
1629646199.20043993,123428942,0.62,0.59,-18.44,-18.45,89.5,89.5,0.0,0.0
1629646199.30040002,123528902,0.65,0.62,-18.43,-18.44,89.53,89.53,0.0,0.0
1629646199.40035987,123628862,0.69,0.66,-18.43,-18.44,89.57,89.57,0.0,0.0
1629646199.50031996,123728822,0.69,0.68,-18.43,-18.44,89.6,89.6,0.0,0.0
1629646199.60028005,123828782,0.65,0.67,-18.41,-18.44,89.64,89.64,0.0,0.0
1629646199.70023990,123928742,0.61,0.64,-18.4,-18.43,89.67,89.67,0.0,0.0
1629646199.80019999,124028702,0.58,0.6,-18.39,-18.42,89.7,89.71,0.0,0.0
1629646199.90016007,124128662,0.57,0.57,-18.37,-18.4,89.73,89.74,0.0,0.0
1629646200.00011992,124228622,0.58,0.56,-18.37,-18.39,89.76,89.77,0.0,0.0
