timestamp,TimeUS,DesRoll,Roll,DesPitch,Pitch,DesYaw,Yaw,ErrRP,ErrYaw
1629643687.20000005,35028483,0.0,0.06,0.0,0.05,352.9,352.91,0.0,0.0
1629643687.29996014,35128443,0.0,0.06,0.0,0.05,352.9,352.91,0.0,0.0
1629643687.39992023,35228403,0.0,0.06,0.0,0.05,352.9,352.91,0.0,0.0
1629643687.49988008,35328363,0.0,0.06,0.0,0.05,352.9,352.91,0.0,0.0
1629643687.59984016,35428323,0.0,0.06,0.0,0.05,352.9,352.91,0.0,0.0
1629643687.69980025,35528283,0.0,0.06,0.0,0.05,352.9,352.91,0.0,0.0
1629643687.79976010,35628243,0.0,0.06,0.0,0.05,352.9,352.91,0.0,0.0
1629643687.89972019,35728203,0.0,0.06,0.0,0.05,352.9,352.91,0.0,0.0
1629643687.99968004,35828163,0.0,0.06,0.0,0.05,352.9,352.91,0.0,0.0
1629643688.10047317,35928956,0.0,0.06,0.0,0.05,352.9,352.91,0.0,0.0
1629643688.20043302,36028916,0.0,0.07,0.0,0.05,352.9,352.91,0.0,0.0
1629643688.30039310,36128876,0.0,0.07,0.0,0.05,352.9,352.91,0.0,0.0
1629643688.40035319,36228836,0.0,0.07,0.0,0.05,352.9,352.91,0.0,0.0
1629643688.50031304,36328796,0.0,0.07,0.0,0.05,352.9,352.91,0.0,0.0
1629643688.60027313,36428756,0.0,0.07,0.0,0.05,352.9,352.91,0.0,0.0
1629643688.70023322,36528716,0.0,0.07,0.0,0.05,352.9,352.91,0.0,0.0
1629643688.80019307,36628676,0.0,0.07,0.0,0.05,352.9,352.91,0.0,0.0
1629643688.90015316,36728636,0.0,0.07,0.0,0.05,352.9,352.91,0.0,0.0
1629643689.00011325,36828596,0.0,0.07,0.0,0.05,352.9,352.91,0.0,0.0
1629643689.10007310,36928556,0.0,0.07,0.0,0.05,352.9,352.91,0.0,0.0
1629643689.20003319,37028516,0.0,0.07,0.0,0.05,352.9,352.91,0.0,0.0
1629643689.29999304,37128476,0.0,0.07,0.0,0.05,352.9,352.91,0.0,0.0
1629643689.39995313,37228436,0.0,0.07,0.0,0.05,352.9,352.91,0.0,0.0
1629643689.49991322,37328396,0.0,0.07,0.0,0.05,352.9,352.91,0.0,0.0
1629643689.59987307,37428356,0.0,0.07,0.0,0.05,352.9,352.91,0.0,0.0
1629643689.69983315,37528316,0.0,0.07,0.0,0.05,352.9,352.91,0.0,0.0
1629643689.79979324,37628276,0.0,0.07,0.0,0.05,352.9,352.91,0.0,0.0
1629643689.89975309,37728236,0.0,0.07,0.0,0.05,352.9,352.91,0.0,0.0
1629643689.99971318,37828196,0.0,0.07,0.0,0.05,352.9,352.91,0.0,0.0
1629643690.09967303,37928156,0.0,0.07,0.0,0.05,352.9,352.91,0.0,0.0
1629643690.20046616,38028949,0.0,0.07,0.0,0.05,352.9,352.91,0.0,0.0
1629643690.30042624,38128909,0.0,0.07,0.0,0.05,352.9,352.91,0.0,0.0
1629643690.40038610,38228869,0.0,0.07,0.0,0.05,352.9,352.91,0.0,0.0
1629643690.50034618,38328829,0.0,0.07,0.0,0.05,352.9,352.91,0.0,0.0
1629643690.60030603,38428789,0.0,0.07,0.0,0.06,352.9,352.91,0.0,0.0
1629643690.70026612,38528749,0.0,0.07,0.0,0.06,352.9,352.91,0.0,0.0
1629643690.80022621,38628709,0.0,0.07,0.0,0.06,352.9,352.91,0.0,0.0
1629643690.90018606,38728669,0.0,0.07,0.0,0.06,352.9,352.91,0.0,0.0
1629643691.00014615,38828629,0.0,0.07,0.0,0.06,352.9,352.91,0.0,0.0
1629643691.10010624,38928589,0.0,0.07,0.0,0.06,352.9,352.91,0.0,0.0
1629643691.20006609,39028549,0.0,0.07,0.0,0.06,352.9,352.91,0.0,0.0
1629643691.30002618,39128509,0.0,0.07,0.0,0.06,352.9,352.91,0.0,0.0
1629643691.39998603,39228469,0.0,0.07,0.0,0.06,352.9,352.91,0.0,0.0
1629643691.49994612,39328429,0.0,0.07,0.0,0.06,352.9,352.91,0.0,0.0
1629643691.59990621,39428389,0.0,0.07,0.0,0.06,352.9,352.91,0.0,0.0
1629643691.69986606,39528349,0.0,0.07,0.0,0.06,352.9,352.91,0.0,0.0
1629643691.79982615,39628309,0.0,0.07,0.0,0.06,352.9,352.91,0.0,0.0
1629643691.89978623,39728269,0.0,0.08,0.0,0.06,352.9,352.91,0.0,0.0
1629643691.99974608,39828229,0.0,0.08,0.0,0.06,352.9,352.91,0.0,0.0
1629643692.09970617,39928189,0.0,0.08,0.0,0.06,352.89,352.9,0.0,0.0
1629643692.20049906,40028982,0.0,0.08,0.0,0.06,352.89,352.9,0.0,0.0
1629643692.30045915,40128942,0.0,0.08,0.0,0.06,352.89,352.9,0.0,0.0
1629643692.40041924,40228902,0.0,0.08,0.0,0.06,352.89,352.9,0.0,0.0
1629643692.50037909,40328862,0.0,0.08,0.0,0.06,352.89,352.9,0.0,0.0
1629643692.60033917,40428822,0.0,0.08,0.0,0.06,352.89,352.9,0.0,0.0
1629643692.70029902,40528782,0.0,0.08,0.0,0.07,352.89,352.9,0.0,0.0
1629643692.80025911,40628742,0.0,0.09,0.0,0.07,352.89,352.9,0.0,0.0
1629643692.90021920,40728702,0.0,0.09,0.0,0.07,352.89,352.9,0.0,0.0
1629643693.00017905,40828662,0.0,0.09,0.0,0.07,352.89,352.9,0.0,0.0
1629643693.10013914,40928622,0.0,0.09,0.0,0.07,352.89,352.9,0.0,0.0
1629643693.20009923,41028582,0.0,0.09,0.0,0.07,352.89,352.9,0.0,0.0
1629643693.30005908,41128542,0.0,0.09,0.0,0.08,352.89,352.9,0.0,0.0
1629643693.40001917,41228502,0.0,0.09,0.0,0.08,352.89,352.9,0.0,0.0
1629643693.49997902,41328462,0.0,0.1,0.0,0.08,352.89,352.9,0.0,0.0
1629643693.59993911,41428422,0.0,0.1,0.0,0.08,352.89,352.9,0.0,0.0
1629643693.69989920,41528382,0.0,0.1,0.0,0.08,352.89,352.9,0.0,0.0
1629643693.79985905,41628342,0.0,0.1,0.0,0.08,352.89,352.9,0.0,0.0
1629643693.89981914,41728302,0.0,0.1,0.0,0.08,352.88,352.89,0.0,0.0
1629643693.99977922,41828262,0.0,0.1,0.0,0.08,352.88,352.89,0.0,0.0
1629643694.09973907,41928222,0.0,0.1,0.0,0.08,352.88,352.89,0.0,0.0
1629643694.19969916,42028182,0.0,0.1,0.0,0.08,352.88,352.89,0.0,0.0
1629643694.30049205,42128975,0.0,0.1,0.0,0.08,352.88,352.89,0.0,0.0
1629643694.40045214,42228935,0.0,0.1,0.0,0.08,352.88,352.89,0.0,0.0
1629643694.50041223,42328895,0.0,0.1,0.0,0.09,352.88,352.89,0.0,0.0
1629643694.60037208,42428855,0.0,0.1,0.0,0.09,352.88,352.89,0.0,0.0
1629643694.70033216,42528815,0.0,0.1,0.0,0.09,352.88,352.89,0.0,0.0
1629643694.80029202,42628775,0.0,0.1,0.0,0.08,352.88,352.89,0.0,0.0
1629643694.90025210,42728735,0.0,0.1,0.0,0.09,352.88,352.89,0.0,0.0
1629643695.00021219,42828695,0.0,0.1,0.0,0.08,352.88,352.89,0.0,0.0
1629643695.10017204,42928655,0.0,0.1,0.0,0.08,352.88,352.89,0.0,0.0
1629643695.20013213,43028615,0.0,0.1,0.0,0.08,352.87,352.88,0.0,0.0
1629643695.30009222,43128575,0.0,0.1,0.0,0.08,352.87,352.88,0.0,0.0
1629643695.40005207,43228535,0.0,0.1,0.0,0.08,352.87,352.88,0.0,0.0
1629643695.50001216,43328495,0.0,0.1,0.0,0.08,352.87,352.88,0.0,0.0
1629643695.59997225,43428455,0.0,0.1,0.0,0.08,352.87,352.88,0.0,0.0
1629643695.69993210,43528415,0.0,0.1,0.0,0.08,352.87,352.88,0.0,0.0
1629643695.79989219,43628375,0.0,0.1,0.0,0.08,352.87,352.88,0.0,0.0
1629643695.89985204,43728335,0.0,0.1,0.0,0.08,352.87,352.88,0.0,0.0
1629643695.99981213,43828295,0.0,0.1,0.0,0.08,352.87,352.88,0.0,0.0
1629643696.09977221,43928255,0.0,0.1,0.0,0.08,352.87,352.88,0.0,0.0
1629643696.19973207,44028215,0.0,0.1,0.0,0.08,352.87,352.88,0.0,0.0
1629643696.29969215,44128175,0.0,0.1,0.0,0.08,352.87,352.88,0.0,0.0
1629643696.40048504,44228968,0.0,0.09,0.0,0.08,352.87,352.88,0.0,0.0
1629643696.50044513,44328928,0.0,0.09,0.0,0.08,352.87,352.88,0.0,0.0
1629643696.60040522,44428888,0.0,0.09,0.0,0.07,352.87,352.88,0.0,0.0
1629643696.70036507,44528848,0.0,0.09,0.0,0.07,352.87,352.88,0.0,0.0
1629643696.80032516,44628808,0.0,0.09,0.0,0.07,352.87,352.88,0.0,0.0
1629643696.90028524,44728768,0.0,0.09,0.0,0.07,352.87,352.88,0.0,0.0
1629643697.00024509,44828728,0.0,0.09,0.0,0.07,352.87,352.88,0.0,0.0
1629643697.10020518,44928688,0.0,0.09,0.0,0.07,352.87,352.88,0.0,0.0
1629643697.20016503,45028648,0.0,0.09,0.0,0.07,352.87,352.88,0.0,0.0
1629643697.30012512,45128608,0.0,0.09,0.0,0.07,352.87,352.88,0.0,0.0
1629643697.40008521,45228568,0.0,0.09,0.0,0.07,352.87,352.88,0.0,0.0
1629643697.50004506,45328528,0.0,0.09,0.0,0.07,352.87,352.88,0.0,0.0
1629643697.60000515,45428488,0.0,0.09,0.0,0.07,352.87,352.88,0.0,0.0
1629643697.69996524,45528448,0.0,0.09,0.0,0.07,352.87,352.88,0.0,0.0
1629643697.79992509,45628408,0.0,0.08,0.0,0.07,352.87,352.88,0.0,0.0
1629643697.89988518,45728368,0.0,0.08,0.0,0.07,352.87,352.88,0.0,0.0
1629643697.99984503,45828328,0.0,0.08,0.0,0.07,352.87,352.88,0.0,0.0
1629643698.09980512,45928288,0.0,0.08,0.0,0.07,352.87,352.88,0.0,0.0
1629643698.19976521,46028248,0.0,0.08,0.0,0.07,352.87,352.88,0.0,0.0
1629643698.29972506,46128208,0.0,0.08,0.0,0.07,352.87,352.88,0.0,0.0
1629643698.39968514,46228168,0.0,0.08,0.0,0.07,352.87,352.88,0.0,0.0
1629643698.50047803,46328961,0.0,0.08,0.0,0.07,352.87,352.88,0.0,0.0
1629643698.60043812,46428921,0.0,0.08,0.0,0.07,352.87,352.88,0.0,0.0
1629643698.70039821,46528881,0.0,0.08,0.0,0.07,352.87,352.88,0.0,0.0
1629643698.80035806,46628841,0.0,0.08,0.0,0.07,352.87,352.88,0.0,0.0
1629643698.90031815,46728801,0.0,0.08,0.0,0.06,352.87,352.88,0.0,0.0
1629643699.00027823,46828761,0.0,0.08,0.0,0.06,352.87,352.88,0.0,0.0
1629643699.10023808,46928721,0.0,0.08,0.0,0.06,352.87,352.88,0.0,0.0
1629643699.20019817,47028681,0.0,0.08,0.0,0.06,352.87,352.88,0.0,0.0
1629643699.30015802,47128641,0.0,0.08,0.0,0.06,352.87,352.88,0.0,0.0
1629643699.40011811,47228601,0.0,0.08,0.0,0.06,352.87,352.88,0.0,0.0
1629643699.50007820,47328561,0.0,0.08,0.0,0.06,352.87,352.88,0.0,0.0
1629643699.60003805,47428521,0.0,0.08,0.0,0.06,352.87,352.88,0.0,0.0
1629643699.69999814,47528481,0.0,0.08,0.0,0.06,352.87,352.88,0.0,0.0
1629643699.79995823,47628441,0.0,0.08,0.0,0.06,352.87,352.88,0.0,0.0
1629643699.89991808,47728401,0.0,0.08,0.0,0.06,352.87,352.88,0.0,0.0
1629643699.99987817,47828361,0.0,0.08,0.0,0.06,352.87,352.88,0.0,0.0
1629643700.09983802,47928321,0.0,0.08,0.0,0.06,352.87,352.88,0.0,0.0
1629643700.19979811,48028281,0.0,0.08,0.0,0.06,352.87,352.88,0.0,0.0
1629643700.29975820,48128241,0.0,0.08,0.0,0.06,352.88,352.89,0.0,0.0
1629643700.39971805,48228201,0.0,0.08,0.0,0.06,352.88,352.89,0.0,0.0
1629643700.49967813,48328161,0.0,0.08,0.0,0.06,352.88,352.89,0.0,0.0
1629643700.60047102,48428954,0.0,0.08,0.0,0.06,352.88,352.89,0.0,0.0
1629643700.70043111,48528914,0.0,0.08,0.0,0.06,352.88,352.89,0.0,0.0
1629643700.80039120,48628874,0.0,0.08,0.0,0.06,352.88,352.89,0.0,0.0
1629643700.90035105,48728834,0.0,0.08,0.0,0.07,352.88,352.89,0.0,0.0
1629643701.00031114,48828794,0.0,0.08,0.0,0.07,352.88,352.89,0.0,0.0
1629643701.10027122,48928754,0.0,0.08,0.0,0.07,352.88,352.89,0.0,0.0
1629643701.20023108,49028714,0.0,0.08,0.0,0.07,352.88,352.89,0.0,0.0
1629643701.30019116,49128674,0.0,0.08,0.0,0.07,352.88,352.89,0.0,0.0
1629643701.40015125,49228634,0.0,0.08,0.0,0.07,352.88,352.89,0.0,0.0
1629643701.50011110,49328594,0.0,0.08,0.0,0.07,352.88,352.89,0.0,0.0
1629643701.60007119,49428554,0.0,0.08,0.0,0.07,352.88,352.89,0.0,0.0
1629643701.70003104,49528514,0.0,0.08,0.0,0.07,352.88,352.89,0.0,0.0
1629643701.79999113,49628474,0.0,0.08,0.0,0.07,352.88,352.89,0.0,0.0
1629643701.89995122,49728434,0.0,0.08,0.0,0.07,352.88,352.89,0.0,0.0
1629643701.99991107,49828394,0.0,0.08,0.0,0.07,352.88,352.89,0.0,0.0
1629643702.09987116,49928354,0.0,0.08,0.0,0.07,352.88,352.89,0.0,0.0
1629643702.19983125,50028314,0.0,0.08,0.0,0.07,352.88,352.89,0.0,0.0
1629643702.29979110,50128274,0.0,0.08,0.0,0.07,352.88,352.89,0.0,0.0
1629643702.39975119,50228234,0.0,0.08,0.0,0.07,352.88,352.89,0.0,0.0
1629643702.49971104,50328194,0.0,0.08,0.0,0.07,352.89,352.9,0.0,0.0
1629643702.59967113,50428154,0.0,0.08,0.0,0.07,352.89,352.9,0.0,0.0
1629643702.70046425,50528947,0.0,0.08,0.0,0.07,352.89,352.9,0.0,0.0
1629643702.80042410,50628907,0.0,0.08,0.0,0.07,352.89,352.9,0.0,0.0
1629643702.90038419,50728867,-0.03,0.08,-0.03,0.07,352.89,352.9,0.0,0.0
1629643703.00034404,50828827,-0.07,0.08,-0.08,0.07,352.89,352.9,0.0,0.0
1629643703.10030413,50928787,-0.07,0.08,-0.09,0.07,352.89,352.9,0.0,0.0
1629643703.20026422,51028747,-0.13,0.08,-0.15,0.07,352.89,352.9,0.0,0.0
1629643703.30022407,51128707,-0.19,0.08,-0.21,0.07,352.89,352.9,0.0,0.0
1629643703.40018415,51228667,-0.23,0.08,-0.26,0.07,352.89,352.9,0.0,0.0
1629643703.50014424,51328627,-0.25,0.08,-0.29,0.07,352.89,352.9,0.0,0.0
1629643703.60010409,51428587,-0.29,0.08,-0.31,0.07,352.89,352.9,0.0,0.0
1629643703.70006418,51528547,-0.32,0.08,-0.33,0.07,352.89,352.9,0.0,0.0
1629643703.80002403,51628507,-0.32,0.08,-0.36,0.07,352.89,352.9,0.0,0.0
1629643703.89998412,51728467,-0.34,0.08,-0.39,0.07,352.89,352.9,0.0,0.0
1629643703.99994421,51828427,-0.36,0.08,-0.39,0.07,352.89,352.9,0.0,0.0
1629643704.09990406,51928387,-0.37,0.08,-0.4,0.07,352.89,352.9,0.0,0.0
1629643704.19986415,52028347,-0.4,0.08,-0.42,0.07,352.89,352.9,0.0,0.0
1629643704.29982424,52128307,-0.43,0.09,-0.46,0.07,352.89,352.9,0.0,0.0
1629643704.39978409,52228267,-0.46,0.09,-0.5,0.07,352.89,352.9,0.0,0.0
1629643704.49974418,52328227,-0.45,0.03,-0.51,0.02,352.89,352.9,0.0,0.0
1629643704.59970403,52428187,-0.45,-0.23,-0.52,-0.26,352.89,352.9,0.0,0.0
1629643704.70049715,52528980,-0.42,-0.52,-0.52,-0.6,352.89,352.9,0.0,0.0
1629643704.80045724,52628940,-0.34,-0.7,-0.44,-0.81,352.89,352.9,0.0,0.0
1629643704.90041709,52728900,-0.19,-0.71,-0.26,-0.82,352.89,352.9,0.0,0.0
1629643705.00037718,52828860,0.01,-0.56,-0.03,-0.65,352.89,352.9,0.0,0.0
1629643705.10033703,52928820,0.21,-0.31,0.23,-0.35,352.89,352.89,0.0,0.0
1629643705.20029712,53028780,0.35,-0.07,0.43,-0.04,352.89,352.89,0.0,0.0
1629643705.30025721,53128740,0.44,0.11,0.5,0.18,352.89,352.89,0.0,0.0
1629643705.40021706,53228700,0.45,0.22,0.49,0.28,352.89,352.89,0.0,0.0
1629643705.50017715,53328660,0.41,0.23,0.43,0.27,352.89,352.89,0.0,0.0
1629643705.60013723,53428620,0.38,0.2,0.38,0.2,352.89,352.89,0.0,0.0
1629643705.70009708,53528580,0.37,0.16,0.37,0.14,352.89,352.89,0.0,0.0
1629643705.80005717,53628540,0.36,0.13,0.41,0.14,352.89,352.89,0.0,0.0
1629643705.90001702,53728500,0.4,0.16,0.44,0.18,352.89,352.88,0.0,0.0
1629643705.99997711,53828460,0.45,0.22,0.49,0.25,352.89,352.88,0.0,0.0
1629643706.09993720,53928420,0.47,0.29,0.49,0.32,352.89,352.89,0.0,0.0
1629643706.19989705,54028380,0.47,0.33,0.46,0.34,352.77,352.77,0.0,0.0
1629643706.29985714,54128340,0.4,0.32,0.41,0.32,352.77,352.78,0.0,0.0
1629643706.39981723,54228300,0.33,0.26,0.35,0.27,352.77,352.78,0.0,0.0
1629643706.49977708,54328260,0.26,0.19,0.3,0.21,352.77,352.78,0.0,0.0
1629643706.59973717,54428220,0.24,0.14,0.3,0.18,352.77,352.78,0.0,0.0
1629643706.69969702,54528180,0.26,0.13,0.32,0.19,352.77,352.78,0.0,0.0
1629643706.80049014,54628973,0.26,0.15,0.31,0.21,352.77,352.78,0.0,0.0
1629643706.90045023,54728933,0.26,0.16,0.26,0.19,352.77,352.79,0.0,0.0
1629643707.00041008,54828893,0.28,0.18,0.22,0.16,352.77,352.79,0.0,0.0
1629643707.10037017,54928853,0.27,0.2,0.2,0.13,352.77,352.79,0.0,0.0
1629643707.20033002,55028813,0.24,0.2,0.17,0.11,352.77,352.79,0.0,0.0
1629643707.30029011,55128773,0.17,0.17,0.16,0.1,352.77,352.79,0.0,0.0
1629643707.40025020,55228733,0.12,0.11,0.12,0.08,352.77,352.79,0.0,0.0
1629643707.50021005,55328693,0.09,0.07,0.13,0.08,352.77,352.78,0.0,0.0
1629643707.60017014,55428653,0.09,0.04,0.17,0.11,352.77,352.78,0.0,0.0
1629643707.70013022,55528613,0.11,0.05,0.16,0.13,352.77,352.78,0.0,0.0
1629643707.80009007,55628573,0.11,0.06,0.14,0.11,352.77,352.77,0.0,0.0
1629643707.90005016,55728533,0.09,0.06,0.11,0.08,352.77,352.77,0.0,0.0
1629643708.00001025,55828493,0.05,0.04,0.09,0.06,352.77,352.77,0.0,0.0
1629643708.09997010,55928453,0.06,0.02,0.09,0.06,352.77,352.77,0.0,0.0
1629643708.19993019,56028413,0.07,0.03,0.08,0.05,352.77,352.77,0.0,0.0
1629643708.29989004,56128373,0.07,0.04,0.08,0.05,352.77,352.77,0.0,0.0
1629643708.39985013,56228333,0.07,0.04,0.05,0.04,352.77,352.78,0.0,0.0
1629643708.49981022,56328293,0.06,0.04,0.03,0.03,352.77,352.78,0.0,0.0
1629643708.59977007,56428253,0.04,0.04,0.05,0.02,352.77,352.78,0.0,0.0
1629643708.69973016,56528213,0.05,0.04,0.05,0.02,352.77,352.78,0.0,0.0
1629643708.79969025,56628173,0.07,0.04,0.05,0.02,352.77,352.78,0.0,0.0
1629643708.90048313,56728966,0.08,0.06,0.05,0.02,352.77,352.78,0.0,0.0
1629643709.00044322,56828926,0.09,0.07,0.06,0.02,352.77,352.78,0.0,0.0
1629643709.10040307,56928886,0.08,0.07,0.08,0.04,352.77,352.79,0.0,0.0
1629643709.20036316,57028846,0.08,0.06,0.1,0.07,352.77,352.79,0.0,0.0
1629643709.30032325,57128806,0.07,0.06,0.12,0.1,352.77,352.79,0.0,0.0
1629643709.40028310,57228766,0.08,0.05,0.11,0.12,352.77,352.79,0.0,0.0
1629643709.50024319,57328726,0.09,0.07,0.12,0.13,352.77,352.79,0.0,0.0
1629643709.60020304,57428686,0.1,0.09,0.13,0.14,352.77,352.79,0.0,0.0
1629643709.70016313,57528646,0.08,0.08,0.14,0.14,352.77,352.79,0.0,0.0
1629643709.80012321,57628606,0.07,0.06,0.13,0.13,352.77,352.78,0.0,0.0
1629643709.90008307,57728566,0.11,0.08,0.15,0.13,352.77,352.78,0.0,0.0
1629643710.00004315,57828526,0.12,0.1,0.17,0.15,352.77,352.78,0.0,0.0
1629643710.10000324,57928486,0.13,0.12,0.18,0.17,352.77,352.78,0.0,0.0
1629643710.19996309,58028446,0.12,0.12,0.17,0.16,352.77,352.78,0.0,0.0
1629643710.29992318,58128406,0.09,0.1,0.14,0.15,352.77,352.78,0.0,0.0
1629643710.39988303,58228366,0.07,0.08,0.12,0.13,352.77,352.78,0.0,0.0
1629643710.49984312,58328326,0.05,0.06,0.12,0.12,352.77,352.78,0.0,0.0
1629643710.59980321,58428286,0.06,0.05,0.12,0.11,352.77,352.78,0.0,0.0
1629643710.69976306,58528246,0.06,0.05,0.12,0.12,352.77,352.78,0.0,0.0
1629643710.79972315,58628206,0.07,0.05,0.12,0.11,352.77,352.78,0.0,0.0
1629643710.89968324,58728166,0.09,0.07,0.14,0.13,352.77,352.78,0.0,0.0
1629643711.00047612,58828959,0.08,0.08,0.14,0.14,352.77,352.78,0.0,0.0
1629643711.10043621,58928919,0.1,0.09,0.11,0.13,352.77,352.77,0.0,0.0
1629643711.20039606,59028879,0.12,0.11,0.07,0.09,352.77,352.78,0.0,0.0
1629643711.30035615,59128839,0.15,0.14,0.05,0.06,352.77,352.78,0.0,0.0
1629643711.40031624,59228799,0.15,0.15,0.04,0.02,352.77,352.78,0.0,0.0
1629643711.50027609,59328759,0.17,0.17,0.06,0.02,352.77,352.78,0.0,0.0
1629643711.60023618,59428719,0.17,0.18,0.08,0.03,352.77,352.78,0.0,0.0
1629643711.70019603,59528679,0.16,0.17,0.07,0.04,352.77,352.78,0.0,0.0
1629643711.80015612,59628639,0.15,0.15,0.06,0.04,352.77,352.78,0.0,0.0
1629643711.90011621,59728599,0.12,0.14,0.04,0.04,352.77,352.78,0.0,0.0
1629643712.00007606,59828559,0.09,0.1,0.03,0.03,352.77,352.79,0.0,0.0
1629643712.10003614,59928519,0.1,0.07,0.02,0.02,352.77,352.79,0.0,0.0
1629643712.19999623,60028479,0.13,0.09,0.01,0.0,352.77,352.79,0.0,0.0
1629643712.29995608,60128439,0.12,0.11,0.0,0.0,352.77,352.78,0.0,0.0
1629643712.39991617,60228399,0.12,0.12,0.01,0.0,352.77,352.78,0.0,0.0
1629643712.49987602,60328359,0.11,0.11,0.05,0.03,352.77,352.78,0.0,0.0
1629643712.59983611,60428319,0.1,0.1,0.07,0.07,352.77,352.78,0.0,0.0
1629643712.69979620,60528279,0.09,0.09,0.08,0.09,352.77,352.78,0.0,0.0
1629643712.79975605,60628239,0.08,0.08,0.05,0.09,352.77,352.78,0.0,0.0
1629643712.89971614,60728199,0.1,0.08,0.02,0.06,352.77,352.78,0.0,0.0
1629643712.99967623,60828159,0.14,0.09,0.03,0.03,352.77,352.78,0.0,0.0
1629643713.10046911,60928952,0.15,0.12,0.01,0.01,352.77,352.78,0.0,0.0
1629643713.20042920,61028912,0.12,0.13,0.01,0.0,352.77,352.78,0.0,0.0
1629643713.30038905,61128872,0.1,0.11,0.02,0.0,352.77,352.78,0.0,0.0
1629643713.40034914,61228832,0.11,0.1,0.05,0.02,352.77,352.78,0.0,0.0
1629643713.50030923,61328792,0.13,0.11,0.06,0.04,352.77,352.78,0.0,0.0
1629643713.60026908,61428752,0.13,0.12,0.07,0.06,352.77,352.78,0.0,0.0
1629643713.70022917,61528712,0.12,0.12,0.07,0.07,352.77,352.78,0.0,0.0
1629643713.80018902,61628672,0.12,0.11,0.06,0.08,352.77,352.78,0.0,0.0
1629643713.90014911,61728632,0.13,0.13,0.07,0.07,352.77,352.78,0.0,0.0
1629643714.00010920,61828592,0.13,0.13,0.09,0.08,352.77,352.79,0.0,0.0
1629643714.10006905,61928552,0.14,0.14,0.08,0.08,352.77,352.79,0.0,0.0
1629643714.20002913,62028512,0.14,0.14,0.04,0.05,352.77,352.78,0.0,0.0
1629643714.29998922,62128472,0.1,0.1,0.04,0.03,352.77,352.78,0.0,0.0
1629643714.39994907,62228432,0.1,0.07,0.07,0.03,352.77,352.78,0.0,0.0
1629643714.49990916,62328392,0.14,0.09,0.11,0.06,352.77,352.78,0.0,0.0
1629643714.59986925,62428352,0.16,0.13,0.14,0.1,352.77,352.78,0.0,0.0
1629643714.69982910,62528312,0.16,0.15,0.16,0.14,352.77,352.78,0.0,0.0
1629643714.79978919,62628272,0.13,0.15,0.14,0.15,352.77,352.78,0.0,0.0
1629643714.89974904,62728232,0.08,0.11,0.11,0.13,352.77,352.78,0.0,0.0
1629643714.99970913,62828192,0.06,0.07,0.08,0.09,352.77,352.78,0.0,0.0
1629643715.10050225,62928985,0.06,0.05,0.08,0.07,352.77,352.78,0.0,0.0
1629643715.20046210,63028945,0.06,0.03,0.08,0.05,352.77,352.78,0.0,0.0
1629643715.30042219,63128905,0.05,0.03,0.11,0.07,352.77,352.78,0.0,0.0
1629643715.40038204,63228865,0.05,0.03,0.13,0.1,352.77,352.78,0.0,0.0
1629643715.50034213,63328825,0.03,0.03,0.18,0.14,352.77,352.78,0.0,0.0
1629643715.60030222,63428785,0.04,0.04,0.22,0.2,352.77,352.78,0.0,0.0
1629643715.70026207,63528745,0.06,0.05,0.22,0.23,352.77,352.78,0.0,0.0
1629643715.80022216,63628705,0.07,0.06,0.21,0.23,352.77,352.78,0.0,0.0
1629643715.90018225,63728665,0.09,0.07,0.2,0.21,352.77,352.78,0.0,0.0
1629643716.00014210,63828625,0.1,0.08,0.18,0.2,352.77,352.78,0.0,0.0
1629643716.10010219,63928585,0.11,0.1,0.16,0.18,352.77,352.78,0.0,0.0
1629643716.20006204,64028545,0.11,0.1,0.14,0.15,352.77,352.78,0.0,0.0
1629643716.30002213,64128505,0.11,0.11,0.15,0.13,352.77,352.78,0.0,0.0
1629643716.39998221,64228465,0.09,0.1,0.15,0.14,352.77,352.78,0.0,0.0
1629643716.49994206,64328425,0.08,0.09,0.11,0.13,352.77,352.78,0.0,0.0
1629643716.59990215,64428385,0.08,0.08,0.09,0.12,352.77,352.78,0.0,0.0
1629643716.69986224,64528345,0.08,0.07,0.08,0.1,352.77,352.78,0.0,0.0
1629643716.79982209,64628305,0.11,0.08,0.07,0.08,352.77,352.78,0.0,0.0
1629643716.89978218,64728265,0.13,0.11,0.06,0.06,352.77,352.78,0.0,0.0
1629643716.99974203,64828225,0.12,0.12,0.05,0.04,352.77,352.78,0.0,0.0
1629643717.09970212,64928185,0.14,0.14,0.04,0.02,352.77,352.78,0.0,0.0
1629643717.20049524,65028978,0.14,0.15,0.05,0.02,352.77,352.78,0.0,0.0
1629643717.30045509,65128938,0.14,0.16,0.07,0.03,352.77,352.78,0.0,0.0
1629643717.40041518,65228898,0.16,0.16,0.08,0.05,352.77,352.78,0.0,0.0
1629643717.50037503,65328858,0.14,0.16,0.1,0.07,352.77,352.78,0.0,0.0
1629643717.60033512,65428818,0.08,0.11,0.14,0.11,352.77,352.78,0.0,0.0
1629643717.70029521,65528778,0.05,0.06,0.17,0.16,352.77,352.78,0.0,0.0
1629643717.80025506,65628738,0.05,0.03,0.17,0.19,352.77,352.78,0.0,0.0
1629643717.90021515,65728698,0.07,0.03,0.13,0.18,352.77,352.78,0.0,0.0
1629643718.00017524,65828658,0.08,0.04,0.1,0.15,352.77,352.78,0.0,0.0
1629643718.10013509,65928618,0.09,0.06,0.07,0.11,352.77,352.77,0.0,0.0
1629643718.20009518,66028578,0.1,0.08,0.04,0.06,352.77,352.77,0.0,0.0
1629643718.30005503,66128538,0.09,0.09,0.01,0.01,352.77,352.77,0.0,0.0
1629643718.40001512,66228498,0.06,0.08,0.02,0.0,352.77,352.78,0.0,0.0
1629643718.49997520,66328458,0.05,0.05,0.05,0.0,352.77,352.78,0.0,0.0
1629643718.59993505,66428418,0.07,0.04,0.08,0.02,352.77,352.78,0.0,0.0
1629643718.69989514,66528378,0.07,0.04,0.11,0.06,352.77,352.78,0.0,0.0
1629643718.79985523,66628338,0.08,0.06,0.13,0.1,352.77,352.78,0.0,0.0
1629643718.89981508,66728298,0.08,0.07,0.13,0.13,352.77,352.78,0.0,0.0
1629643718.99977517,66828258,0.08,0.08,0.12,0.13,352.77,352.78,0.0,0.0
1629643719.09973502,66928218,0.09,0.09,0.09,0.11,352.77,352.78,0.0,0.0
1629643719.19969511,67028178,0.08,0.08,0.05,0.07,352.77,352.78,0.0,0.0
1629643719.30048823,67128971,0.06,0.06,0.05,0.05,352.77,352.78,0.0,0.0
1629643719.40044808,67228931,0.06,0.05,0.08,0.06,352.77,352.78,0.0,0.0
1629643719.50040817,67328891,0.12,0.09,0.11,0.1,352.77,352.78,0.0,0.0
1629643719.60036802,67428851,0.16,0.13,0.13,0.13,352.77,352.77,0.0,0.0
1629643719.70032811,67528811,0.19,0.17,0.11,0.14,352.77,352.77,0.0,0.0
1629643719.80028820,67628771,0.17,0.18,0.11,0.12,352.77,352.78,0.0,0.0
1629643719.90024805,67728731,0.16,0.17,0.11,0.11,352.77,352.78,0.0,0.0
1629643720.00020814,67828691,0.16,0.16,0.1,0.1,352.77,352.78,0.0,0.0
1629643720.10016823,67928651,0.14,0.16,0.09,0.07,352.77,352.78,0.0,0.0
1629643720.20012808,68028611,0.12,0.14,0.12,0.07,352.77,352.78,0.0,0.0
1629643720.30008817,68128571,0.09,0.12,0.13,0.1,352.77,352.79,0.0,0.0
1629643720.40004802,68228531,0.1,0.1,0.15,0.13,352.77,352.79,0.0,0.0
1629643720.50000811,68328491,0.13,0.1,0.17,0.15,352.77,352.79,0.0,0.0
1629643720.59996819,68428451,0.17,0.12,0.16,0.17,352.77,352.79,0.0,0.0
1629643720.69992805,68528411,0.19,0.16,0.16,0.17,352.77,352.79,0.0,0.0
1629643720.79988813,68628371,0.19,0.19,0.14,0.15,352.77,352.79,0.0,0.0
1629643720.89984822,68728331,0.18,0.19,0.11,0.12,352.77,352.78,0.0,0.0
1629643720.99980807,68828291,0.14,0.16,0.07,0.08,352.77,352.78,0.0,0.0
1629643721.09976816,68928251,0.14,0.14,0.08,0.06,352.77,352.78,0.0,0.0
1629643721.19972825,69028211,0.14,0.13,0.11,0.07,352.77,352.78,0.0,0.0
1629643721.29968810,69128171,0.15,0.14,0.12,0.1,352.77,352.77,0.0,0.0
1629643721.40048122,69228964,0.16,0.15,0.13,0.12,352.77,352.77,0.0,0.0
1629643721.50044107,69328924,0.16,0.16,0.16,0.14,352.77,352.77,0.0,0.0
1629643721.60040116,69428884,0.11,0.13,0.17,0.16,352.77,352.77,0.0,0.0
1629643721.70036125,69528844,0.09,0.1,0.15,0.16,352.77,352.77,0.0,0.0
1629643721.80032110,69628804,0.12,0.1,0.14,0.14,352.77,352.77,0.0,0.0
1629643721.90028119,69728764,0.14,0.12,0.13,0.13,352.77,352.78,0.0,0.0
1629643722.00024104,69828724,0.15,0.14,0.12,0.12,352.77,352.78,0.0,0.0
1629643722.10020113,69928684,0.13,0.15,0.15,0.12,352.77,352.78,0.0,0.0
1629643722.20016122,70028644,0.1,0.13,0.15,0.14,352.77,352.78,0.0,0.0
1629643722.30012107,70128604,0.08,0.1,0.1,0.12,352.77,352.78,0.0,0.0
1629643722.40008116,70228564,0.1,0.09,0.06,0.08,352.77,352.78,0.0,0.0
1629643722.50004125,70328524,0.15,0.12,0.04,0.04,352.77,352.78,0.0,0.0
1629643722.60000110,70428484,0.17,0.16,0.02,0.0,352.77,352.78,0.0,0.0
1629643722.69996119,70528444,0.15,0.17,0.01,0.0,352.77,352.78,0.0,0.0
1629643722.79992104,70628404,0.14,0.15,0.03,0.0,352.77,352.78,0.0,0.0
1629643722.89988112,70728364,0.11,0.12,0.02,0.01,352.77,352.78,0.0,0.0
1629643722.99984121,70828324,0.1,0.1,0.0,0.0,352.77,352.78,0.0,0.0
1629643723.09980106,70928284,0.09,0.09,0.02,0.0,352.77,352.78,0.0,0.0
1629643723.19976115,71028244,0.09,0.07,0.03,0.02,352.77,352.78,0.0,0.0
1629643723.29972124,71128204,0.06,0.06,0.06,0.04,352.77,352.78,0.0,0.0
1629643723.39968109,71228164,0.04,0.04,0.06,0.05,352.77,352.77,0.0,0.0
1629643723.50047421,71328957,0.04,0.03,0.05,0.05,352.77,352.77,0.0,0.0
1629643723.60043406,71428917,0.06,0.03,0.04,0.04,352.77,352.77,0.0,0.0
1629643723.70039415,71528877,0.09,0.05,0.04,0.03,352.77,352.77,0.0,0.0
1629643723.80035424,71628837,0.11,0.07,0.05,0.03,352.77,352.77,0.0,0.0
1629643723.90031409,71728797,0.13,0.1,0.07,0.05,352.77,352.77,0.0,0.0
1629643724.00027418,71828757,0.16,0.14,0.1,0.08,352.77,352.77,0.0,0.0
1629643724.10023403,71928717,0.14,0.15,0.11,0.11,352.77,352.77,0.0,0.0
1629643724.20019412,72028677,0.08,0.11,0.07,0.1,352.77,352.77,0.0,0.0
1629643724.30015421,72128637,0.05,0.07,0.05,0.06,352.77,352.78,0.0,0.0
1629643724.40011406,72228597,0.04,0.03,0.06,0.05,352.77,352.78,0.0,0.0
1629643724.50007415,72328557,0.04,0.01,0.08,0.06,352.77,352.78,0.0,0.0
1629643724.60003424,72428517,0.07,0.03,0.1,0.08,352.77,352.78,0.0,0.0
1629643724.69999409,72528477,0.09,0.07,0.11,0.1,352.77,352.78,0.0,0.0
1629643724.79995418,72628437,0.08,0.09,0.11,0.12,352.77,352.78,0.0,0.0
1629643724.89991403,72728397,0.02,0.06,0.13,0.13,352.77,352.78,0.0,0.0
1629643724.99987411,72828357,-0.02,0.0,0.16,0.15,352.77,352.78,0.0,0.0
1629643725.09983420,72928317,-0.04,-0.05,0.13,0.15,352.77,352.78,0.0,0.0
1629643725.19979405,73028277,0.01,-0.05,0.11,0.12,352.77,352.78,0.0,0.0
1629643725.29975414,73128237,0.05,-0.01,0.1,0.1,352.77,352.78,0.0,0.0
1629643725.39971423,73228197,0.08,0.03,0.09,0.07,352.77,352.79,0.0,0.0
1629643725.49967408,73328157,0.1,0.08,0.08,0.06,352.77,352.79,0.0,0.0
1629643725.60046721,73428950,0.12,0.11,0.12,0.08,352.77,352.79,0.0,0.0
1629643725.70042706,73528910,0.14,0.15,0.15,0.12,352.77,352.79,0.0,0.0
1629643725.80038714,73628870,0.13,0.16,0.14,0.15,352.77,352.78,0.0,0.0
1629643725.90034723,73728830,0.16,0.17,0.11,0.14,352.77,352.78,0.0,0.0
1629643726.00030708,73828790,0.17,0.19,0.08,0.1,352.77,352.78,0.0,0.0
1629643726.10026717,73928750,0.16,0.18,0.08,0.08,352.77,352.78,0.0,0.0
1629643726.20022702,74028710,0.14,0.15,0.08,0.07,352.77,352.77,0.0,0.0
1629643726.30018711,74128670,0.15,0.13,0.11,0.08,352.77,352.77,0.0,0.0
1629643726.40014720,74228630,0.18,0.14,0.15,0.11,352.77,352.77,0.0,0.0
1629643726.50010705,74328590,0.19,0.16,0.15,0.14,352.77,352.77,0.0,0.0
1629643726.60006714,74428550,0.18,0.17,0.13,0.14,352.77,352.77,0.0,0.0
1629643726.70002723,74528510,0.18,0.18,0.1,0.13,352.77,352.77,0.0,0.0
1629643726.79998708,74628470,0.18,0.18,0.05,0.08,352.77,352.78,0.0,0.0
1629643726.89994717,74728430,0.18,0.18,0.03,0.04,352.77,352.78,0.0,0.0
1629643726.99990702,74828390,0.19,0.19,0.02,0.02,352.77,352.78,0.0,0.0
1629643727.09986711,74928350,0.15,0.17,0.01,0.0,352.77,352.78,0.0,0.0
1629643727.19982719,75028310,0.12,0.13,0.04,0.0,352.77,352.78,0.0,0.0
1629643727.29978704,75128270,0.12,0.12,0.06,0.03,352.77,352.78,0.0,0.0
1629643727.39974713,75228230,0.16,0.14,0.05,0.04,352.77,352.78,0.0,0.0
1629643727.49970722,75328190,0.18,0.17,0.06,0.05,352.77,352.77,0.0,0.0
1629643727.60050011,75428983,0.22,0.2,0.07,0.06,352.77,352.77,0.0,0.0
1629643727.70046020,75528943,0.25,0.24,0.07,0.07,352.77,352.77,0.0,0.0
1629643727.80042005,75628903,0.24,0.26,0.02,0.04,352.77,352.77,0.0,0.0
1629643727.90038013,75728863,0.19,0.23,0.03,0.02,352.77,352.77,0.0,0.0
1629643728.00034022,75828823,0.16,0.18,0.04,0.02,352.77,352.77,0.0,0.0
1629643728.10030007,75928783,0.17,0.16,0.05,0.02,352.77,352.77,0.0,0.0
1629643728.20026016,76028743,0.19,0.16,0.06,0.03,352.77,352.77,0.0,0.0
1629643728.30022025,76128703,0.17,0.17,0.08,0.05,352.77,352.77,0.0,0.0
1629643728.40018010,76228663,0.17,0.16,0.1,0.08,352.77,352.77,0.0,0.0
1629643728.50014019,76328623,0.18,0.16,0.08,0.08,352.77,352.77,0.0,0.0
1629643728.60010004,76428583,0.21,0.19,0.08,0.07,352.77,352.77,0.0,0.0
1629643728.70006013,76528543,0.21,0.21,0.11,0.09,352.77,352.78,0.0,0.0
1629643728.80002022,76628503,0.21,0.22,0.13,0.12,352.77,352.78,0.0,0.0
1629643728.89998007,76728463,0.19,0.2,0.13,0.13,352.77,352.78,0.0,0.0
1629643728.99994016,76828423,0.15,0.17,0.13,0.13,352.77,352.78,0.0,0.0
1629643729.09990025,76928383,0.12,0.12,0.15,0.14,352.77,352.78,0.0,0.0
1629643729.19986010,77028343,0.1,0.09,0.13,0.14,352.77,352.79,0.0,0.0
1629643729.29982018,77128303,0.12,0.09,0.12,0.13,352.77,352.78,0.0,0.0
1629643729.39978004,77228263,0.17,0.13,0.14,0.14,352.77,352.78,0.0,0.0
1629643729.49974012,77328223,0.21,0.18,0.14,0.14,352.77,352.78,0.0,0.0
1629643729.59970021,77428183,0.2,0.2,0.11,0.12,352.77,352.77,0.0,0.0
1629643729.70049310,77528976,0.15,0.18,0.12,0.11,352.77,352.77,0.0,0.0
1629643729.80045319,77628936,0.1,0.13,0.11,0.1,352.77,352.77,0.0,0.0
1629643729.90041304,77728896,0.09,0.08,0.09,0.08,352.77,352.77,0.0,0.0
1629643730.00037313,77828856,0.11,0.07,0.09,0.07,352.77,352.78,0.0,0.0
1629643730.10033321,77928816,0.11,0.08,0.13,0.1,352.77,352.78,0.0,0.0
1629643730.20029306,78028776,0.13,0.1,0.15,0.13,352.77,352.78,0.0,0.0
1629643730.30025315,78128736,0.13,0.12,0.12,0.14,352.77,352.78,0.0,0.0
1629643730.40021324,78228696,0.12,0.12,0.05,0.1,352.77,352.78,0.0,0.0
1629643730.50017309,78328656,0.09,0.11,0.0,0.04,352.77,352.78,0.0,0.0
1629643730.60013318,78428616,0.08,0.09,0.01,0.0,352.77,352.78,0.0,0.0
1629643730.70009303,78528576,0.09,0.08,0.07,0.03,352.77,352.78,0.0,0.0
1629643730.80005312,78628536,0.09,0.07,0.12,0.08,352.77,352.78,0.0,0.0
1629643730.90001321,78728496,0.08,0.07,0.15,0.13,352.77,352.78,0.0,0.0
1629643730.99997306,78828456,0.06,0.05,0.15,0.16,352.77,352.78,0.0,0.0
1629643731.09993315,78928416,0.07,0.06,0.14,0.15,352.77,352.78,0.0,0.0
1629643731.19989324,79028376,0.07,0.06,0.13,0.13,352.77,352.77,0.0,0.0
1629643731.29985309,79128336,0.09,0.07,0.11,0.11,352.77,352.77,0.0,0.0
1629643731.39981318,79228296,0.11,0.09,0.09,0.09,352.77,352.77,0.0,0.0
1629643731.49977303,79328256,0.08,0.09,0.09,0.07,352.77,352.77,0.0,0.0
1629643731.59973311,79428216,0.06,0.06,0.13,0.09,352.77,352.77,0.0,0.0
1629643731.69969320,79528176,0.05,0.04,0.17,0.14,352.77,352.77,0.0,0.0
1629643731.80048609,79628969,0.08,0.05,0.19,0.17,352.77,352.77,0.0,0.0
1629643731.90044618,79728929,0.11,0.09,0.18,0.18,352.77,352.77,0.0,0.0
1629643732.00040603,79828889,0.11,0.12,0.17,0.19,352.77,352.77,0.0,0.0
1629643732.10036612,79928849,0.07,0.11,0.13,0.18,352.77,352.77,0.0,0.0
1629643732.20032620,80028809,0.02,0.05,0.1,0.13,352.77,352.77,0.0,0.0
1629643732.30028605,80128769,0.01,0.01,0.08,0.09,352.77,352.77,0.0,0.0
1629643732.40024614,80228729,0.03,0.0,0.09,0.06,352.77,352.77,0.0,0.0
1629643732.50020623,80328689,0.08,0.02,0.12,0.08,352.77,352.77,0.0,0.0
1629643732.60016608,80428649,0.11,0.06,0.14,0.1,352.77,352.77,0.0,0.0
1629643732.70012617,80528609,0.15,0.12,0.13,0.11,352.77,352.77,0.0,0.0
1629643732.80008602,80628569,0.17,0.16,0.13,0.11,352.77,352.77,0.0,0.0
1629643732.90004611,80728529,0.2,0.19,0.14,0.12,352.77,352.77,0.0,0.0
1629643733.00000620,80828489,0.18,0.2,0.15,0.13,352.77,352.78,0.0,0.0
1629643733.09996605,80928449,0.15,0.18,0.15,0.14,352.77,352.78,0.0,0.0
1629643733.19992614,81028409,0.14,0.15,0.15,0.15,352.77,352.78,0.0,0.0
1629643733.29988623,81128369,0.14,0.14,0.14,0.15,352.77,352.78,0.0,0.0
1629643733.39984608,81228329,0.14,0.13,0.11,0.13,352.77,352.78,0.0,0.0
1629643733.49980617,81328289,0.13,0.14,0.08,0.1,352.77,352.78,0.0,0.0
1629643733.59976602,81428249,0.14,0.13,0.07,0.07,352.77,352.78,0.0,0.0
1629643733.69972610,81528209,0.15,0.13,0.09,0.06,352.77,352.78,0.0,0.0
1629643733.79968619,81628169,0.17,0.14,0.1,0.07,352.77,352.78,0.0,0.0
1629643733.90047908,81728962,0.18,0.16,0.13,0.1,352.77,352.78,0.0,0.0
1629643734.00043917,81828922,0.18,0.17,0.17,0.15,352.77,352.78,0.0,0.0
1629643734.10039902,81928882,0.17,0.16,0.2,0.19,352.77,352.78,0.0,0.0
1629643734.20035911,82028842,0.18,0.15,0.21,0.23,352.77,352.78,0.0,0.0
1629643734.30031919,82128802,0.15,0.15,0.18,0.23,352.77,352.78,0.0,0.0
1629643734.40027905,82228762,0.1,0.11,0.12,0.18,352.77,352.78,0.0,0.0
1629643734.50023913,82328722,0.09,0.08,0.08,0.12,352.77,352.77,0.0,0.0
1629643734.60019922,82428682,0.09,0.07,0.08,0.07,352.77,352.77,0.0,0.0
1629643734.70015907,82528642,0.1,0.06,0.12,0.08,352.77,352.77,0.0,0.0
1629643734.80011916,82628602,0.13,0.08,0.14,0.1,352.77,352.77,0.0,0.0
1629643734.90007925,82728562,0.16,0.12,0.16,0.12,352.77,352.77,0.0,0.0
1629643735.00003910,82828522,0.17,0.15,0.14,0.13,352.77,352.77,0.0,0.0
1629643735.09999919,82928482,0.18,0.17,0.11,0.12,352.77,352.77,0.0,0.0
1629643735.19995904,83028442,0.17,0.18,0.1,0.1,352.77,352.77,0.0,0.0
1629643735.29991913,83128402,0.12,0.16,0.09,0.09,352.77,352.77,0.0,0.0
1629643735.39987922,83228362,0.09,0.11,0.1,0.09,352.77,352.77,0.0,0.0
1629643735.49983907,83328322,0.08,0.08,0.11,0.1,352.77,352.77,0.0,0.0
1629643735.59979916,83428282,0.08,0.08,0.13,0.1,352.77,352.78,0.0,0.0
1629643735.69975924,83528242,0.07,0.07,0.15,0.13,352.77,352.78,0.0,0.0
1629643735.79971910,83628202,0.08,0.06,0.17,0.16,352.77,352.78,0.0,0.0
1629643735.89967918,83728162,0.09,0.07,0.19,0.2,352.77,352.78,0.0,0.0
1629643736.00047207,83828955,0.12,0.09,0.18,0.21,352.77,352.78,0.0,0.0
1629643736.10043216,83928915,0.15,0.12,0.16,0.18,352.77,352.78,0.0,0.0
1629643736.20039225,84028875,0.17,0.16,0.14,0.15,352.77,352.78,0.0,0.0
1629643736.30035210,84128835,0.2,0.19,0.13,0.12,352.77,352.78,0.0,0.0
1629643736.40031219,84228795,0.2,0.22,0.09,0.09,352.77,352.77,0.0,0.0
1629643736.50027204,84328755,0.17,0.21,0.09,0.08,352.77,352.77,0.0,0.0
1629643736.60023212,84428715,0.16,0.17,0.11,0.08,352.77,352.77,0.0,0.0
1629643736.70019221,84528675,0.13,0.14,0.1,0.09,352.77,352.77,0.0,0.0
1629643736.80015206,84628635,0.13,0.12,0.08,0.08,352.77,352.77,0.0,0.0
1629643736.90011215,84728595,0.13,0.12,0.06,0.06,352.77,352.77,0.0,0.0
1629643737.00007224,84828555,0.16,0.13,0.06,0.04,352.77,352.77,0.0,0.0
1629643737.10003209,84928515,0.16,0.14,0.09,0.04,352.77,352.77,0.0,0.0
1629643737.19999218,85028475,0.14,0.14,0.1,0.06,352.77,352.77,0.0,0.0
1629643737.29995203,85128435,0.12,0.13,0.15,0.1,352.77,352.77,0.0,0.0
1629643737.39991212,85228395,0.1,0.11,0.19,0.16,352.77,352.77,0.0,0.0
1629643737.49987221,85328355,0.11,0.09,0.22,0.21,352.77,352.77,0.0,0.0
1629643737.59983206,85428315,0.13,0.1,0.23,0.24,352.77,352.77,0.0,0.0
1629643737.69979215,85528275,0.16,0.13,0.17,0.22,352.77,352.77,0.0,0.0
1629643737.79975224,85628235,0.15,0.15,0.1,0.15,352.77,352.77,0.0,0.0
1629643737.89971209,85728195,0.12,0.13,0.06,0.08,352.77,352.77,0.0,0.0
1629643737.99967217,85828155,0.12,0.11,0.05,0.04,352.77,352.78,0.0,0.0
1629643738.10046506,85928948,0.13,0.12,0.06,0.03,352.77,352.78,0.0,0.0
1629643738.20042515,86028908,0.13,0.12,0.08,0.04,352.77,352.78,0.0,0.0
1629643738.30038524,86128868,0.13,0.13,0.11,0.07,352.77,352.78,0.0,0.0
1629643738.40034509,86228828,0.14,0.13,0.12,0.1,352.77,352.78,0.0,0.0
1629643738.50030518,86328788,0.15,0.14,0.1,0.1,352.77,352.78,0.0,0.0
1629643738.60026503,86428748,0.16,0.15,0.1,0.09,352.77,352.78,0.0,0.0
1629643738.70022511,86528708,0.17,0.16,0.06,0.07,352.77,352.78,0.0,0.0
1629643738.80018520,86628668,0.14,0.15,0.06,0.04,352.77,352.78,0.0,0.0
1629643738.90014505,86728628,0.09,0.12,0.11,0.07,352.77,352.77,0.0,0.0
1629643739.00010514,86828588,0.05,0.06,0.15,0.12,352.77,352.77,0.0,0.0
1629643739.10006523,86928548,0.04,0.01,0.14,0.16,352.77,352.77,0.0,0.0
1629643739.20002508,87028508,0.07,0.01,0.12,0.16,352.77,352.77,0.0,0.0
1629643739.29998517,87128468,0.13,0.06,0.12,0.16,352.77,352.77,0.0,0.0
1629643739.39994502,87228428,0.19,0.14,0.05,0.13,352.77,352.77,0.0,0.0
1629643739.49990511,87328388,1.72,0.91,-6.65,-2.59,352.77,352.75,0.0,0.0
1629643739.59986520,87428348,2.68,2.28,-18.49,-12.72,352.77,352.53,0.0,0.0
1629643739.69982505,87528308,2.6,3.05,-20.3,-20.94,352.77,352.31,0.0,0.01
1629643739.79978514,87628268,1.94,2.85,-16.05,-21.86,352.77,352.51,0.0,0.01
1629643739.89974523,87728228,1.14,1.95,-10.04,-17.1,352.76,352.94,0.0,0.01
1629643739.99970508,87828188,0.51,0.92,-4.69,-9.76,352.76,353.25,0.0,0.01
1629643740.10049820,87928981,0.16,0.12,-1.43,-3.06,352.76,353.35,0.0,0.02
1629643740.20045805,88028941,0.11,-0.26,-0.45,1.01,352.76,353.31,0.0,0.02
1629643740.30041814,88128901,0.27,-0.25,-1.03,2.09,352.76,353.21,0.01,0.02
1629643740.40037823,88228861,0.48,0.01,-2.11,1.06,352.76,353.09,0.01,0.02
1629643740.50033808,88328821,0.59,0.34,-2.87,-0.72,352.76,352.94,0.01,0.01
1629643740.60029817,88428781,0.57,0.54,-2.88,-2.12,352.76,352.8,0.01,0.01
1629643740.70025802,88528741,0.42,0.56,-2.15,-2.5,352.76,352.68,0.01,0.01
1629643740.80021811,88628701,0.22,0.4,-1.02,-1.88,352.76,352.59,0.01,0.01
1629643740.90017819,88728661,0.06,0.18,0.11,-0.66,352.76,352.53,0.01,0.0
1629643741.00013804,88828621,-0.04,-0.01,1.01,0.62,352.76,352.51,0.01,0.0
1629643741.10009813,88928581,-0.07,-0.15,1.57,1.64,352.76,352.51,0.0,0.0
1629643741.20005822,89028541,-0.03,-0.17,1.78,2.2,352.76,352.54,0.0,0.0
1629643741.30001807,89128501,0.02,-0.1,1.75,2.32,352.76,352.59,0.0,0.0
1629643741.39997816,89228461,0.05,-0.02,1.63,2.13,352.76,352.65,0.0,0.0
1629643741.49993825,89328421,0.05,0.04,1.54,1.86,352.76,352.71,0.0,0.0
1629643741.59989810,89428381,0.02,0.05,1.52,1.63,352.76,352.77,0.0,0.0
1629643741.69985819,89528341,0.0,0.03,1.58,1.53,352.76,352.81,0.0,0.0
1629643741.79981804,89628301,0.0,0.01,1.66,1.54,352.76,352.84,0.0,0.0
1629643741.89977813,89728261,-0.03,0.0,1.76,1.62,352.76,352.87,0.0,0.0
1629643741.99973822,89828221,-0.05,-0.04,1.81,1.73,352.76,352.87,0.0,0.0
1629643742.09969807,89928181,-0.04,-0.06,1.8,1.79,352.76,352.87,0.0,0.0
1629643742.20049119,90028974,-0.01,-0.05,1.73,1.77,352.76,352.85,0.0,0.0
1629643742.30045104,90128934,0.01,-0.02,1.61,1.68,352.76,352.83,0.0,0.0
1629643742.40041113,90228894,0.04,0.0,1.49,1.55,352.76,352.81,0.0,0.0
1629643742.50037122,90328854,0.07,0.05,1.38,1.4,352.76,352.78,0.0,0.0
1629643742.60033107,90428814,0.06,0.07,1.28,1.27,352.76,352.76,0.0,0.0
1629643742.70029116,90528774,0.05,0.06,1.2,1.17,352.76,352.74,0.0,0.0
1629643742.80025125,90628734,0.05,0.06,1.1,1.07,352.76,352.73,0.0,0.0
1629643742.90021110,90728694,0.04,0.06,1.01,0.98,352.76,352.73,0.0,0.0
1629643743.00017118,90828654,0.08,0.07,0.91,0.89,352.76,352.73,0.0,0.0
1629643743.10013103,90928614,0.11,0.09,0.83,0.8,352.76,352.74,0.0,0.0
1629643743.20009112,91028574,0.1,0.11,0.76,0.73,352.76,352.74,0.0,0.0
1629643743.30005121,91128534,0.06,0.1,0.69,0.65,352.76,352.75,0.0,0.0
1629643743.40001106,91228494,0.03,0.04,0.64,0.6,352.76,352.76,0.0,0.0
1629643743.49997115,91328454,0.04,0.01,0.57,0.55,352.76,352.76,0.0,0.0
1629643743.59993124,91428414,0.05,0.02,0.49,0.48,352.76,352.77,0.0,0.0
1629643743.69989109,91528374,0.06,0.03,0.41,0.41,352.76,352.78,0.0,0.0
1629643743.79985118,91628334,0.07,0.05,0.35,0.33,352.76,352.78,0.0,0.0
1629643743.89981103,91728294,0.07,0.06,0.32,0.29,352.76,352.78,0.0,0.0
1629643743.99977112,91828254,0.08,0.07,0.28,0.26,352.76,352.78,0.0,0.0
1629643744.09973121,91928214,0.14,0.1,0.22,0.21,352.76,352.78,0.0,0.0
1629643744.19969106,92028174,0.17,0.15,0.17,0.16,352.76,352.78,0.0,0.0
1629643744.30048418,92128967,0.17,0.17,0.14,0.12,352.76,352.77,0.0,0.0
1629643744.40044403,92228927,0.16,0.17,0.14,0.1,352.76,352.77,0.0,0.0
1629643744.50040412,92328887,0.18,0.17,0.16,0.12,352.76,352.76,0.0,0.0
1629643744.60036421,92428847,0.19,0.18,0.14,0.13,352.76,352.76,0.0,0.0
1629643744.70032406,92528807,0.19,0.19,0.11,0.12,352.76,352.76,0.0,0.0
1629643744.80028415,92628767,0.2,0.19,0.1,0.1,352.76,352.76,0.0,0.0
1629643744.90024424,92728727,0.2,0.2,0.1,0.1,352.76,352.75,0.0,0.0
1629643745.00020409,92828687,0.18,0.19,0.04,0.06,352.76,352.75,0.0,0.0
1629643745.10016418,92928647,0.18,0.18,0.01,0.02,352.76,352.75,0.0,0.0
1629643745.20012403,93028607,0.19,0.18,0.0,0.0,352.76,352.75,0.0,0.0
1629643745.30008411,93128567,0.18,0.18,0.0,-0.01,352.76,352.75,0.0,0.0
1629643745.40004420,93228527,0.17,0.16,0.01,-0.01,352.76,352.76,0.0,0.0
1629643745.50000405,93328487,0.17,0.15,0.02,0.0,352.76,352.76,0.0,0.0
1629643745.59996414,93428447,0.19,0.16,0.01,0.0,352.76,352.76,0.0,0.0
1629643745.69992423,93528407,0.21,0.19,0.01,0.01,352.76,352.76,0.0,0.0
1629643745.79988408,93628367,0.2,0.2,0.01,0.01,352.76,352.76,0.0,0.0
1629643745.89984417,93728327,0.18,0.19,0.02,0.01,352.76,352.75,0.0,0.0
1629643745.99980402,93828287,0.17,0.17,0.04,0.02,352.76,352.75,0.0,0.0
1629643746.09976411,93928247,0.16,0.16,0.05,0.03,352.76,352.75,0.0,0.0
1629643746.19972420,94028207,0.16,0.15,0.06,0.05,352.76,352.75,0.0,0.0
1629643746.29968405,94128167,0.16,0.15,0.07,0.07,352.76,352.76,0.0,0.0
1629643746.40047717,94228960,0.17,0.15,0.08,0.08,352.76,352.76,0.0,0.0
1629643746.50043702,94328920,0.21,0.18,0.09,0.09,352.76,352.76,0.0,0.0
1629643746.60039711,94428880,0.22,0.21,0.1,0.1,352.76,352.76,0.0,0.0
1629643746.70035720,94528840,0.2,0.21,0.1,0.1,352.76,352.76,0.0,0.0
1629643746.80031705,94628800,0.19,0.19,0.1,0.1,352.76,352.76,0.0,0.0
1629643746.90027714,94728760,0.19,0.18,0.07,0.07,352.76,352.76,0.0,0.0
1629643747.00023723,94828720,0.2,0.18,0.04,0.04,352.76,352.76,0.0,0.0
1629643747.10019708,94928680,0.2,0.19,0.02,0.01,352.76,352.76,0.0,0.0
1629643747.20015717,95028640,0.19,0.19,0.01,0.0,352.76,352.76,0.0,0.0
1629643747.30011702,95128600,0.17,0.17,0.01,0.0,352.76,352.76,0.0,0.0
1629643747.40007710,95228560,0.16,0.15,0.01,0.0,352.76,352.76,0.0,0.0
1629643747.50003719,95328520,0.18,0.15,0.02,0.0,352.76,352.76,0.0,0.0
1629643747.59999704,95428480,0.21,0.18,0.04,0.02,352.76,352.76,0.0,0.0
1629643747.69995713,95528440,0.2,0.18,0.08,0.06,352.76,352.76,0.0,0.0
1629643747.79991722,95628400,0.17,0.16,0.13,0.12,352.76,352.76,0.0,0.0
1629643747.89987707,95728360,0.15,0.14,0.16,0.16,352.76,352.76,0.0,0.0
1629643747.99983716,95828320,0.13,0.12,0.19,0.19,352.76,352.76,0.0,0.0
1629643748.09979725,95928280,0.13,0.1,0.18,0.2,352.76,352.76,0.0,0.0
1629643748.19975710,96028240,0.14,0.1,0.15,0.19,352.76,352.76,0.0,0.0
1629643748.29971719,96128200,0.16,0.12,0.14,0.17,352.76,352.76,0.0,0.0
1629643748.39967704,96228160,0.15,0.13,0.16,0.16,352.76,352.76,0.0,0.0
1629643748.50047016,96328953,0.16,0.15,0.17,0.16,352.76,352.76,0.0,0.0
1629643748.60043025,96428913,0.18,0.16,0.19,0.17,352.76,352.76,0.0,0.0
1629643748.70039010,96528873,0.2,0.18,0.22,0.2,352.76,352.76,0.0,0.0
1629643748.80035019,96628833,0.21,0.2,0.23,0.22,352.76,352.76,0.0,0.0
1629643748.90031004,96728793,0.21,0.22,0.21,0.22,352.76,352.76,0.0,0.0
1629643749.00027013,96828753,0.2,0.23,0.2,0.22,352.76,352.75,0.0,0.0
1629643749.10023022,96928713,0.17,0.21,0.2,0.21,352.76,352.75,0.0,0.0
1629643749.20019007,97028673,0.12,0.16,0.19,0.19,352.76,352.75,0.0,0.0
1629643749.30015016,97128633,0.09,0.1,0.19,0.18,352.76,352.75,0.0,0.0
1629643749.40011024,97228593,0.1,0.08,0.18,0.16,352.76,352.76,0.0,0.0
1629643749.50007010,97328553,0.12,0.08,0.19,0.16,352.76,352.76,0.0,0.0
1629643749.60003018,97428513,0.11,0.09,0.21,0.17,352.76,352.76,0.0,0.0
1629643749.69999003,97528473,0.11,0.09,0.21,0.18,352.76,352.76,0.0,0.0
1629643749.79995012,97628433,0.12,0.1,0.22,0.19,352.76,352.76,0.0,0.0
1629643749.89991021,97728393,0.14,0.11,0.23,0.21,352.76,352.76,0.0,0.0
1629643749.99987006,97828353,0.13,0.13,0.21,0.21,352.76,352.76,0.0,0.0
1629643750.09983015,97928313,0.14,0.13,0.18,0.19,352.76,352.76,0.0,0.0
1629643750.19979024,98028273,0.16,0.14,0.14,0.14,352.76,352.76,0.0,0.0
1629643750.29975009,98128233,0.17,0.15,0.13,0.11,352.76,352.76,0.0,0.0
1629643750.39971018,98228193,0.15,0.16,0.15,0.11,352.76,352.76,0.0,0.0
1629643750.50050306,98328986,0.15,0.15,0.15,0.12,352.76,352.75,0.0,0.0
1629643750.60046315,98428946,0.15,0.14,0.18,0.14,352.76,352.75,0.0,0.0
1629643750.70042324,98528906,0.14,0.13,0.2,0.17,352.76,352.75,0.0,0.0
1629643750.80038309,98628866,0.14,0.13,0.19,0.18,352.76,352.75,0.0,0.0
1629643750.90034318,98728826,0.15,0.14,0.18,0.19,352.76,352.75,0.0,0.0
1629643751.00030303,98828786,0.13,0.13,0.17,0.18,352.76,352.76,0.0,0.0
1629643751.10026312,98928746,0.14,0.12,0.15,0.17,352.76,352.76,0.0,0.0
1629643751.20022321,99028706,0.16,0.14,0.13,0.14,352.76,352.76,0.0,0.0
1629643751.30018306,99128666,0.15,0.14,0.12,0.12,352.76,352.76,0.0,0.0
1629643751.40014315,99228626,0.16,0.14,0.12,0.1,352.76,352.77,0.0,0.0
1629643751.50010324,99328586,0.16,0.16,0.14,0.11,352.76,352.77,0.0,0.0
1629643751.60006309,99428546,0.17,0.15,0.15,0.13,352.76,352.77,0.0,0.0
1629643751.70002317,99528506,0.18,0.16,0.13,0.13,352.76,352.77,0.0,0.0
1629643751.79998302,99628466,0.2,0.18,0.12,0.12,352.76,352.77,0.0,0.0
1629643751.89994311,99728426,0.21,0.2,0.13,0.12,352.76,352.76,0.0,0.0
1629643751.99990320,99828386,0.22,0.21,0.15,0.13,352.76,352.76,0.0,0.0
1629643752.09986305,99928346,0.21,0.22,0.16,0.15,352.76,352.76,0.0,0.0
1629643752.19982314,100028306,0.57,0.26,-0.47,0.05,352.76,352.76,0.0,0.0
1629643752.29978323,100128266,1.59,1.09,-8.21,-4.29,352.76,352.72,0.0,0.0
1629643752.39974308,100228226,2.22,1.99,-13.53,-11.29,352.76,352.59,0.0,0.0
1629643752.49970317,100328186,2.67,2.72,-14.96,-15.88,352.76,352.51,0.0,0.0
1629643752.60049605,100428979,3.0,3.19,-13.59,-16.78,352.76,352.6,0.0,0.0
1629643752.70045614,100528939,3.18,3.43,-10.7,-14.49,352.76,352.85,0.0,0.01
1629643752.80041623,100628899,3.15,3.41,-7.67,-10.57,352.76,353.14,0.0,0.01
1629643752.90037608,100728859,2.99,3.2,-5.34,-6.65,352.76,353.33,0.0,0.01
1629643753.00033617,100828819,2.83,2.93,-3.92,-3.75,352.76,353.37,0.0,0.02
1629643753.10029602,100928779,2.74,2.71,-3.15,-2.12,352.76,353.27,0.0,0.01
1629643753.20025611,101028739,2.69,2.58,-2.62,-1.42,352.76,353.1,0.0,0.01
1629643753.30021620,101128699,2.68,2.55,-2.01,-1.11,352.76,352.9,0.0,0.01
1629643753.40017605,101228659,2.71,2.57,-1.16,-0.7,352.76,352.73,0.0,0.01
1629643753.50013614,101328619,2.76,2.65,-0.19,-0.04,352.76,352.61,0.0,0.01
1629643753.60009623,101428579,2.8,2.73,0.81,0.81,352.76,352.53,0.0,0.0
1629643753.70005608,101528539,2.83,2.79,1.78,1.78,353.05,352.49,0.0,0.0
1629643753.80001616,101628499,2.87,2.8,2.63,2.76,355.65,352.62,0.0,0.0
1629643753.89997602,101728459,3.0,2.78,3.36,3.74,0.88,353.42,0.0,0.0
1629643753.99993610,101828419,3.26,2.82,3.93,4.59,6.88,355.63,0.0,0.01
1629643754.09989619,101928379,3.73,3.08,4.28,5.17,12.88,359.57,0.0,0.01
1629643754.19985604,102028339,4.42,3.62,4.32,5.37,18.88,5.12,0.0,0.02
1629643754.29981613,102128299,5.3,4.44,4.05,5.16,24.88,11.97,0.0,0.03
1629643754.39977622,102228259,6.28,5.48,3.45,4.53,30.88,19.78,0.0,0.04
1629643754.49973607,102328219,7.24,6.62,2.56,3.5,36.88,28.2,0.0,0.05
1629643754.59969616,102428179,7.98,7.64,1.42,2.12,42.88,36.9,0.0,0.06
1629643754.70048904,102528972,8.39,8.33,0.14,0.52,48.88,45.62,0.0,0.07
1629643754.80044913,102628932,8.5,8.59,-1.16,-1.14,54.88,54.1,0.0,0.07
1629643754.90040922,102728892,8.35,8.45,-2.44,-2.74,60.88,62.12,0.0,0.08
1629643755.00036907,102828852,8.02,7.99,-3.6,-4.15,66.88,69.56,0.0,0.08
1629643755.10032916,102928812,7.61,7.4,-4.64,-5.31,72.88,76.37,0.0,0.08
1629643755.20028925,103028772,7.15,6.78,-5.6,-6.23,78.88,82.57,0.0,0.07
1629643755.30024910,103128732,6.7,6.23,-6.49,-6.99,84.88,88.22,0.0,0.07
1629643755.40020919,103228692,6.25,5.79,-7.36,-7.65,90.88,93.48,0.0,0.06
1629643755.50016904,103328652,5.76,5.42,-8.22,-8.32,96.88,98.48,0.0,0.06
1629643755.60012913,103428612,5.18,5.04,-9.08,-9.02,102.88,103.39,0.0,0.05
1629643755.70008922,103528572,4.47,4.57,-9.91,-9.76,108.88,108.35,0.0,0.05
1629643755.80004907,103628532,3.57,3.91,-10.7,-10.52,114.88,113.48,0.0,0.05
1629643755.90000916,103728492,2.48,3.01,-11.39,-11.26,120.88,118.86,0.0,0.05
1629643755.99996924,103828452,1.26,1.87,-11.95,-11.89,126.88,124.51,0.0,0.05
1629643756.09992909,103928412,-0.09,0.54,-12.37,-12.4,132.88,130.44,0.0,0.05
1629643756.19988918,104028372,-1.56,-0.97,-12.65,-12.73,138.71,136.59,0.0,0.05
1629643756.29984903,104128332,-3.1,-2.85,-12.76,-12.83,142.4,142.82,0.0,0.05
1629643756.39980912,104228292,-4.62,-5.17,-12.7,-12.56,143.59,148.55,0.0,0.05
1629643756.49976921,104328252,-5.9,-7.51,-12.59,-12.02,143.72,153.01,0.0,0.05
1629643756.59972906,104428212,-6.74,-9.3,-12.58,-11.49,143.41,155.75,0.0,0.04
1629643756.69968915,104528172,-7.03,-10.21,-12.78,-11.22,142.93,156.71,0.0,0.04
1629643756.80048203,104628965,-6.79,-10.2,-13.16,-11.33,142.42,156.14,0.0,0.03
1629643756.90044212,104728925,-6.13,-9.36,-13.69,-11.81,141.95,154.34,0.0,0.03
1629643757.00040221,104828885,-5.25,-7.94,-14.31,-12.62,141.53,151.66,0.0,0.03
1629643757.10036206,104928845,-4.28,-6.18,-14.91,-13.6,141.17,148.43,0.0,0.04
1629643757.20032215,105028805,-3.33,-4.3,-15.4,-14.58,140.87,144.95,0.0,0.04
1629643757.30028224,105128765,-2.5,-2.52,-15.74,-15.38,140.6,141.57,0.0,0.05
1629643757.40024209,105228725,-1.88,-1.05,-15.93,-15.92,140.35,138.63,0.0,0.05
1629643757.50020218,105328685,-1.49,-0.02,-16.01,-16.19,140.11,136.36,0.0,0.05
1629643757.60016203,105428645,-1.35,0.5,-16.03,-16.26,139.88,134.9,0.0,0.05
1629643757.70012212,105528605,-1.4,0.54,-16.05,-16.23,139.64,134.24,0.0,0.04
1629643757.80008221,105628565,-1.58,0.2,-16.07,-16.19,139.4,134.3,0.0,0.04
1629643757.90004206,105728525,-1.86,-0.41,-16.08,-16.14,139.16,134.9,0.0,0.03
1629643758.00000215,105828485,-2.18,-1.18,-16.09,-16.09,138.92,135.87,0.0,0.03
1629643758.09996223,105928445,-2.52,-2.0,-16.12,-16.07,138.68,137.0,0.0,0.02
1629643758.19992208,106028405,-2.84,-2.78,-16.16,-16.07,138.45,138.1,0.0,0.02
1629643758.29988217,106128365,-3.06,-3.41,-16.21,-16.08,138.23,139.03,0.0,0.01
1629643758.39984202,106228325,-3.18,-3.83,-16.29,-16.13,138.02,139.69,0.0,0.01
1629643758.49980211,106328285,-3.2,-4.03,-16.33,-16.17,137.83,140.03,0.0,0.01
1629643758.59976220,106428245,-3.12,-4.01,-16.37,-16.22,137.65,140.05,0.0,0.01
1629643758.69972205,106528205,-2.99,-3.82,-16.4,-16.27,137.5,139.78,0.0,0.01
1629643758.79968214,106628165,-2.82,-3.51,-16.44,-16.33,137.35,139.29,0.0,0.01
1629643758.90047503,106728958,-2.63,-3.13,-16.46,-16.39,137.22,138.67,0.0,0.01
1629643759.00043511,106828918,-2.44,-2.73,-16.51,-16.44,137.1,137.98,0.0,0.02
1629643759.10039520,106928878,-2.29,-2.37,-16.59,-16.53,136.99,137.31,0.0,0.02
1629643759.20035505,107028838,-2.19,-2.09,-16.69,-16.65,136.88,136.73,0.0,0.02
1629643759.30031514,107128798,-2.13,-1.9,-16.76,-16.76,136.78,136.26,0.0,0.02
1629643759.40027523,107228758,-2.1,-1.8,-16.82,-16.85,136.68,135.94,0.0,0.02
1629643759.50023508,107328718,-2.11,-1.79,-16.85,-16.91,136.58,135.75,0.0,0.02
1629643759.60019517,107428678,-2.17,-1.86,-16.87,-16.93,136.48,135.69,0.0,0.02
1629643759.70015502,107528638,-2.21,-1.99,-16.88,-16.94,136.38,135.73,0.0,0.02
1629643759.80011511,107628598,-2.24,-2.11,-16.89,-16.93,136.28,135.84,0.0,0.01
1629643759.90007520,107728558,-2.29,-2.24,-16.9,-16.92,136.19,135.97,0.0,0.01
1629643760.00003505,107828518,-2.35,-2.36,-16.92,-16.92,136.1,136.11,0.0,0.01
1629643760.09999514,107928478,-2.4,-2.49,-16.94,-16.92,136.01,136.23,0.0,0.01
1629643760.19995522,108028438,-2.43,-2.59,-16.98,-16.95,135.93,136.3,0.0,0.01
1629643760.29991508,108128398,-2.42,-2.62,-17.04,-16.99,135.85,136.32,0.0,0.01
1629643760.39987516,108228358,-2.4,-2.61,-17.08,-17.04,135.77,136.29,0.0,0.01
1629643760.49983525,108328318,-2.38,-2.57,-17.11,-17.09,135.71,136.2,0.0,0.01
1629643760.59979510,108428278,-2.3,-2.49,-17.14,-17.12,135.64,136.08,0.0,0.01
1629643760.69975519,108528238,-2.23,-2.37,-17.17,-17.16,135.58,135.94,0.0,0.01
1629643760.79971504,108628198,-2.18,-2.26,-17.18,-17.19,135.52,135.79,0.0,0.01
1629643760.89967513,108728158,-2.16,-2.19,-17.19,-17.21,135.47,135.64,0.0,0.01
1629643761.00046802,108828951,-2.15,-2.14,-17.18,-17.2,135.42,135.5,0.0,0.01
1629643761.10042810,108928911,-2.15,-2.12,-17.18,-17.19,135.37,135.38,0.0,0.01
1629643761.20038819,109028871,-2.15,-2.12,-17.19,-17.19,135.33,135.29,0.0,0.01
1629643761.30034804,109128831,-2.13,-2.11,-17.21,-17.2,135.28,135.23,0.0,0.01
1629643761.40030813,109228791,-2.1,-2.1,-17.25,-17.23,135.24,135.19,0.0,0.01
1629643761.50026822,109328751,-2.08,-2.09,-17.3,-17.27,135.2,135.17,0.0,0.01
1629643761.60022807,109428711,-2.06,-2.07,-17.35,-17.33,135.16,135.16,0.0,0.01
1629643761.70018816,109528671,-2.05,-2.06,-17.37,-17.38,135.12,135.16,0.0,0.01
1629643761.80014825,109628631,-2.05,-2.07,-17.36,-17.4,135.09,135.16,0.0,0.01
1629643761.90010810,109728591,-2.06,-2.08,-17.34,-17.38,135.05,135.16,0.0,0.01
1629643762.00006819,109828551,-2.06,-2.1,-17.35,-17.37,135.02,135.15,0.0,0.01
1629643762.10002804,109928511,-2.06,-2.1,-17.39,-17.38,134.99,135.14,0.0,0.01
1629643762.19998813,110028471,-2.05,-2.1,-17.44,-17.42,134.97,135.13,0.0,0.01
1629643762.29994822,110128431,-2.03,-2.09,-17.49,-17.47,134.94,135.1,0.0,0.01
1629643762.39990807,110228391,-2.01,-2.06,-17.55,-17.53,134.91,135.07,0.0,0.01
1629643762.49986815,110328351,-2.01,-2.05,-17.58,-17.59,134.89,135.04,0.0,0.01
1629643762.59982824,110428311,-2.02,-2.04,-17.58,-17.61,134.87,135.0,0.0,0.01
1629643762.69978809,110528271,-2.01,-2.04,-17.58,-17.61,134.85,134.95,0.0,0.01
1629643762.79974818,110628231,-2.01,-2.04,-17.59,-17.61,134.82,134.92,0.0,0.01
1629643762.89970803,110728191,-2.02,-2.04,-17.61,-17.62,134.8,134.88,0.0,0.01
1629643763.00050116,110828984,-2.03,-2.05,-17.62,-17.63,134.78,134.85,0.0,0.01
1629643763.10046124,110928944,-2.04,-2.06,-17.61,-17.63,134.76,134.83,0.0,0.01
1629643763.20042109,111028904,-2.04,-2.07,-17.59,-17.61,134.74,134.81,0.0,0.01
1629643763.30038118,111128864,-2.02,-2.06,-17.61,-17.6,134.73,134.8,0.0,0.01
1629643763.40034103,111228824,-2.0,-2.04,-17.64,-17.62,134.71,134.79,0.0,0.01
1629643763.50030112,111328784,-1.98,-2.02,-17.67,-17.66,134.69,134.78,0.0,0.01
1629643763.60026121,111428744,-1.97,-2.0,-17.66,-17.68,134.68,134.77,0.0,0.01
1629643763.70022106,111528704,-1.99,-2.0,-17.62,-17.66,134.68,134.76,0.0,0.01
1629643763.80018115,111628664,-2.0,-2.02,-17.55,-17.6,134.68,134.76,0.0,0.01
1629643763.90014124,111728624,-1.98,-2.02,-17.5,-17.53,134.67,134.75,0.0,0.01
1629643764.00010109,111828584,-1.96,-2.0,-17.47,-17.47,134.67,134.75,0.0,0.01
1629643764.10006118,111928544,-1.95,-1.97,-17.47,-17.43,134.68,134.75,0.0,0.01
1629643764.20002103,112028504,-1.95,-1.97,-17.5,-17.45,134.68,134.75,0.0,0.01
1629643764.29998112,112128464,-1.95,-1.97,-17.52,-17.49,134.68,134.76,0.0,0.01
1629643764.39994121,112228424,-1.93,-1.97,-17.51,-17.52,134.68,134.76,0.0,0.01
1629643764.49990106,112328384,-1.9,-1.95,-17.47,-17.5,134.69,134.77,0.0,0.0
1629643764.59986115,112428344,-1.89,-1.93,-17.46,-17.48,134.69,134.78,0.0,0.0
1629643764.69982123,112528304,-1.88,-1.92,-17.47,-17.47,134.7,134.78,0.0,0.0
1629643764.79978108,112628264,-1.89,-1.92,-17.47,-17.48,134.7,134.79,0.0,0.0
1629643764.89974117,112728224,-1.92,-1.94,-17.47,-17.48,134.7,134.8,0.0,0.0
1629643764.99970102,112828184,-1.93,-1.96,-17.46,-17.48,134.71,134.8,0.0,0.0
1629643765.10049415,112928977,-1.93,-1.97,-17.45,-17.47,134.71,134.81,0.0,0.0
1629643765.20045424,113028937,-1.91,-1.97,-17.43,-17.45,134.72,134.81,0.0,0.0
1629643765.30041409,113128897,-1.89,-1.95,-17.44,-17.44,134.72,134.81,0.0,0.0
1629643765.40037417,113228857,-1.88,-1.92,-17.43,-17.43,134.72,134.81,0.0,0.0
1629643765.50033402,113328817,-1.87,-1.9,-17.42,-17.42,134.73,134.81,0.0,0.0
1629643765.60029411,113428777,-1.9,-1.91,-17.41,-17.42,134.73,134.81,0.0,0.0
1629643765.70025420,113528737,-1.92,-1.93,-17.41,-17.42,134.73,134.81,0.0,0.0
1629643765.80021405,113628697,-1.95,-1.95,-17.4,-17.41,134.74,134.81,0.0,0.0
1629643765.90017414,113728657,-1.95,-1.98,-17.38,-17.4,134.74,134.81,0.0,0.0
1629643766.00013423,113828617,-1.93,-1.97,-17.37,-17.38,134.74,134.81,0.0,0.0
1629643766.10009408,113928577,-1.89,-1.94,-17.37,-17.37,134.74,134.81,0.0,0.0
1629643766.20005417,114028537,-1.86,-1.9,-17.36,-17.37,134.75,134.81,0.0,0.0
1629643766.30001402,114128497,-1.86,-1.89,-17.38,-17.37,134.75,134.82,0.0,0.0
1629643766.39997411,114228457,-1.84,-1.88,-17.41,-17.4,134.76,134.82,0.0,0.0
1629643766.49993420,114328417,-1.82,-1.85,-17.43,-17.43,134.76,134.83,0.0,0.0
1629643766.59989405,114428377,-1.82,-1.84,-17.44,-17.45,134.77,134.84,0.0,0.0
1629643766.69985414,114528337,-1.81,-1.82,-17.47,-17.48,134.77,134.84,0.0,0.0
1629643766.79981422,114628297,-1.82,-1.83,-17.47,-17.49,134.78,134.85,0.0,0.0
1629643766.89977407,114728257,-1.83,-1.85,-17.47,-17.49,134.78,134.86,0.0,0.0
1629643766.99973416,114828217,-1.87,-1.88,-17.45,-17.48,134.79,134.86,0.0,0.0
1629643767.09969425,114928177,-1.89,-1.91,-17.42,-17.46,134.79,134.87,0.0,0.0
1629643767.20048714,115028970,-1.9,-1.94,-17.4,-17.43,134.79,134.87,0.0,0.0
1629643767.30044723,115128930,-1.89,-1.94,-17.4,-17.41,134.79,134.87,0.0,0.0
1629643767.40040708,115228890,-1.88,-1.94,-17.41,-17.41,134.8,134.88,0.0,0.0
1629643767.50036716,115328850,-1.84,-1.91,-17.42,-17.42,134.8,134.88,0.0,0.0
1629643767.60032701,115428810,-1.81,-1.86,-17.42,-17.43,134.8,134.88,0.0,0.0
1629643767.70028710,115528770,-1.8,-1.83,-17.43,-17.44,134.8,134.87,0.0,0.0
1629643767.80024719,115628730,-1.83,-1.83,-17.44,-17.45,134.81,134.87,0.0,0.0
1629643767.90020704,115728690,-1.86,-1.86,-17.42,-17.45,134.81,134.87,0.0,0.0
1629643768.00016713,115828650,-1.86,-1.88,-17.41,-17.44,134.81,134.86,0.0,0.0
1629643768.10012722,115928610,-1.83,-1.87,-17.42,-17.43,134.81,134.87,0.0,0.0
1629643768.20008707,116028570,-1.82,-1.85,-17.42,-17.42,134.81,134.87,0.0,0.0
1629643768.30004716,116128530,-1.84,-1.86,-17.44,-17.43,134.81,134.87,0.0,0.0
1629643768.40000725,116228490,-1.83,-1.85,-17.47,-17.46,134.82,134.87,0.0,0.0
1629643768.49996710,116328450,-1.83,-1.85,-17.45,-17.47,134.82,134.87,0.0,0.0
1629643768.59992719,116428410,-1.85,-1.86,-17.43,-17.46,134.82,134.88,0.0,0.0
1629643768.69988704,116528370,-1.86,-1.88,-17.43,-17.44,134.83,134.88,0.0,0.0
1629643768.79984713,116628330,-1.84,-1.88,-17.43,-17.44,134.83,134.88,0.0,0.0
1629643768.89980721,116728290,-1.82,-1.86,-17.42,-17.42,134.83,134.89,0.0,0.0
1629643768.99976707,116828250,-1.83,-1.86,-17.41,-17.41,134.83,134.89,0.0,0.0
1629643769.09972715,116928210,-1.82,-1.86,-17.41,-17.41,134.84,134.9,0.0,0.0
1629643769.19968724,117028170,-1.82,-1.86,-17.43,-17.42,134.84,134.9,0.0,0.0
1629643769.30048013,117128963,-1.8,-1.83,-17.42,-17.42,134.84,134.9,0.0,0.0
1629643769.40044022,117228923,-1.8,-1.82,-17.42,-17.42,134.84,134.9,0.0,0.0
1629643769.50040007,117328883,-1.79,-1.81,-17.45,-17.44,134.85,134.9,0.0,0.0
1629643769.60036016,117428843,-1.79,-1.8,-17.47,-17.48,134.85,134.9,0.0,0.0
1629643769.70032024,117528803,-1.8,-1.79,-17.44,-17.47,134.85,134.9,0.0,0.0
1629643769.80028009,117628763,-1.82,-1.81,-17.42,-17.46,134.85,134.9,0.0,0.0
1629643769.90024018,117728723,-1.82,-1.83,-17.41,-17.44,134.85,134.9,0.0,0.0
1629643770.00020003,117828683,-1.84,-1.86,-17.42,-17.43,134.85,134.9,0.0,0.0
1629643770.10016012,117928643,-1.86,-1.89,-17.43,-17.43,134.85,134.9,0.0,0.0
1629643770.20012021,118028603,-1.85,-1.9,-17.44,-17.44,134.85,134.91,0.0,0.0
1629643770.30008006,118128563,-1.84,-1.9,-17.43,-17.44,134.85,134.91,0.0,0.0
1629643770.40004015,118228523,-1.82,-1.87,-17.42,-17.43,134.85,134.91,0.0,0.0
1629643770.50000024,118328483,-1.8,-1.83,-17.4,-17.41,134.85,134.91,0.0,0.0
1629643770.59996009,118428443,-1.78,-1.8,-17.4,-17.41,134.86,134.9,0.0,0.0
