timestamp,TimeUS,DesRoll,Roll,DesPitch,Pitch,DesYaw,Yaw,ErrRP,ErrYaw
1629641567.20000005,28828464,0.0,0.05,0.0,0.03,352.92,352.93,0.0,0.0
1629641567.29995990,28928424,0.0,0.05,0.0,0.03,352.92,352.93,0.0,0.0
1629641567.39991999,29028384,0.0,0.05,0.0,0.03,352.92,352.93,0.0,0.0
1629641567.49988008,29128344,0.0,0.05,0.0,0.04,352.92,352.93,0.0,0.0
1629641567.59983993,29228304,0.0,0.05,0.0,0.04,352.92,352.93,0.0,0.0
1629641567.69980001,29328264,0.0,0.05,0.0,0.04,352.92,352.93,0.0,0.0
1629641567.79976010,29428224,0.0,0.05,0.0,0.04,352.92,352.93,0.0,0.0
1629641567.89971995,29528184,0.0,0.05,0.0,0.04,352.92,352.93,0.0,0.0
1629641568.00051308,29628977,0.0,0.05,0.0,0.04,352.92,352.93,0.0,0.0
1629641568.10047293,29728937,0.0,0.05,0.0,0.04,352.92,352.93,0.0,0.0
1629641568.20043302,29828897,0.0,0.05,0.0,0.04,352.92,352.93,0.0,0.0
1629641568.30039310,29928857,0.0,0.05,0.0,0.04,352.92,352.93,0.0,0.0
1629641568.40035295,30028817,0.0,0.05,0.0,0.04,352.92,352.93,0.0,0.0
1629641568.50031304,30128777,0.0,0.05,0.0,0.04,352.92,352.93,0.0,0.0
1629641568.60027313,30228737,0.0,0.05,0.0,0.04,352.92,352.93,0.0,0.0
1629641568.70023298,30328697,0.0,0.05,0.0,0.04,352.91,352.92,0.0,0.0
1629641568.80019307,30428657,0.0,0.05,0.0,0.04,352.91,352.92,0.0,0.0
1629641568.90015292,30528617,0.0,0.05,0.0,0.04,352.91,352.92,0.0,0.0
1629641569.00011301,30628577,0.0,0.05,0.0,0.04,352.91,352.92,0.0,0.0
1629641569.10007310,30728537,0.0,0.05,0.0,0.04,352.91,352.92,0.0,0.0
1629641569.20003295,30828497,0.0,0.05,0.0,0.04,352.91,352.92,0.0,0.0
1629641569.29999304,30928457,0.0,0.05,0.0,0.04,352.91,352.92,0.0,0.0
1629641569.39995313,31028417,0.0,0.05,0.0,0.04,352.91,352.92,0.0,0.0
1629641569.49991298,31128377,0.0,0.05,0.0,0.04,352.91,352.92,0.0,0.0
1629641569.59987307,31228337,0.0,0.05,0.0,0.04,352.91,352.92,0.0,0.0
1629641569.69983292,31328297,0.0,0.05,0.0,0.04,352.91,352.92,0.0,0.0
1629641569.79979300,31428257,0.0,0.05,0.0,0.04,352.91,352.92,0.0,0.0
1629641569.89975309,31528217,0.0,0.05,0.0,0.04,352.91,352.92,0.0,0.0
1629641569.99971294,31628177,0.0,0.05,0.0,0.04,352.91,352.92,0.0,0.0
1629641570.10050607,31728970,0.0,0.05,0.0,0.04,352.91,352.92,0.0,0.0
1629641570.20046592,31828930,0.0,0.05,0.0,0.04,352.91,352.92,0.0,0.0
1629641570.30042601,31928890,0.0,0.05,0.0,0.04,352.91,352.92,0.0,0.0
1629641570.40038610,32028850,0.0,0.05,0.0,0.04,352.91,352.92,0.0,0.0
1629641570.50034595,32128810,0.0,0.05,0.0,0.04,352.91,352.92,0.0,0.0
1629641570.60030603,32228770,0.0,0.05,0.0,0.04,352.91,352.92,0.0,0.0
1629641570.70026612,32328730,0.0,0.05,0.0,0.04,352.91,352.92,0.0,0.0
1629641570.80022597,32428690,0.0,0.05,0.0,0.04,352.91,352.92,0.0,0.0
1629641570.90018606,32528650,0.0,0.05,0.0,0.04,352.91,352.92,0.0,0.0
1629641571.00014591,32628610,0.0,0.05,0.0,0.04,352.91,352.92,0.0,0.0
1629641571.10010600,32728570,0.0,0.06,0.0,0.04,352.91,352.92,0.0,0.0
1629641571.20006609,32828530,0.0,0.06,0.0,0.04,352.91,352.92,0.0,0.0
1629641571.30002594,32928490,0.0,0.06,0.0,0.04,352.91,352.92,0.0,0.0
1629641571.39998603,33028450,0.0,0.06,0.0,0.04,352.91,352.92,0.0,0.0
1629641571.49994612,33128410,0.0,0.06,0.0,0.04,352.91,352.92,0.0,0.0
1629641571.59990597,33228370,0.0,0.06,0.0,0.04,352.91,352.92,0.0,0.0
1629641571.69986606,33328330,0.0,0.06,0.0,0.04,352.91,352.92,0.0,0.0
1629641571.79982591,33428290,0.0,0.06,0.0,0.04,352.91,352.92,0.0,0.0
1629641571.89978600,33528250,0.0,0.06,0.0,0.04,352.91,352.92,0.0,0.0
1629641571.99974608,33628210,0.0,0.06,0.0,0.04,352.91,352.92,0.0,0.0
1629641572.09970593,33728170,0.0,0.06,0.0,0.05,352.91,352.92,0.0,0.0
1629641572.20049906,33828963,0.0,0.06,0.0,0.05,352.91,352.92,0.0,0.0
1629641572.30045891,33928923,0.0,0.06,0.0,0.05,352.91,352.92,0.0,0.0
1629641572.40041900,34028883,0.0,0.06,0.0,0.05,352.91,352.92,0.0,0.0
1629641572.50037909,34128843,0.0,0.06,0.0,0.05,352.91,352.92,0.0,0.0
1629641572.60033894,34228803,0.0,0.06,0.0,0.05,352.91,352.92,0.0,0.0
1629641572.70029902,34328763,0.0,0.06,0.0,0.05,352.91,352.92,0.0,0.0
1629641572.80025911,34428723,0.0,0.06,0.0,0.05,352.91,352.92,0.0,0.0
1629641572.90021896,34528683,0.0,0.06,0.0,0.05,352.91,352.92,0.0,0.0
1629641573.00017905,34628643,0.0,0.06,0.0,0.05,352.9,352.91,0.0,0.0
1629641573.10013890,34728603,0.0,0.06,0.0,0.05,352.9,352.91,0.0,0.0
1629641573.20009899,34828563,0.0,0.06,0.0,0.05,352.9,352.91,0.0,0.0
1629641573.30005908,34928523,0.0,0.06,0.0,0.05,352.9,352.91,0.0,0.0
1629641573.40001893,35028483,0.0,0.06,0.0,0.05,352.9,352.91,0.0,0.0
1629641573.49997902,35128443,0.0,0.06,0.0,0.05,352.9,352.91,0.0,0.0
1629641573.59993911,35228403,0.0,0.06,0.0,0.05,352.9,352.91,0.0,0.0
1629641573.69989896,35328363,0.0,0.06,0.0,0.05,352.9,352.91,0.0,0.0
1629641573.79985905,35428323,0.0,0.06,0.0,0.05,352.9,352.91,0.0,0.0
1629641573.89981914,35528283,0.0,0.06,0.0,0.05,352.9,352.91,0.0,0.0
1629641573.99977899,35628243,0.0,0.06,0.0,0.05,352.9,352.91,0.0,0.0
1629641574.09973907,35728203,0.0,0.06,0.0,0.05,352.9,352.91,0.0,0.0
1629641574.19969893,35828163,0.0,0.06,0.0,0.05,352.9,352.91,0.0,0.0
1629641574.30049205,35928956,0.0,0.06,0.0,0.05,352.9,352.91,0.0,0.0
1629641574.40045190,36028916,0.0,0.07,0.0,0.05,352.9,352.91,0.0,0.0
1629641574.50041199,36128876,0.0,0.07,0.0,0.05,352.9,352.91,0.0,0.0
1629641574.60037208,36228836,0.0,0.07,0.0,0.05,352.9,352.91,0.0,0.0
1629641574.70033193,36328796,0.0,0.07,0.0,0.05,352.9,352.91,0.0,0.0
1629641574.80029202,36428756,0.0,0.07,0.0,0.05,352.9,352.91,0.0,0.0
1629641574.90025210,36528716,0.0,0.07,0.0,0.05,352.9,352.91,0.0,0.0
1629641575.00021195,36628676,0.0,0.07,0.0,0.05,352.9,352.91,0.0,0.0
1629641575.10017204,36728636,0.0,0.07,0.0,0.05,352.9,352.91,0.0,0.0
1629641575.20013213,36828596,0.0,0.07,0.0,0.05,352.9,352.91,0.0,0.0
1629641575.30009198,36928556,0.0,0.07,0.0,0.05,352.9,352.91,0.0,0.0
1629641575.40005207,37028516,0.0,0.07,0.0,0.05,352.9,352.91,0.0,0.0
1629641575.50001192,37128476,0.0,0.07,0.0,0.05,352.9,352.91,0.0,0.0
1629641575.59997201,37228436,0.0,0.07,0.0,0.05,352.9,352.91,0.0,0.0
1629641575.69993210,37328396,0.0,0.07,0.0,0.05,352.9,352.91,0.0,0.0
1629641575.79989195,37428356,0.0,0.07,0.0,0.05,352.9,352.91,0.0,0.0
1629641575.89985204,37528316,0.0,0.07,0.0,0.05,352.9,352.91,0.0,0.0
1629641575.99981213,37628276,0.0,0.07,0.0,0.05,352.9,352.91,0.0,0.0
1629641576.09977198,37728236,0.0,0.07,0.0,0.05,352.9,352.91,0.0,0.0
1629641576.19973207,37828196,0.0,0.07,0.0,0.05,352.9,352.91,0.0,0.0
1629641576.29969192,37928156,0.0,0.07,0.0,0.05,352.9,352.91,0.0,0.0
1629641576.40048504,38028949,0.0,0.07,0.0,0.05,352.9,352.91,0.0,0.0
1629641576.50044513,38128909,0.0,0.07,0.0,0.05,352.9,352.91,0.0,0.0
1629641576.60040498,38228869,0.0,0.07,0.0,0.05,352.9,352.91,0.0,0.0
1629641576.70036507,38328829,0.0,0.07,0.0,0.05,352.9,352.91,0.0,0.0
1629641576.80032492,38428789,0.0,0.07,0.0,0.06,352.9,352.91,0.0,0.0
1629641576.90028501,38528749,0.0,0.07,0.0,0.06,352.9,352.91,0.0,0.0
1629641577.00024509,38628709,0.0,0.07,0.0,0.06,352.9,352.91,0.0,0.0
1629641577.10020494,38728669,0.0,0.07,0.0,0.06,352.9,352.91,0.0,0.0
1629641577.20016503,38828629,0.0,0.07,0.0,0.06,352.9,352.91,0.0,0.0
1629641577.30012512,38928589,0.0,0.07,0.0,0.06,352.9,352.91,0.0,0.0
1629641577.40008497,39028549,0.0,0.07,0.0,0.06,352.9,352.91,0.0,0.0
1629641577.50004506,39128509,0.0,0.07,0.0,0.06,352.9,352.91,0.0,0.0
1629641577.60000491,39228469,0.0,0.07,0.0,0.06,352.9,352.91,0.0,0.0
1629641577.69996500,39328429,0.0,0.07,0.0,0.06,352.9,352.91,0.0,0.0
1629641577.79992509,39428389,0.0,0.07,0.0,0.06,352.9,352.91,0.0,0.0
1629641577.89988494,39528349,0.0,0.07,0.0,0.06,352.9,352.91,0.0,0.0
1629641577.99984503,39628309,0.0,0.07,0.0,0.06,352.9,352.91,0.0,0.0
1629641578.09980512,39728269,0.0,0.08,0.0,0.06,352.9,352.91,0.0,0.0
1629641578.19976497,39828229,0.0,0.08,0.0,0.06,352.9,352.91,0.0,0.0
1629641578.29972506,39928189,0.0,0.08,0.0,0.06,352.89,352.9,0.0,0.0
1629641578.40051794,40028982,0.0,0.08,0.0,0.06,352.89,352.9,0.0,0.0
1629641578.50047803,40128942,0.0,0.08,0.0,0.06,352.89,352.9,0.0,0.0
1629641578.60043812,40228902,0.0,0.08,0.0,0.06,352.89,352.9,0.0,0.0
1629641578.70039797,40328862,0.0,0.08,0.0,0.06,352.89,352.9,0.0,0.0
1629641578.80035806,40428822,0.0,0.08,0.0,0.06,352.89,352.9,0.0,0.0
1629641578.90031791,40528782,0.0,0.08,0.0,0.07,352.89,352.9,0.0,0.0
1629641579.00027800,40628742,0.0,0.09,0.0,0.07,352.89,352.9,0.0,0.0
1629641579.10023808,40728702,0.0,0.09,0.0,0.07,352.89,352.9,0.0,0.0
1629641579.20019794,40828662,0.0,0.09,0.0,0.07,352.89,352.9,0.0,0.0
1629641579.30015802,40928622,0.0,0.09,0.0,0.07,352.89,352.9,0.0,0.0
1629641579.40011811,41028582,0.0,0.09,0.0,0.07,352.89,352.9,0.0,0.0
1629641579.50007796,41128542,0.0,0.09,0.0,0.08,352.89,352.9,0.0,0.0
1629641579.60003805,41228502,0.0,0.09,0.0,0.08,352.89,352.9,0.0,0.0
1629641579.69999790,41328462,0.0,0.1,0.0,0.08,352.89,352.9,0.0,0.0
1629641579.79995799,41428422,0.0,0.1,0.0,0.08,352.89,352.9,0.0,0.0
1629641579.89991808,41528382,0.0,0.1,0.0,0.08,352.89,352.9,0.0,0.0
1629641579.99987793,41628342,0.0,0.1,0.0,0.08,352.89,352.9,0.0,0.0
1629641580.09983802,41728302,0.0,0.1,0.0,0.08,352.88,352.89,0.0,0.0
1629641580.19979811,41828262,0.0,0.1,0.0,0.08,352.88,352.89,0.0,0.0
1629641580.29975796,41928222,0.0,0.1,0.0,0.08,352.88,352.89,0.0,0.0
1629641580.39971805,42028182,0.0,0.1,0.0,0.08,352.88,352.89,0.0,0.0
1629641580.50051093,42128975,0.0,0.1,0.0,0.08,352.88,352.89,0.0,0.0
1629641580.60047102,42228935,0.0,0.1,0.0,0.08,352.88,352.89,0.0,0.0
1629641580.70043111,42328895,0.0,0.1,0.0,0.09,352.88,352.89,0.0,0.0
1629641580.80039096,42428855,0.0,0.1,0.0,0.09,352.88,352.89,0.0,0.0
1629641580.90035105,42528815,0.0,0.1,0.0,0.09,352.88,352.89,0.0,0.0
1629641581.00031090,42628775,0.0,0.1,0.0,0.08,352.88,352.89,0.0,0.0
1629641581.10027099,42728735,0.0,0.1,0.0,0.09,352.88,352.89,0.0,0.0
1629641581.20023108,42828695,0.0,0.1,0.0,0.08,352.88,352.89,0.0,0.0
1629641581.30019093,42928655,0.0,0.1,0.0,0.08,352.88,352.89,0.0,0.0
1629641581.40015101,43028615,0.0,0.1,0.0,0.08,352.87,352.88,0.0,0.0
1629641581.50011110,43128575,0.0,0.1,0.0,0.08,352.87,352.88,0.0,0.0
1629641581.60007095,43228535,0.0,0.1,0.0,0.08,352.87,352.88,0.0,0.0
1629641581.70003104,43328495,0.0,0.1,0.0,0.08,352.87,352.88,0.0,0.0
1629641581.79999113,43428455,0.0,0.1,0.0,0.08,352.87,352.88,0.0,0.0
1629641581.89995098,43528415,0.0,0.1,0.0,0.08,352.87,352.88,0.0,0.0
1629641581.99991107,43628375,0.0,0.1,0.0,0.08,352.87,352.88,0.0,0.0
1629641582.09987092,43728335,0.0,0.1,0.0,0.08,352.87,352.88,0.0,0.0
1629641582.19983101,43828295,0.0,0.1,0.0,0.08,352.87,352.88,0.0,0.0
1629641582.29979110,43928255,0.0,0.1,0.0,0.08,352.87,352.88,0.0,0.0
1629641582.39975095,44028215,0.0,0.1,0.0,0.08,352.87,352.88,0.0,0.0
1629641582.49971104,44128175,0.0,0.1,0.0,0.08,352.87,352.88,0.0,0.0
1629641582.60050392,44228968,0.0,0.09,0.0,0.08,352.87,352.88,0.0,0.0
1629641582.70046401,44328928,0.0,0.09,0.0,0.08,352.87,352.88,0.0,0.0
1629641582.80042410,44428888,0.0,0.09,0.0,0.07,352.87,352.88,0.0,0.0
1629641582.90038395,44528848,0.0,0.09,0.0,0.07,352.87,352.88,0.0,0.0
1629641583.00034404,44628808,0.0,0.09,0.0,0.07,352.87,352.88,0.0,0.0
1629641583.10030413,44728768,-0.03,0.09,-0.02,0.07,352.87,352.88,0.0,0.0
1629641583.20026398,44828728,-0.08,0.09,-0.08,0.07,352.87,352.88,0.0,0.0
1629641583.30022407,44928688,-0.08,0.09,-0.08,0.07,352.87,352.88,0.0,0.0
1629641583.40018392,45028648,-0.14,0.09,-0.14,0.07,352.87,352.88,0.0,0.0
1629641583.50014400,45128608,-0.19,0.09,-0.2,0.07,352.87,352.88,0.0,0.0
1629641583.60010409,45228568,-0.23,0.09,-0.23,0.07,352.87,352.88,0.0,0.0
1629641583.70006394,45328528,-0.25,0.09,-0.24,0.07,352.87,352.88,0.0,0.0
1629641583.80002403,45428488,-0.26,0.09,-0.25,0.07,352.87,352.88,0.0,0.0
1629641583.89998412,45528448,-0.29,0.09,-0.27,0.07,352.87,352.88,0.0,0.0
1629641583.99994397,45628408,-0.29,0.08,-0.28,0.07,352.87,352.88,0.0,0.0
1629641584.09990406,45728368,-0.31,0.08,-0.31,0.07,352.87,352.88,0.0,0.0
1629641584.19986391,45828328,-0.33,0.08,-0.32,0.07,352.87,352.88,0.0,0.0
1629641584.29982400,45928288,-0.36,0.08,-0.33,0.07,352.87,352.88,0.0,0.0
1629641584.39978409,46028248,-0.4,0.08,-0.33,0.07,352.87,352.88,0.0,0.0
1629641584.49974394,46128208,-0.41,0.08,-0.32,0.07,352.87,352.88,0.0,0.0
1629641584.59970403,46228168,-0.43,0.08,-0.32,0.07,352.87,352.88,0.0,0.0
1629641584.70049691,46328961,-0.46,0.03,-0.37,0.02,352.87,352.88,0.0,0.0
1629641584.80045700,46428921,-0.46,-0.23,-0.4,-0.21,352.87,352.88,0.0,0.0
1629641584.90041709,46528881,-0.41,-0.51,-0.38,-0.48,352.87,352.88,0.0,0.0
1629641585.00037694,46628841,-0.28,-0.65,-0.3,-0.62,352.87,352.88,0.0,0.0
1629641585.10033703,46728801,-0.1,-0.62,-0.17,-0.62,352.87,352.88,0.0,0.0
1629641585.20029712,46828761,0.05,-0.47,-0.02,-0.49,352.87,352.88,0.0,0.0
1629641585.30025697,46928721,0.21,-0.27,0.14,-0.3,352.87,352.88,0.0,0.0
1629641585.40021706,47028681,0.37,-0.04,0.3,-0.07,352.87,352.87,0.0,0.0
1629641585.50017691,47128641,0.45,0.13,0.38,0.1,352.87,352.87,0.0,0.0
1629641585.60013700,47228601,0.48,0.23,0.41,0.2,352.87,352.87,0.0,0.0
1629641585.70009708,47328561,0.98,0.38,-1.15,-0.09,352.87,352.87,0.0,0.0
1629641585.80005693,47428521,2.56,1.56,-12.28,-6.07,352.87,352.79,0.0,0.0
1629641585.90001702,47528481,3.03,2.77,-20.28,-16.8,352.86,352.51,0.0,0.0
1629641585.99997711,47628441,2.65,3.14,-18.66,-22.06,352.86,352.48,0.0,0.01
1629641586.09993696,47728401,1.88,2.59,-13.33,-20.33,352.86,352.84,0.0,0.01
1629641586.19989705,47828361,1.09,1.57,-7.36,-14.09,352.86,353.27,0.0,0.01
1629641586.29985690,47928321,0.62,0.63,-2.81,-6.69,352.86,353.48,0.0,0.01
1629641586.39981699,48028281,0.48,0.08,-0.51,-0.94,352.89,353.51,0.0,0.02
1629641586.49977708,48128241,0.55,-0.04,-0.39,1.81,352.89,353.41,0.01,0.02
1629641586.59973693,48228201,0.7,0.12,-1.35,1.83,352.89,353.27,0.01,0.02
1629641586.69969702,48328161,0.79,0.38,-2.44,0.3,352.89,353.12,0.01,0.02
1629641586.80048990,48428954,0.76,0.57,-2.92,-1.45,352.89,352.96,0.01,0.01
1629641586.90044999,48528914,0.63,0.61,-2.59,-2.44,352.89,352.82,0.01,0.01
1629641587.00041008,48628874,0.42,0.49,-1.66,-2.37,352.89,352.73,0.01,0.01
1629641587.10036993,48728834,0.21,0.28,-0.48,-1.43,352.89,352.68,0.01,0.01
1629641587.20033002,48828794,0.06,0.06,0.55,-0.13,352.89,352.66,0.01,0.0
1629641587.30029011,48928754,0.0,-0.08,1.25,1.05,352.89,352.66,0.0,0.0
1629641587.40024996,49028714,-0.01,-0.15,1.58,1.82,352.89,352.69,0.0,0.0
1629641587.50021005,49128674,0.01,-0.14,1.64,2.13,352.89,352.73,0.0,0.0
1629641587.60017014,49228634,0.04,-0.08,1.55,2.07,352.89,352.79,0.0,0.0
1629641587.70012999,49328594,0.04,-0.03,1.42,1.82,352.89,352.85,0.0,0.0
1629641587.80009007,49428554,0.0,-0.02,1.33,1.53,352.89,352.91,0.0,0.0
1629641587.90004992,49528514,-0.04,-0.05,1.33,1.34,352.89,352.95,0.0,0.0
1629641588.00001001,49628474,-0.07,-0.08,1.4,1.28,352.89,352.99,0.0,0.0
1629641588.09997010,49728434,-0.1,-0.12,1.52,1.34,352.89,353.01,0.0,0.0
1629641588.19992995,49828394,-0.14,-0.16,1.67,1.49,352.89,353.02,0.0,0.0
1629641588.29989004,49928354,-0.14,-0.19,1.76,1.66,352.89,353.02,0.0,0.0
1629641588.39985013,50028314,-0.11,-0.18,1.75,1.75,352.89,353.0,0.0,0.0
1629641588.49980998,50128274,-0.07,-0.14,1.63,1.72,352.89,352.98,0.0,0.0
1629641588.59977007,50228234,-0.04,-0.09,1.47,1.57,352.89,352.96,0.0,0.0
1629641588.69972992,50328194,-0.01,-0.04,1.3,1.37,352.89,352.93,0.0,0.0
1629641588.79969001,50428154,0.0,-0.02,1.14,1.16,352.89,352.91,0.0,0.0
1629641588.90048313,50528947,0.0,0.0,1.02,0.99,352.89,352.89,0.0,0.0
1629641589.00044298,50628907,0.0,0.0,0.97,0.88,352.89,352.88,0.0,0.0
1629641589.10040307,50728867,0.0,0.0,0.95,0.84,352.89,352.87,0.0,0.0
1629641589.20036292,50828827,0.01,0.0,0.97,0.85,352.89,352.86,0.0,0.0
1629641589.30032301,50928787,0.06,0.02,0.96,0.89,352.89,352.87,0.0,0.0
1629641589.40028310,51028747,0.1,0.07,0.88,0.88,352.89,352.87,0.0,0.0
1629641589.50024295,51128707,0.12,0.1,0.76,0.8,352.89,352.88,0.0,0.0
1629641589.60020304,51228667,0.14,0.13,0.64,0.68,352.89,352.88,0.0,0.0
1629641589.70016313,51328627,0.17,0.16,0.55,0.56,352.89,352.89,0.0,0.0
1629641589.80012298,51428587,0.15,0.17,0.49,0.47,352.89,352.9,0.0,0.0
1629641589.90008307,51528547,0.09,0.14,0.46,0.42,352.89,352.9,0.0,0.0
1629641590.00004292,51628507,0.05,0.08,0.42,0.39,352.89,352.91,0.0,0.0
1629641590.10000300,51728467,0.01,0.02,0.36,0.35,352.89,352.91,0.0,0.0
1629641590.19996309,51828427,0.0,-0.01,0.31,0.3,352.89,352.91,0.0,0.0
1629641590.29992294,51928387,0.0,-0.03,0.27,0.25,352.89,352.91,0.0,0.0
1629641590.39988303,52028347,0.0,-0.03,0.24,0.22,352.89,352.92,0.0,0.0
1629641590.49984312,52128307,0.0,-0.02,0.2,0.19,352.89,352.92,0.0,0.0
1629641590.59980297,52228267,-0.01,-0.02,0.14,0.14,352.89,352.91,0.0,0.0
1629641590.69976306,52328227,0.0,-0.02,0.1,0.09,352.89,352.91,0.0,0.0
1629641590.79972291,52428187,0.03,0.0,0.07,0.06,352.89,352.91,0.0,0.0
1629641590.90051603,52528980,0.04,0.02,0.04,0.03,352.89,352.9,0.0,0.0
1629641591.00047612,52628940,0.03,0.03,0.01,0.0,352.89,352.9,0.0,0.0
1629641591.10043597,52728900,0.01,0.02,0.01,-0.02,352.89,352.9,0.0,0.0
1629641591.20039606,52828860,0.02,0.03,0.02,-0.01,352.89,352.89,0.0,0.0
1629641591.30035591,52928820,0.02,0.02,0.07,0.02,352.89,352.89,0.0,0.0
1629641591.40031600,53028780,0.0,0.0,0.09,0.07,352.89,352.89,0.0,0.0
1629641591.50027609,53128740,0.0,0.0,0.06,0.08,352.89,352.89,0.0,0.0
1629641591.60023594,53228700,0.0,0.0,0.03,0.06,352.89,352.89,0.0,0.0
1629641591.70019603,53328660,-0.01,0.0,0.0,0.03,352.89,352.89,0.0,0.0
1629641591.80015612,53428620,-0.01,-0.01,0.0,0.0,352.89,352.89,0.0,0.0
1629641591.90011597,53528580,0.0,0.0,0.01,-0.01,352.89,352.89,0.0,0.0
1629641592.00007606,53628540,0.0,0.0,0.05,0.03,352.89,352.9,0.0,0.0
1629641592.10003591,53728500,0.03,0.0,0.07,0.07,352.89,352.9,0.0,0.0
1629641592.19999599,53828460,0.06,0.04,0.1,0.09,352.89,352.9,0.0,0.0
1629641592.29995608,53928420,0.08,0.07,0.08,0.1,352.89,352.9,0.0,0.0
1629641592.39991593,54028380,0.09,0.09,0.04,0.07,352.89,352.91,0.0,0.0
1629641592.49987602,54128340,0.05,0.08,0.0,0.03,352.89,352.91,0.0,0.0
1629641592.59983611,54228300,0.0,0.04,-0.03,-0.02,352.89,352.91,0.0,0.0
1629641592.69979596,54328260,-0.01,0.0,-0.05,-0.06,352.89,352.91,0.0,0.0
1629641592.79975605,54428220,-0.01,-0.03,-0.02,-0.06,352.89,352.9,0.0,0.0
1629641592.89971590,54528180,0.02,-0.02,0.02,-0.02,352.89,352.9,0.0,0.0
1629641593.00050902,54628973,0.04,0.01,0.04,0.01,352.89,352.9,0.0,0.0
1629641593.10046911,54728933,0.06,0.04,0.01,0.02,352.89,352.9,0.0,0.0
1629641593.20042896,54828893,0.1,0.09,0.0,0.0,352.89,352.9,0.0,0.0
1629641593.30038905,54928853,0.1,0.12,0.0,0.0,352.89,352.9,0.0,0.0
1629641593.40034890,55028813,0.08,0.12,0.0,0.0,352.89,352.9,0.0,0.0
1629641593.50030899,55128773,0.03,0.08,0.0,0.0,352.89,352.9,0.0,0.0
1629641593.60026908,55228733,0.0,0.03,-0.01,-0.01,352.89,352.9,0.0,0.0
1629641593.70022893,55328693,-0.01,0.0,0.0,0.0,352.89,352.89,0.0,0.0
1629641593.80018902,55428653,0.01,0.0,0.06,0.04,352.89,352.89,0.0,0.0
1629641593.90014911,55528613,0.06,0.02,0.06,0.07,352.89,352.89,0.0,0.0
1629641594.00010896,55628573,0.09,0.07,0.06,0.06,352.89,352.88,0.0,0.0
1629641594.10006905,55728533,0.09,0.09,0.04,0.06,352.89,352.88,0.0,0.0
1629641594.20002913,55828493,0.08,0.08,0.03,0.04,352.89,352.88,0.0,0.0
1629641594.29998899,55928453,0.09,0.07,0.04,0.03,352.89,352.88,0.0,0.0
1629641594.39994907,56028413,0.11,0.1,0.04,0.03,352.89,352.88,0.0,0.0
1629641594.49990892,56128373,0.11,0.1,0.05,0.03,352.89,352.89,0.0,0.0
1629641594.59986901,56228333,0.11,0.1,0.03,0.03,352.89,352.89,0.0,0.0
1629641594.69982910,56328293,0.11,0.1,0.02,0.02,352.89,352.89,0.0,0.0
1629641594.79978895,56428253,0.09,0.08,0.04,0.03,352.89,352.9,0.0,0.0
1629641594.89974904,56528213,0.09,0.07,0.04,0.04,352.89,352.9,0.0,0.0
1629641594.99970913,56628173,0.11,0.08,0.04,0.04,352.89,352.9,0.0,0.0
1629641595.10050201,56728966,0.13,0.1,0.03,0.04,352.89,352.9,0.0,0.0
1629641595.20046210,56828926,0.13,0.12,0.03,0.04,352.89,352.9,0.0,0.0
1629641595.30042195,56928886,0.11,0.12,0.04,0.05,352.89,352.9,0.0,0.0
1629641595.40038204,57028846,0.1,0.11,0.06,0.06,352.89,352.9,0.0,0.0
1629641595.50034213,57128806,0.08,0.1,0.09,0.08,352.89,352.89,0.0,0.0
1629641595.60030198,57228766,0.07,0.08,0.09,0.09,352.89,352.89,0.0,0.0
1629641595.70026207,57328726,0.07,0.07,0.12,0.1,352.89,352.89,0.0,0.0
1629641595.80022192,57428686,0.06,0.07,0.15,0.12,352.89,352.89,0.0,0.0
1629641595.90018201,57528646,0.04,0.05,0.17,0.15,352.89,352.88,0.0,0.0
1629641596.00014210,57628606,0.03,0.03,0.16,0.17,352.89,352.88,0.0,0.0
1629641596.10010195,57728566,0.07,0.04,0.17,0.17,352.89,352.88,0.0,0.0
1629641596.20006204,57828526,0.09,0.08,0.18,0.19,352.89,352.88,0.0,0.0
1629641596.30002213,57928486,0.1,0.09,0.16,0.17,352.89,352.89,0.0,0.0
1629641596.39998198,58028446,0.09,0.1,0.13,0.15,352.89,352.89,0.0,0.0
1629641596.49994206,58128406,0.06,0.08,0.1,0.1,352.89,352.89,0.0,0.0
1629641596.59990191,58228366,0.04,0.05,0.07,0.06,352.89,352.9,0.0,0.0
1629641596.69986200,58328326,0.02,0.02,0.07,0.05,352.89,352.9,0.0,0.0
1629641596.79982209,58428286,0.03,0.01,0.08,0.05,352.89,352.9,0.0,0.0
1629641596.89978194,58528246,0.04,0.02,0.09,0.07,352.89,352.9,0.0,0.0
1629641596.99974203,58628206,0.04,0.03,0.09,0.08,352.89,352.9,0.0,0.0
1629641597.09970212,58728166,0.06,0.05,0.11,0.1,352.89,352.89,0.0,0.0
1629641597.20049500,58828959,0.06,0.06,0.1,0.11,352.89,352.89,0.0,0.0
1629641597.30045509,58928919,0.07,0.07,0.07,0.1,352.89,352.89,0.0,0.0
1629641597.40041494,59028879,0.1,0.08,0.02,0.06,352.89,352.89,0.0,0.0
1629641597.50037503,59128839,0.12,0.1,0.0,0.02,352.89,352.89,0.0,0.0
1629641597.60033512,59228799,0.13,0.11,-0.01,-0.01,352.89,352.89,0.0,0.0
1629641597.70029497,59328759,0.15,0.13,0.01,-0.02,352.89,352.89,0.0,0.0
1629641597.80025506,59428719,0.16,0.15,0.04,0.0,352.89,352.88,0.0,0.0
1629641597.90021491,59528679,0.15,0.15,0.05,0.01,352.89,352.88,0.0,0.0
1629641598.00017500,59628639,0.14,0.14,0.05,0.03,352.89,352.88,0.0,0.0
1629641598.10013509,59728599,0.1,0.12,0.04,0.04,352.89,352.89,0.0,0.0
1629641598.20009494,59828559,0.07,0.07,0.04,0.03,352.89,352.89,0.0,0.0
1629641598.30005503,59928519,0.08,0.05,0.03,0.03,352.89,352.89,0.0,0.0
1629641598.40001512,60028479,0.11,0.06,0.02,0.02,352.89,352.89,0.0,0.0
1629641598.49997497,60128439,0.1,0.08,0.0,0.01,352.89,352.89,0.0,0.0
1629641598.59993505,60228399,0.1,0.09,0.02,0.01,352.89,352.9,0.0,0.0
1629641598.69989491,60328359,0.09,0.09,0.06,0.03,352.89,352.9,0.0,0.0
1629641598.79985499,60428319,0.09,0.09,0.1,0.07,352.89,352.9,0.0,0.0
1629641598.89981508,60528279,0.07,0.09,0.11,0.11,352.89,352.9,0.0,0.0
1629641598.99977493,60628239,0.06,0.07,0.09,0.11,352.89,352.9,0.0,0.0
1629641599.09973502,60728199,0.08,0.07,0.06,0.09,352.89,352.9,0.0,0.0
1629641599.19969511,60828159,0.11,0.08,0.07,0.08,352.89,352.9,0.0,0.0
1629641599.30048800,60928952,0.11,0.1,0.05,0.06,352.89,352.89,0.0,0.0
1629641599.40044808,61028912,0.09,0.11,0.04,0.04,352.89,352.89,0.0,0.0
1629641599.50040793,61128872,0.07,0.08,0.05,0.04,352.89,352.89,0.0,0.0
1629641599.60036802,61228832,0.08,0.07,0.07,0.05,352.89,352.89,0.0,0.0
1629641599.70032811,61328792,0.11,0.09,0.08,0.07,352.89,352.89,0.0,0.0
1629641599.80028796,61428752,0.13,0.12,0.09,0.08,352.89,352.89,0.0,0.0
1629641599.90024805,61528712,0.12,0.12,0.09,0.08,352.89,352.89,0.0,0.0
1629641600.00020790,61628672,0.11,0.12,0.08,0.07,352.89,352.89,0.0,0.0
1629641600.10016799,61728632,0.13,0.13,0.1,0.08,352.89,352.89,0.0,0.0
1629641600.20012808,61828592,0.12,0.13,0.12,0.1,352.89,352.89,0.0,0.0
1629641600.30008793,61928552,0.14,0.13,0.11,0.11,352.89,352.89,0.0,0.0
1629641600.40004802,62028512,0.14,0.15,0.05,0.08,352.89,352.89,0.0,0.0
1629641600.50000811,62128472,0.11,0.14,0.03,0.03,352.89,352.89,0.0,0.0
1629641600.59996796,62228432,0.11,0.12,0.04,0.01,352.89,352.89,0.0,0.0
1629641600.69992805,62328392,0.14,0.13,0.08,0.04,352.89,352.88,0.0,0.0
1629641600.79988813,62428352,0.16,0.14,0.11,0.08,352.89,352.89,0.0,0.0
1629641600.89984798,62528312,0.16,0.15,0.13,0.11,352.89,352.89,0.0,0.0
1629641600.99980807,62628272,0.13,0.15,0.12,0.13,352.89,352.89,0.0,0.0
1629641601.09976792,62728232,0.09,0.11,0.09,0.11,352.89,352.89,0.0,0.0
1629641601.19972801,62828192,0.08,0.08,0.07,0.08,352.89,352.9,0.0,0.0
1629641601.30052114,62928985,0.09,0.07,0.07,0.06,352.89,352.9,0.0,0.0
1629641601.40048099,63028945,0.09,0.07,0.07,0.06,352.89,352.9,0.0,0.0
1629641601.50044107,63128905,0.08,0.08,0.09,0.07,352.89,352.9,0.0,0.0
1629641601.60040092,63228865,0.07,0.08,0.1,0.08,352.89,352.9,0.0,0.0
1629641601.70036101,63328825,0.04,0.06,0.15,0.12,352.89,352.9,0.0,0.0
1629641601.80032110,63428785,0.05,0.04,0.19,0.18,352.89,352.9,0.0,0.0
1629641601.90028095,63528745,0.06,0.05,0.19,0.21,352.89,352.9,0.0,0.0
1629641602.00024104,63628705,0.08,0.05,0.17,0.21,352.89,352.9,0.0,0.0
1629641602.10020113,63728665,0.1,0.08,0.16,0.19,352.89,352.9,0.0,0.0
1629641602.20016098,63828625,0.11,0.1,0.15,0.16,352.89,352.9,0.0,0.0
1629641602.30012107,63928585,0.13,0.12,0.13,0.13,352.89,352.9,0.0,0.0
1629641602.40008092,64028545,0.12,0.12,0.11,0.11,352.89,352.9,0.0,0.0
1629641602.50004101,64128505,0.11,0.11,0.13,0.1,352.89,352.89,0.0,0.0
1629641602.60000110,64228465,0.1,0.1,0.13,0.11,352.89,352.89,0.0,0.0
1629641602.69996095,64328425,0.09,0.09,0.1,0.09,352.89,352.89,0.0,0.0
1629641602.79992104,64428385,0.1,0.08,0.08,0.08,352.89,352.89,0.0,0.0
1629641602.89988112,64528345,0.09,0.08,0.07,0.06,352.89,352.89,0.0,0.0
1629641602.99984097,64628305,0.12,0.09,0.07,0.06,352.89,352.89,0.0,0.0
1629641603.09980106,64728265,0.14,0.12,0.07,0.06,352.89,352.9,0.0,0.0
1629641603.19976091,64828225,0.13,0.13,0.06,0.06,352.89,352.9,0.0,0.0
1629641603.29972100,64928185,0.15,0.13,0.06,0.05,352.89,352.9,0.0,0.0
1629641603.40051413,65028978,0.15,0.13,0.07,0.05,352.89,352.9,0.0,0.0
1629641603.50047398,65128938,0.16,0.13,0.08,0.07,352.89,352.9,0.0,0.0
1629641603.60043406,65228898,0.18,0.15,0.09,0.09,352.89,352.9,0.0,0.0
1629641603.70039392,65328858,0.16,0.16,0.1,0.11,352.89,352.9,0.0,0.0
1629641603.80035400,65428818,0.1,0.12,0.13,0.13,352.89,352.89,0.0,0.0
1629641603.90031409,65528778,0.07,0.08,0.15,0.15,352.89,352.89,0.0,0.0
1629641604.00027394,65628738,0.05,0.04,0.16,0.16,352.89,352.89,0.0,0.0
1629641604.10023403,65728698,0.07,0.04,0.12,0.14,352.89,352.9,0.0,0.0
1629641604.20019412,65828658,0.06,0.05,0.1,0.11,352.89,352.9,0.0,0.0
1629641604.30015397,65928618,0.07,0.05,0.09,0.09,352.89,352.9,0.0,0.0
1629641604.40011406,66028578,0.07,0.06,0.06,0.07,352.89,352.9,0.0,0.0
1629641604.50007391,66128538,0.06,0.06,0.04,0.04,352.89,352.9,0.0,0.0
1629641604.60003400,66228498,0.04,0.04,0.04,0.02,352.89,352.9,0.0,0.0
1629641604.69999409,66328458,0.04,0.02,0.06,0.03,352.89,352.89,0.0,0.0
1629641604.79995394,66428418,0.06,0.02,0.09,0.05,352.89,352.89,0.0,0.0
1629641604.89991403,66528378,0.06,0.03,0.11,0.07,352.89,352.89,0.0,0.0
1629641604.99987411,66628338,0.07,0.05,0.12,0.1,352.89,352.89,0.0,0.0
1629641605.09983397,66728298,0.07,0.06,0.12,0.11,352.89,352.89,0.0,0.0
1629641605.19979405,66828258,0.08,0.07,0.12,0.12,352.89,352.89,0.0,0.0
1629641605.29975390,66928218,0.09,0.09,0.09,0.1,352.89,352.89,0.0,0.0
1629641605.39971399,67028178,0.09,0.1,0.06,0.07,352.89,352.9,0.0,0.0
1629641605.50050712,67128971,0.08,0.1,0.06,0.05,352.89,352.9,0.0,0.0
1629641605.60046697,67228931,0.09,0.09,0.09,0.06,352.89,352.9,0.0,0.0
1629641605.70042706,67328891,0.14,0.12,0.12,0.09,352.89,352.9,0.0,0.0
1629641605.80038691,67428851,0.19,0.16,0.14,0.12,352.89,352.9,0.0,0.0
1629641605.90034699,67528811,0.22,0.21,0.13,0.14,352.89,352.9,0.0,0.0
1629641606.00030708,67628771,0.2,0.22,0.13,0.14,352.89,352.9,0.0,0.0
1629641606.10026693,67728731,0.18,0.2,0.13,0.14,352.89,352.9,0.0,0.0
1629641606.20022702,67828691,0.18,0.19,0.11,0.12,352.89,352.9,0.0,0.0
1629641606.30018711,67928651,0.16,0.17,0.09,0.09,352.89,352.89,0.0,0.0
1629641606.40014696,68028611,0.13,0.15,0.11,0.09,352.89,352.89,0.0,0.0
1629641606.50010705,68128571,0.09,0.12,0.12,0.1,352.89,352.89,0.0,0.0
1629641606.60006690,68228531,0.1,0.08,0.14,0.11,352.89,352.9,0.0,0.0
1629641606.70002699,68328491,0.13,0.09,0.16,0.14,352.89,352.9,0.0,0.0
1629641606.79998708,68428451,0.17,0.11,0.16,0.15,352.89,352.9,0.0,0.0
1629641606.89994693,68528411,0.2,0.16,0.16,0.16,352.89,352.9,0.0,0.0
1629641606.99990702,68628371,0.2,0.18,0.15,0.15,352.89,352.91,0.0,0.0
1629641607.09986711,68728331,0.18,0.18,0.11,0.13,352.89,352.91,0.0,0.0
1629641607.19982696,68828291,0.14,0.16,0.08,0.09,352.89,352.9,0.0,0.0
1629641607.29978704,68928251,0.14,0.13,0.08,0.07,352.89,352.9,0.0,0.0
1629641607.39974713,69028211,0.13,0.12,0.1,0.08,352.89,352.9,0.0,0.0
1629641607.49970698,69128171,0.14,0.12,0.12,0.1,352.89,352.9,0.0,0.0
1629641607.60050011,69228964,0.15,0.13,0.12,0.11,352.89,352.89,0.0,0.0
1629641607.70045996,69328924,0.14,0.14,0.15,0.14,352.89,352.89,0.0,0.0
1629641607.80042005,69428884,0.1,0.12,0.16,0.16,352.89,352.89,0.0,0.0
1629641607.90038013,69528844,0.08,0.09,0.14,0.17,352.89,352.89,0.0,0.0
1629641608.00033998,69628804,0.1,0.08,0.13,0.15,352.89,352.89,0.0,0.0
1629641608.10030007,69728764,0.12,0.09,0.11,0.14,352.89,352.89,0.0,0.0
1629641608.20025992,69828724,0.14,0.1,0.1,0.12,352.89,352.89,0.0,0.0
1629641608.30022001,69928684,0.13,0.1,0.13,0.13,352.89,352.89,0.0,0.0
1629641608.40018010,70028644,0.1,0.08,0.13,0.13,352.89,352.89,0.0,0.0
1629641608.50013995,70128604,0.09,0.07,0.1,0.11,352.89,352.9,0.0,0.0
1629641608.60010004,70228564,0.12,0.1,0.07,0.07,352.89,352.89,0.0,0.0
1629641608.70006013,70328524,0.17,0.14,0.06,0.05,352.89,352.89,0.0,0.0
1629641608.80001998,70428484,0.18,0.18,0.05,0.03,352.89,352.89,0.0,0.0
1629641608.89998007,70528444,0.16,0.18,0.05,0.03,352.89,352.9,0.0,0.0
1629641608.99993992,70628404,0.14,0.16,0.07,0.04,352.89,352.9,0.0,0.0
1629641609.09990001,70728364,0.12,0.13,0.05,0.04,352.89,352.9,0.0,0.0
1629641609.19986010,70828324,0.1,0.1,0.03,0.02,352.89,352.9,0.0,0.0
1629641609.29981995,70928284,0.09,0.08,0.04,0.02,352.89,352.9,0.0,0.0
1629641609.39978004,71028244,0.08,0.07,0.06,0.04,352.89,352.9,0.0,0.0
1629641609.49974012,71128204,0.06,0.06,0.09,0.07,352.89,352.9,0.0,0.0
1629641609.59969997,71228164,0.03,0.04,0.09,0.09,352.89,352.89,0.0,0.0
1629641609.70049310,71328957,0.03,0.03,0.07,0.09,352.89,352.89,0.0,0.0
1629641609.80045295,71428917,0.05,0.03,0.06,0.06,352.89,352.89,0.0,0.0
1629641609.90041304,71528877,0.08,0.05,0.05,0.04,352.89,352.89,0.0,0.0
1629641610.00037313,71628837,0.1,0.07,0.07,0.03,352.89,352.89,0.0,0.0
1629641610.10033298,71728797,0.12,0.1,0.09,0.05,352.89,352.89,0.0,0.0
1629641610.20029306,71828757,0.15,0.14,0.12,0.09,352.89,352.89,0.0,0.0
1629641610.30025291,71928717,0.13,0.15,0.13,0.13,352.89,352.89,0.0,0.0
1629641610.40021300,72028677,0.08,0.12,0.09,0.12,352.89,352.89,0.0,0.0
1629641610.50017309,72128637,0.05,0.07,0.06,0.08,352.89,352.89,0.0,0.0
1629641610.60013294,72228597,0.04,0.03,0.06,0.05,352.89,352.89,0.0,0.0
1629641610.70009303,72328557,0.04,0.02,0.06,0.05,352.89,352.89,0.0,0.0
1629641610.80005312,72428517,0.06,0.03,0.06,0.05,352.89,352.9,0.0,0.0
1629641610.90001297,72528477,0.09,0.07,0.07,0.07,352.89,352.89,0.0,0.0
1629641610.99997306,72628437,0.07,0.09,0.07,0.07,352.89,352.89,0.0,0.0
1629641611.09993291,72728397,0.02,0.06,0.1,0.08,352.89,352.89,0.0,0.0
1629641611.19989300,72828357,-0.03,0.0,0.13,0.11,352.89,352.89,0.0,0.0
1629641611.29985309,72928317,-0.05,-0.06,0.11,0.13,352.89,352.89,0.0,0.0
1629641611.39981294,73028277,0.0,-0.06,0.09,0.1,352.89,352.9,0.0,0.0
1629641611.49977303,73128237,0.03,-0.02,0.09,0.09,352.89,352.9,0.0,0.0
1629641611.59973311,73228197,0.06,0.01,0.07,0.08,352.89,352.9,0.0,0.0
1629641611.69969296,73328157,0.08,0.06,0.06,0.06,352.89,352.9,0.0,0.0
1629641611.80048609,73428950,0.11,0.09,0.09,0.06,352.89,352.9,0.0,0.0
1629641611.90044594,73528910,0.13,0.13,0.11,0.08,352.89,352.9,0.0,0.0
1629641612.00040603,73628870,0.13,0.14,0.11,0.1,352.89,352.9,0.0,0.0
1629641612.10036612,73728830,0.17,0.16,0.08,0.1,352.89,352.9,0.0,0.0
1629641612.20032597,73828790,0.19,0.19,0.06,0.07,352.89,352.9,0.0,0.0
1629641612.30028605,73928750,0.18,0.2,0.06,0.06,352.89,352.89,0.0,0.0
1629641612.40024590,74028710,0.15,0.18,0.07,0.06,352.89,352.89,0.0,0.0
1629641612.50020599,74128670,0.16,0.15,0.09,0.06,352.89,352.89,0.0,0.0
1629641612.60016608,74228630,0.18,0.15,0.13,0.09,352.89,352.89,0.0,0.0
1629641612.70012593,74328590,0.19,0.18,0.13,0.12,352.89,352.89,0.0,0.0
1629641612.80008602,74428550,0.2,0.19,0.12,0.12,352.89,352.89,0.0,0.0
1629641612.90004611,74528510,0.2,0.2,0.09,0.11,352.89,352.89,0.0,0.0
1629641613.00000596,74628470,0.2,0.2,0.04,0.07,352.89,352.89,0.0,0.0
1629641613.09996605,74728430,0.21,0.21,0.02,0.03,352.89,352.89,0.0,0.0
1629641613.19992590,74828390,0.22,0.22,0.0,0.01,352.89,352.89,0.0,0.0
1629641613.29988599,74928350,0.17,0.2,0.0,0.0,352.89,352.89,0.0,0.0
1629641613.39984608,75028310,0.13,0.15,0.02,0.0,352.89,352.89,0.0,0.0
1629641613.49980593,75128270,0.13,0.12,0.03,0.01,352.89,352.89,0.0,0.0
1629641613.59976602,75228230,0.16,0.13,0.03,0.02,352.89,352.89,0.0,0.0
1629641613.69972610,75328190,0.17,0.15,0.04,0.03,352.89,352.88,0.0,0.0
1629641613.80051899,75428983,0.21,0.18,0.06,0.05,352.89,352.88,0.0,0.0
1629641613.90047908,75528943,0.24,0.22,0.06,0.07,352.89,352.88,0.0,0.0
1629641614.00043893,75628903,0.23,0.23,0.02,0.05,352.89,352.88,0.0,0.0
1629641614.10039902,75728863,0.19,0.21,0.03,0.03,352.89,352.88,0.0,0.0
1629641614.20035911,75828823,0.15,0.18,0.04,0.03,352.89,352.88,0.0,0.0
1629641614.30031896,75928783,0.16,0.16,0.05,0.03,352.89,352.88,0.0,0.0
1629641614.40027905,76028743,0.18,0.16,0.06,0.04,352.89,352.89,0.0,0.0
1629641614.50023913,76128703,0.16,0.16,0.08,0.06,352.89,352.89,0.0,0.0
1629641614.60019898,76228663,0.15,0.15,0.1,0.09,352.89,352.89,0.0,0.0
1629641614.70015907,76328623,0.16,0.15,0.08,0.08,352.89,352.89,0.0,0.0
1629641614.80011892,76428583,0.19,0.16,0.08,0.07,352.89,352.89,0.0,0.0
1629641614.90007901,76528543,0.19,0.18,0.12,0.09,352.89,352.9,0.0,0.0
1629641615.00003910,76628503,0.19,0.19,0.14,0.12,352.89,352.9,0.0,0.0
1629641615.09999895,76728463,0.17,0.18,0.15,0.15,352.89,352.9,0.0,0.0
1629641615.19995904,76828423,0.14,0.15,0.16,0.16,352.89,352.9,0.0,0.0
1629641615.29991913,76928383,0.11,0.11,0.18,0.16,352.89,352.9,0.0,0.0
1629641615.39987898,77028343,0.09,0.08,0.17,0.17,352.89,352.9,0.0,0.0
1629641615.49983907,77128303,0.12,0.08,0.16,0.16,352.89,352.9,0.0,0.0
1629641615.59979892,77228263,0.16,0.12,0.18,0.17,352.89,352.9,0.0,0.0
1629641615.69975901,77328223,0.2,0.17,0.18,0.18,352.89,352.89,0.0,0.0
1629641615.79971910,77428183,0.19,0.19,0.16,0.17,352.89,352.89,0.0,0.0
1629641615.90051198,77528976,0.15,0.17,0.17,0.16,352.89,352.89,0.0,0.0
1629641616.00047207,77628936,0.11,0.13,0.17,0.16,352.89,352.89,0.0,0.0
1629641616.10043192,77728896,0.11,0.1,0.14,0.14,352.89,352.89,0.0,0.0
1629641616.20039201,77828856,0.13,0.1,0.14,0.12,352.89,352.89,0.0,0.0
1629641616.30035210,77928816,0.14,0.12,0.18,0.13,352.89,352.89,0.0,0.0
1629641616.40031195,78028776,0.16,0.13,0.2,0.17,352.89,352.89,0.0,0.0
1629641616.50027204,78128736,0.16,0.15,0.17,0.18,352.89,352.89,0.0,0.0
1629641616.60023212,78228696,0.15,0.15,0.1,0.14,352.89,352.9,0.0,0.0
1629641616.70019197,78328656,0.12,0.15,0.05,0.08,352.89,352.9,0.0,0.0
1629641616.80015206,78428616,0.11,0.13,0.06,0.05,352.89,352.9,0.0,0.0
1629641616.90011191,78528576,0.12,0.11,0.12,0.08,352.89,352.9,0.0,0.0
1629641617.00007200,78628536,0.12,0.1,0.17,0.13,352.89,352.9,0.0,0.0
1629641617.10003209,78728496,0.11,0.09,0.19,0.17,352.89,352.9,0.0,0.0
1629641617.19999194,78828456,0.09,0.08,0.18,0.19,352.89,352.9,0.0,0.0
1629641617.29995203,78928416,0.1,0.08,0.16,0.18,352.89,352.89,0.0,0.0
1629641617.39991212,79028376,0.1,0.09,0.14,0.15,352.89,352.89,0.0,0.0
1629641617.49987197,79128336,0.11,0.09,0.13,0.12,352.89,352.89,0.0,0.0
1629641617.59983206,79228296,0.13,0.11,0.1,0.1,352.89,352.89,0.0,0.0
1629641617.69979191,79328256,0.1,0.11,0.1,0.08,352.89,352.89,0.0,0.0
1629641617.79975200,79428216,0.08,0.08,0.14,0.1,352.89,352.89,0.0,0.0
1629641617.89971209,79528176,0.07,0.06,0.17,0.14,352.89,352.89,0.0,0.0
1629641618.00050497,79628969,0.09,0.08,0.18,0.17,352.89,352.89,0.0,0.0
1629641618.10046506,79728929,0.13,0.11,0.17,0.18,352.89,352.89,0.0,0.0
1629641618.20042491,79828889,0.12,0.13,0.14,0.17,352.89,352.89,0.0,0.0
1629641618.30038500,79928849,0.09,0.12,0.1,0.14,352.89,352.89,0.0,0.0
1629641618.40034509,80028809,0.04,0.07,0.06,0.09,352.89,352.89,0.0,0.0
1629641618.50030494,80128769,0.03,0.03,0.04,0.04,352.89,352.89,0.0,0.0
1629641618.60026503,80228729,0.05,0.02,0.06,0.02,352.89,352.89,0.0,0.0
1629641618.70022511,80328689,0.08,0.04,0.08,0.04,352.89,352.89,0.0,0.0
1629641618.80018497,80428649,0.11,0.08,0.1,0.07,352.89,352.89,0.0,0.0
1629641618.90014505,80528609,0.13,0.11,0.08,0.08,352.89,352.89,0.0,0.0
1629641619.00010490,80628569,0.15,0.14,0.08,0.07,352.89,352.89,0.0,0.0
1629641619.10006499,80728529,0.17,0.16,0.09,0.08,352.89,352.89,0.0,0.0
1629641619.20002508,80828489,0.15,0.16,0.1,0.09,352.89,352.89,0.0,0.0
1629641619.29998493,80928449,0.13,0.14,0.11,0.1,352.89,352.89,0.0,0.0
1629641619.39994502,81028409,0.13,0.13,0.12,0.11,352.89,352.89,0.0,0.0
1629641619.49990511,81128369,0.13,0.12,0.1,0.11,352.89,352.89,0.0,0.0
1629641619.59986496,81228329,0.13,0.12,0.08,0.1,352.89,352.89,0.0,0.0
1629641619.69982505,81328289,0.12,0.13,0.06,0.07,352.89,352.9,0.0,0.0
1629641619.79978490,81428249,0.12,0.13,0.05,0.04,352.89,352.9,0.0,0.0
1629641619.89974499,81528209,0.14,0.13,0.07,0.04,352.89,352.9,0.0,0.0
1629641619.99970508,81628169,0.15,0.13,0.08,0.05,352.89,352.9,0.0,0.0
1629641620.10049796,81728962,0.16,0.14,0.11,0.08,352.89,352.9,0.0,0.0
1629641620.20045805,81828922,0.16,0.15,0.15,0.13,352.89,352.91,0.0,0.0
1629641620.30041790,81928882,0.15,0.14,0.18,0.18,352.89,352.9,0.0,0.0
1629641620.40037799,82028842,0.16,0.13,0.19,0.21,352.89,352.9,0.0,0.0
1629641620.50033808,82128802,0.13,0.13,0.18,0.22,352.89,352.9,0.0,0.0
1629641620.60029793,82228762,0.08,0.1,0.13,0.18,352.89,352.9,0.0,0.0
1629641620.70025802,82328722,0.08,0.07,0.1,0.14,352.89,352.89,0.0,0.0
1629641620.80021811,82428682,0.08,0.05,0.12,0.1,352.89,352.89,0.0,0.0
1629641620.90017796,82528642,0.09,0.05,0.16,0.12,352.89,352.89,0.0,0.0
1629641621.00013804,82628602,0.11,0.06,0.18,0.15,352.89,352.89,0.0,0.0
1629641621.10009813,82728562,0.14,0.1,0.2,0.18,352.89,352.89,0.0,0.0
1629641621.20005798,82828522,0.15,0.14,0.17,0.18,352.89,352.89,0.0,0.0
1629641621.30001807,82928482,0.16,0.16,0.14,0.16,352.89,352.89,0.0,0.0
1629641621.39997792,83028442,0.15,0.17,0.13,0.14,352.89,352.89,0.0,0.0
1629641621.49993801,83128402,0.1,0.14,0.12,0.12,352.89,352.89,0.0,0.0
1629641621.59989810,83228362,0.06,0.09,0.12,0.1,352.89,352.89,0.0,0.0
1629641621.69985795,83328322,0.06,0.06,0.13,0.1,352.89,352.89,0.0,0.0
1629641621.79981804,83428282,0.07,0.05,0.15,0.11,352.89,352.89,0.0,0.0
1629641621.89977813,83528242,0.06,0.05,0.18,0.14,352.89,352.89,0.0,0.0
1629641621.99973798,83628202,0.07,0.05,0.21,0.17,352.89,352.9,0.0,0.0
1629641622.09969807,83728162,0.08,0.06,0.22,0.2,352.89,352.9,0.0,0.0
1629641622.20049095,83828955,0.11,0.07,0.22,0.22,352.89,352.9,0.0,0.0
1629641622.30045104,83928915,0.13,0.1,0.2,0.22,352.89,352.9,0.0,0.0
1629641622.40041113,84028875,0.16,0.13,0.18,0.2,352.89,352.9,0.0,0.0
1629641622.50037098,84128835,0.19,0.16,0.16,0.17,352.89,352.9,0.0,0.0
1629641622.60033107,84228795,0.2,0.2,0.12,0.13,352.89,352.9,0.0,0.0
1629641622.70029092,84328755,0.17,0.2,0.11,0.1,352.89,352.9,0.0,0.0
1629641622.80025101,84428715,0.16,0.18,0.12,0.1,352.89,352.89,0.0,0.0
1629641622.90021110,84528675,0.13,0.15,0.11,0.1,352.89,352.89,0.0,0.0
1629641623.00017095,84628635,0.14,0.13,0.09,0.08,352.89,352.89,0.0,0.0
1629641623.10013103,84728595,0.14,0.13,0.06,0.06,352.89,352.89,0.0,0.0
1629641623.20009112,84828555,0.16,0.13,0.06,0.04,352.89,352.89,0.0,0.0
1629641623.30005097,84928515,0.17,0.15,0.08,0.05,352.89,352.89,0.0,0.0
1629641623.40001106,85028475,0.15,0.16,0.1,0.06,352.89,352.89,0.0,0.0
1629641623.49997091,85128435,0.13,0.14,0.13,0.09,352.89,352.89,0.0,0.0
1629641623.59993100,85228395,0.11,0.12,0.17,0.14,352.89,352.89,0.0,0.0
1629641623.69989109,85328355,0.12,0.11,0.2,0.19,352.89,352.89,0.0,0.0
1629641623.79985094,85428315,0.14,0.11,0.21,0.22,352.89,352.89,0.0,0.0
1629641623.89981103,85528275,0.17,0.14,0.16,0.2,352.89,352.89,0.0,0.0
1629641623.99977112,85628235,0.16,0.15,0.09,0.14,352.89,352.89,0.0,0.0
1629641624.09973097,85728195,0.14,0.14,0.05,0.07,352.89,352.89,0.0,0.0
1629641624.19969106,85828155,0.14,0.13,0.04,0.03,352.89,352.89,0.0,0.0
1629641624.30048394,85928948,0.14,0.13,0.05,0.02,352.89,352.9,0.0,0.0
1629641624.40044403,86028908,0.15,0.13,0.07,0.04,352.89,352.9,0.0,0.0
1629641624.50040412,86128868,0.14,0.14,0.1,0.07,352.89,352.9,0.0,0.0
1629641624.60036397,86228828,0.16,0.14,0.12,0.1,352.89,352.9,0.0,0.0
1629641624.70032406,86328788,0.17,0.16,0.1,0.11,352.89,352.9,0.0,0.0
1629641624.80028391,86428748,0.18,0.17,0.1,0.1,352.89,352.9,0.0,0.0
1629641624.90024400,86528708,0.19,0.18,0.07,0.09,352.89,352.9,0.0,0.0
1629641625.00020409,86628668,0.16,0.17,0.07,0.06,352.89,352.9,0.0,0.0
1629641625.10016394,86728628,0.13,0.14,0.11,0.08,352.89,352.89,0.0,0.0
1629641625.20012403,86828588,0.09,0.1,0.14,0.11,352.89,352.89,0.0,0.0
1629641625.30008411,86928548,0.07,0.06,0.14,0.14,352.89,352.89,0.0,0.0
1629641625.40004396,87028508,0.1,0.06,0.13,0.14,352.89,352.89,0.0,0.0
1629641625.50000405,87128468,0.14,0.1,0.14,0.14,352.89,352.89,0.0,0.0
1629641625.59996390,87228428,0.17,0.15,0.15,0.14,352.89,352.89,0.0,0.0
1629641625.69992399,87328388,0.16,0.17,0.13,0.14,352.89,352.89,0.0,0.0
1629641625.79988408,87428348,0.16,0.18,0.1,0.12,352.89,352.89,0.0,0.0
1629641625.89984393,87528308,0.14,0.16,0.08,0.08,352.89,352.89,0.0,0.0
1629641625.99980402,87628268,0.14,0.14,0.07,0.06,352.89,352.89,0.0,0.0
1629641626.09976411,87728228,0.15,0.14,0.08,0.05,352.89,352.89,0.0,0.0
1629641626.19972396,87828188,0.16,0.15,0.1,0.07,352.89,352.89,0.0,0.0
1629641626.30051708,87928981,0.12,0.13,0.12,0.1,352.89,352.89,0.0,0.0
1629641626.40047693,88028941,0.09,0.1,0.12,0.12,352.89,352.89,0.0,0.0
1629641626.50043702,88128901,0.08,0.07,0.12,0.12,352.89,352.89,0.0,0.0
1629641626.60039711,88228861,0.1,0.07,0.13,0.12,352.89,352.89,0.0,0.0
1629641626.70035696,88328821,0.1,0.09,0.13,0.13,352.89,352.89,0.0,0.0
1629641626.80031705,88428781,0.1,0.09,0.11,0.11,352.89,352.9,0.0,0.0
1629641626.90027690,88528741,0.09,0.09,0.1,0.1,352.89,352.9,0.0,0.0
1629641627.00023699,88628701,-0.16,0.93,0.81,1.1,352.89,352.91,0.0,0.0
1629641627.10019708,88728661,-1.96,6.62,10.27,12.86,352.89,353.73,0.0,0.01
1629641627.20015693,88828621,-3.24,13.24,19.44,29.95,352.88,357.11,0.0,0.06
1629641627.30011702,88928581,-0.94,20.48,25.05,41.4,352.89,1.97,0.0,0.12
1629641627.40007710,89028541,3.11,31.62,27.25,50.06,352.89,8.59,0.0,0.14
1629641627.50003695,89128501,-0.29,36.07,20.96,51.83,352.9,10.26,0.01,0.15
1629641627.59999704,89228461,-9.81,30.8,9.36,48.4,352.92,5.77,0.01,0.12
1629641627.69995713,89328421,-19.39,22.22,-5.5,42.11,352.95,0.15,0.02,0.11
1629641627.79991698,89428381,-24.59,12.9,-19.36,33.0,352.97,355.43,0.02,0.12
1629641627.89987707,89528341,-25.23,3.0,-28.53,19.94,352.97,352.47,0.01,0.14
1629641627.99983692,89628301,-24.29,-6.08,-33.96,4.28,352.97,351.99,0.01,0.15
1629641628.09979701,89728261,-23.3,-13.03,-36.98,-10.85,352.97,353.03,0.02,0.17
1629641628.19975710,89828221,-22.66,-17.11,-38.59,-22.63,352.97,353.7,0.02,0.17
1629641628.29971695,89928181,-21.9,-17.91,-38.99,-30.36,352.97,352.87,0.03,0.16
1629641628.40051007,90028974,-20.09,-15.14,-37.19,-33.72,352.97,350.38,0.03,0.14
1629641628.50046992,90128934,-17.71,-10.24,-34.05,-33.51,352.97,347.5,0.03,0.12
1629641628.60043001,90228894,-15.76,-5.64,-30.41,-31.15,352.97,345.69,0.03,0.11
1629641628.70039010,90328854,-14.93,-3.22,-26.9,-27.93,352.97,345.49,0.02,0.11
1629641628.80034995,90428814,-15.24,-3.59,-23.82,-24.51,352.97,346.61,0.02,0.11
1629641628.90031004,90528774,-16.07,-6.19,-21.2,-21.17,352.97,348.51,0.02,0.1
1629641629.00027013,90628734,-16.73,-9.73,-19.05,-18.03,352.97,350.66,0.02,0.08
1629641629.10022998,90728694,-16.75,-12.92,-17.36,-15.23,352.97,352.68,0.02,0.07
1629641629.20019007,90828654,-15.9,-14.85,-16.1,-12.95,352.97,354.33,0.02,0.06
1629641629.30014992,90928614,-14.34,-15.24,-15.22,-11.33,352.97,355.48,0.02,0.04
1629641629.40011001,91028574,-12.39,-14.31,-14.61,-10.41,352.97,356.07,0.02,0.04
1629641629.50007010,91128534,-10.36,-12.53,-14.15,-10.13,352.97,356.1,0.02,0.04
1629641629.60002995,91228494,-8.47,-10.33,-13.69,-10.28,352.97,355.64,0.02,0.04
1629641629.69999003,91328454,-6.83,-8.06,-13.13,-10.61,352.97,354.82,0.02,0.04
1629641629.79995012,91428414,-5.52,-5.99,-12.41,-10.89,352.98,353.83,0.02,0.04
1629641629.89990997,91528374,-4.51,-4.28,-11.5,-10.89,352.98,352.86,0.02,0.04
1629641629.99987006,91628334,-3.75,-2.96,-10.4,-10.53,352.98,352.07,0.02,0.04
1629641630.09982991,91728294,-3.17,-2.06,-9.17,-9.78,352.98,351.56,0.02,0.04
1629641630.19979000,91828254,-2.66,-1.5,-7.93,-8.76,352.98,351.36,0.02,0.03
1629641630.29975009,91928214,-2.15,-1.12,-6.75,-7.6,352.98,351.45,0.01,0.03
1629641630.39970994,92028174,-1.62,-0.85,-5.65,-6.38,352.98,351.76,0.01,0.03
1629641630.50050306,92128967,-1.06,-0.6,-4.61,-5.16,352.98,352.19,0.01,0.03
1629641630.60046291,92228927,-0.42,-0.3,-3.63,-3.98,352.98,352.65,0.01,0.02
1629641630.70042300,92328887,0.3,0.11,-2.68,-2.86,352.98,353.07,0.01,0.02
1629641630.80038309,92428847,1.06,0.65,-1.75,-1.8,352.98,353.4,0.01,0.02
1629641630.90034294,92528807,1.8,1.28,-0.75,-0.76,352.98,353.6,0.01,0.02
1629641631.00030303,92628767,2.46,1.92,0.3,0.31,352.98,353.67,0.01,0.02
1629641631.10026312,92728727,2.98,2.52,1.21,1.33,352.98,353.62,0.01,0.02
1629641631.20022297,92828687,3.3,2.97,1.84,2.07,352.98,353.49,0.01,0.02
1629641631.30018306,92928647,3.49,3.29,2.28,2.53,352.98,353.29,0.01,0.02
1629641631.40014291,93028607,3.56,3.48,2.61,2.79,352.98,353.08,0.01,0.02
1629641631.50010300,93128567,3.53,3.54,2.86,2.94,352.98,352.89,0.01,0.01
1629641631.60006309,93228527,3.44,3.48,3.09,3.05,352.98,352.75,0.01,0.01
1629641631.70002294,93328487,3.34,3.39,3.27,3.16,352.98,352.66,0.0,0.01
1629641631.79998302,93428447,3.23,3.26,3.4,3.25,352.98,352.64,0.0,0.0
1629641631.89994311,93528407,3.12,3.14,3.47,3.32,352.98,352.66,0.0,0.0
1629641631.99990296,93628367,2.97,2.98,3.5,3.36,352.98,352.72,0.0,0.0
1629641632.09986305,93728327,2.81,2.79,3.47,3.36,352.98,352.8,0.0,0.0
1629641632.19982290,93828287,2.67,2.61,3.4,3.32,352.98,352.88,0.0,0.0
1629641632.29978299,93928247,2.53,2.45,3.28,3.25,352.98,352.96,0.0,0.0
1629641632.39974308,94028207,2.38,2.29,3.13,3.12,352.98,353.02,0.0,0.0
1629641632.49970293,94128167,2.23,2.12,2.97,2.96,352.98,353.07,0.0,0.0
1629641632.60049605,94228960,2.08,1.94,2.78,2.76,352.98,353.08,0.0,0.0
1629641632.70045590,94328920,1.96,1.82,2.6,2.57,352.98,353.08,0.0,0.0
1629641632.80041599,94428880,1.82,1.69,2.42,2.37,352.98,353.07,0.0,0.0
1629641632.90037608,94528840,1.65,1.54,2.24,2.17,352.98,353.04,0.0,0.0
1629641633.00033593,94628800,1.49,1.38,2.06,1.98,352.98,353.01,0.0,0.0
1629641633.10029602,94728760,1.36,1.26,1.87,1.79,352.98,352.98,0.0,0.0
1629641633.20025611,94828720,1.24,1.15,1.68,1.59,352.98,352.95,0.0,0.0
1629641633.30021596,94928680,1.12,1.04,1.5,1.41,352.98,352.94,0.0,0.0
1629641633.40017605,95028640,0.97,0.93,1.34,1.24,352.98,352.93,0.0,0.0
1629641633.50013590,95128600,0.83,0.79,1.18,1.08,352.98,352.93,0.0,0.0
1629641633.60009599,95228560,0.7,0.65,1.02,0.91,352.98,352.94,0.0,0.0
1629641633.70005608,95328520,0.61,0.55,0.89,0.78,352.98,352.95,0.0,0.0
1629641633.80001593,95428480,0.54,0.49,0.77,0.68,352.98,352.96,0.0,0.0
1629641633.89997602,95528440,0.45,0.41,0.69,0.6,352.98,352.97,0.0,0.0
1629641633.99993610,95628400,0.35,0.32,0.61,0.55,352.98,352.98,0.0,0.0
1629641634.09989595,95728360,0.27,0.23,0.52,0.49,352.98,352.98,0.0,0.0
1629641634.19985604,95828320,0.19,0.16,0.43,0.43,352.98,352.99,0.0,0.0
1629641634.29981613,95928280,0.14,0.12,0.32,0.34,352.98,352.99,0.0,0.0
1629641634.39977598,96028240,0.11,0.07,0.2,0.23,352.98,352.99,0.0,0.0
1629641634.49973607,96128200,0.09,0.06,0.12,0.13,352.98,352.99,0.0,0.0
1629641634.59969592,96228160,0.04,0.03,0.07,0.07,352.98,352.98,0.0,0.0
1629641634.70048904,96328953,0.02,0.0,0.04,0.02,352.98,352.98,0.0,0.0
1629641634.80044913,96428913,0.02,0.0,0.01,-0.01,352.98,352.97,0.0,0.0
1629641634.90040898,96528873,0.03,0.0,0.0,-0.03,352.98,352.97,0.0,0.0
1629641635.00036907,96628833,0.04,0.02,-0.03,-0.05,352.98,352.97,0.0,0.0
1629641635.10032892,96728793,0.04,0.02,-0.06,-0.09,352.98,352.97,0.0,0.0
1629641635.20028901,96828753,0.03,0.01,-0.09,-0.12,352.98,352.97,0.0,0.0
1629641635.30024910,96928713,0.0,0.0,-0.09,-0.12,352.98,352.97,0.0,0.0
1629641635.40020895,97028673,-0.03,-0.05,-0.09,-0.12,352.98,352.97,0.0,0.0
1629641635.50016904,97128633,-0.04,-0.08,-0.1,-0.13,352.98,352.97,0.0,0.0
1629641635.60012913,97228593,-0.02,-0.08,-0.1,-0.13,352.98,352.98,0.0,0.0
1629641635.70008898,97328553,0.0,-0.05,-0.09,-0.12,352.98,352.98,0.0,0.0
1629641635.80004907,97428513,0.0,-0.03,-0.07,-0.1,352.98,352.98,0.0,0.0
1629641635.90000892,97528473,0.0,-0.02,-0.06,-0.08,352.98,352.98,0.0,0.0
1629641635.99996901,97628433,0.01,0.0,-0.04,-0.06,352.98,352.97,0.0,0.0
1629641636.09992909,97728393,0.03,0.02,-0.03,-0.04,352.98,352.97,0.0,0.0
1629641636.19988894,97828353,0.03,0.02,-0.03,-0.04,352.98,352.97,0.0,0.0
1629641636.29984903,97928313,0.05,0.03,-0.05,-0.06,352.98,352.97,0.0,0.0
1629641636.39980912,98028273,0.08,0.05,-0.06,-0.08,352.98,352.97,0.0,0.0
1629641636.49976897,98128233,0.1,0.09,-0.04,-0.07,352.98,352.97,0.0,0.0
1629641636.59972906,98228193,0.1,0.11,0.0,-0.03,352.98,352.97,0.0,0.0
1629641636.70052195,98328986,0.11,0.11,0.02,0.0,352.98,352.96,0.0,0.0
1629641636.80048203,98428946,0.11,0.11,0.06,0.04,352.98,352.96,0.0,0.0
1629641636.90044212,98528906,0.1,0.11,0.09,0.08,352.98,352.96,0.0,0.0
1629641637.00040197,98628866,0.11,0.11,0.09,0.09,352.98,352.96,0.0,0.0
1629641637.10036206,98728826,0.11,0.12,0.1,0.11,352.98,352.97,0.0,0.0
1629641637.20032191,98828786,0.1,0.11,0.09,0.12,352.98,352.97,0.0,0.0
1629641637.30028200,98928746,0.1,0.11,0.09,0.12,352.98,352.97,0.0,0.0
1629641637.40024209,99028706,0.12,0.11,0.07,0.09,352.98,352.97,0.0,0.0
1629641637.50020194,99128666,0.11,0.1,0.06,0.07,352.98,352.97,0.0,0.0
1629641637.60016203,99228626,0.13,0.1,0.07,0.06,352.98,352.97,0.0,0.0
1629641637.70012212,99328586,0.14,0.12,0.09,0.07,352.98,352.97,0.0,0.0
1629641637.80008197,99428546,0.15,0.12,0.11,0.09,352.98,352.97,0.0,0.0
1629641637.90004206,99528506,0.17,0.14,0.09,0.09,352.98,352.97,0.0,0.0
1629641638.00000191,99628466,0.19,0.16,0.09,0.08,352.98,352.97,0.0,0.0
1629641638.09996200,99728426,0.21,0.18,0.1,0.08,352.98,352.97,0.0,0.0
1629641638.19992208,99828386,0.22,0.2,0.13,0.09,352.98,352.97,0.0,0.0
1629641638.29988194,99928346,0.22,0.21,0.14,0.11,352.98,352.97,0.0,0.0
1629641638.39984202,100028306,0.19,0.19,0.13,0.12,352.98,352.97,0.0,0.0
1629641638.49980211,100128266,0.16,0.17,0.12,0.12,352.98,352.97,0.0,0.0
1629641638.59976196,100228226,0.15,0.14,0.11,0.11,352.98,352.97,0.0,0.0
1629641638.69972205,100328186,0.17,0.15,0.1,0.1,352.98,352.98,0.0,0.0
1629641638.80051494,100428979,0.18,0.16,0.12,0.11,352.98,352.98,0.0,0.0
1629641638.90047503,100528939,0.19,0.17,0.16,0.14,352.98,352.98,0.0,0.0
1629641639.00043511,100628899,0.18,0.17,0.19,0.18,352.98,352.98,0.0,0.0
1629641639.10039496,100728859,0.17,0.16,0.18,0.19,352.98,352.98,0.0,0.0
1629641639.20035505,100828819,0.18,0.15,0.15,0.16,352.98,352.97,0.0,0.0
1629641639.30031490,100928779,0.21,0.17,0.14,0.13,352.98,352.97,0.0,0.0
1629641639.40027499,101028739,0.2,0.17,0.13,0.11,352.98,352.98,0.0,0.0
1629641639.50023508,101128699,0.18,0.15,0.15,0.11,352.98,352.98,0.0,0.0
1629641639.60019493,101228659,0.2,0.15,0.17,0.13,352.98,352.97,0.0,0.0
1629641639.70015502,101328619,0.23,0.19,0.17,0.15,352.98,352.97,0.0,0.0
1629641639.80011511,101428579,0.23,0.22,0.17,0.15,352.98,352.97,0.0,0.0
1629641639.90007496,101528539,0.21,0.21,0.16,0.16,352.98,352.97,0.0,0.0
1629641640.00003505,101628499,0.16,0.17,0.14,0.14,352.98,352.97,0.0,0.0
1629641640.09999490,101728459,0.16,0.14,0.15,0.14,352.98,352.97,0.0,0.0
1629641640.19995499,101828419,0.16,0.14,0.19,0.16,352.98,352.97,0.0,0.0
1629641640.29991508,101928379,0.19,0.16,0.23,0.21,352.98,352.97,0.0,0.0
1629641640.39987493,102028339,0.22,0.19,0.24,0.24,352.98,352.97,0.0,0.0
1629641640.49983501,102128299,0.23,0.22,0.21,0.23,352.98,352.98,0.0,0.0
1629641640.59979510,102228259,0.22,0.22,0.17,0.2,352.98,352.98,0.0,0.0
1629641640.69975495,102328219,0.21,0.22,0.13,0.15,352.98,352.98,0.0,0.0
1629641640.79971504,102428179,0.18,0.19,0.1,0.11,352.98,352.98,0.0,0.0
1629641640.90050793,102528972,0.14,0.15,0.1,0.09,352.98,352.98,0.0,0.0
1629641641.00046802,102628932,0.12,0.12,0.13,0.1,352.98,352.97,0.0,0.0
1629641641.10042810,102728892,0.12,0.1,0.14,0.11,352.98,352.97,0.0,0.0
1629641641.20038795,102828852,0.13,0.1,0.16,0.12,352.98,352.97,0.0,0.0
1629641641.30034804,102928812,0.17,0.13,0.17,0.13,352.98,352.97,0.0,0.0
1629641641.40030813,103028772,0.19,0.17,0.15,0.14,352.98,352.97,0.0,0.0
1629641641.50026798,103128732,0.19,0.19,0.15,0.14,352.98,352.97,0.0,0.0
1629641641.60022807,103228692,0.19,0.2,0.14,0.13,352.98,352.97,0.0,0.0
1629641641.70018792,103328652,0.18,0.19,0.16,0.14,352.98,352.97,0.0,0.0
1629641641.80014801,103428612,0.17,0.17,0.16,0.14,352.98,352.97,0.0,0.0
1629641641.90010810,103528572,0.19,0.17,0.18,0.16,352.98,352.97,0.0,0.0
1629641642.00006795,103628532,0.18,0.16,0.18,0.15,352.98,352.97,0.0,0.0
1629641642.10002804,103728492,0.16,0.14,0.2,0.16,352.98,352.97,0.0,0.0
1629641642.19998813,103828452,0.16,0.12,0.22,0.19,352.98,352.98,0.0,0.0
1629641642.29994798,103928412,0.17,0.13,0.25,0.22,352.98,352.98,0.0,0.0
1629641642.39990807,104028372,0.17,0.15,0.25,0.25,352.98,352.98,0.0,0.0
1629641642.49986792,104128332,0.18,0.18,0.24,0.26,352.98,352.98,0.0,0.0
1629641642.59982800,104228292,0.18,0.19,0.22,0.24,352.98,352.98,0.0,0.0
1629641642.69978809,104328252,0.18,0.19,0.19,0.23,352.98,352.98,0.0,0.0
1629641642.79974794,104428212,0.17,0.19,0.17,0.19,352.98,352.98,0.0,0.0
1629641642.89970803,104528172,0.17,0.18,0.17,0.17,352.98,352.98,0.0,0.0
1629641643.00050092,104628965,0.14,0.16,0.19,0.18,352.98,352.98,0.0,0.0
1629641643.10046101,104728925,0.13,0.13,0.21,0.19,352.98,352.98,0.0,0.0
1629641643.20042109,104828885,0.12,0.1,0.21,0.19,352.98,352.97,0.0,0.0
1629641643.30038095,104928845,0.12,0.09,0.21,0.19,352.98,352.97,0.0,0.0
1629641643.40034103,105028805,0.17,0.12,0.21,0.18,352.98,352.97,0.0,0.0
1629641643.50030112,105128765,0.22,0.17,0.22,0.18,352.98,352.98,0.0,0.0
1629641643.60026097,105228725,0.24,0.22,0.23,0.19,352.98,352.98,0.0,0.0
1629641643.70022106,105328685,0.25,0.24,0.23,0.21,352.98,352.98,0.0,0.0
1629641643.80018091,105428645,0.22,0.22,0.23,0.21,352.98,352.98,0.0,0.0
1629641643.90014100,105528605,0.2,0.2,0.21,0.2,352.98,352.98,0.0,0.0
1629641644.00010109,105628565,0.2,0.19,0.18,0.18,352.98,352.97,0.0,0.0
1629641644.10006094,105728525,0.23,0.21,0.19,0.18,352.98,352.97,0.0,0.0
1629641644.20002103,105828485,0.26,0.23,0.2,0.17,352.98,352.97,0.0,0.0
1629641644.29998112,105928445,0.27,0.25,0.21,0.19,352.98,352.97,0.0,0.0
1629641644.39994097,106028405,0.25,0.26,0.22,0.21,352.98,352.97,0.0,0.0
1629641644.49990106,106128365,0.26,0.26,0.19,0.21,352.98,352.97,0.0,0.0
1629641644.59986091,106228325,0.25,0.27,0.13,0.17,352.98,352.97,0.0,0.0
1629641644.69982100,106328285,0.25,0.26,0.1,0.12,352.98,352.97,0.0,0.0
1629641644.79978108,106428245,0.25,0.26,0.09,0.09,352.98,352.98,0.0,0.0
1629641644.89974093,106528205,0.25,0.26,0.1,0.09,352.98,352.98,0.0,0.0
1629641644.99970102,106628165,0.24,0.25,0.12,0.11,352.98,352.98,0.0,0.0
1629641645.10049391,106728958,0.24,0.23,0.17,0.14,352.98,352.98,0.0,0.0
1629641645.20045400,106828918,0.25,0.22,0.2,0.17,352.98,352.98,0.0,0.0
1629641645.30041409,106928878,0.24,0.22,0.19,0.19,352.98,352.98,0.0,0.0
1629641645.40037394,107028838,0.22,0.2,0.16,0.17,352.98,352.98,0.0,0.0
1629641645.50033402,107128798,0.19,0.17,0.13,0.14,352.98,352.98,0.0,0.0
1629641645.60029411,107228758,0.18,0.15,0.12,0.1,352.98,352.98,0.0,0.0
1629641645.70025396,107328718,0.16,0.14,0.12,0.09,352.98,352.98,0.0,0.0
1629641645.80021405,107428678,0.13,0.12,0.14,0.11,352.98,352.98,0.0,0.0
1629641645.90017390,107528638,0.13,0.11,0.15,0.13,352.98,352.98,0.0,0.0
1629641646.00013399,107628598,0.15,0.13,0.17,0.15,352.98,352.98,0.0,0.0
1629641646.10009408,107728558,0.14,0.13,0.17,0.16,352.98,352.98,0.0,0.0
1629641646.20005393,107828518,0.12,0.11,0.18,0.16,352.98,352.98,0.0,0.0
1629641646.30001402,107928478,0.1,0.08,0.19,0.16,352.98,352.98,0.0,0.0
1629641646.39997411,108028438,0.09,0.06,0.18,0.16,352.98,352.98,0.0,0.0
1629641646.49993396,108128398,0.1,0.08,0.17,0.16,352.98,352.98,0.0,0.0
1629641646.59989405,108228358,0.11,0.1,0.16,0.16,352.98,352.98,0.0,0.0
1629641646.69985414,108328318,0.1,0.1,0.16,0.16,352.98,352.98,0.0,0.0
1629641646.79981399,108428278,0.13,0.12,0.15,0.16,352.98,352.98,0.0,0.0
1629641646.89977407,108528238,0.17,0.17,0.14,0.14,352.98,352.98,0.0,0.0
1629641646.99973392,108628198,0.17,0.2,0.15,0.15,352.98,352.98,0.0,0.0
1629641647.09969401,108728158,0.16,0.19,0.16,0.16,352.98,352.98,0.0,0.0
1629641647.20048690,108828951,0.16,0.18,0.17,0.18,352.98,352.97,0.0,0.0
1629641647.30044699,108928911,0.13,0.16,0.08,0.13,352.98,352.97,0.0,0.0
1629641647.40040708,109028871,0.06,0.08,-0.23,-0.09,352.98,352.97,0.0,0.0
1629641647.50036693,109128831,-0.01,0.0,-0.82,-0.6,352.98,352.98,0.0,0.0
1629641647.60032701,109228791,-0.09,-0.1,-1.59,-1.36,352.98,352.99,0.0,0.0
1629641647.70028710,109328751,-0.18,-0.2,-2.5,-2.31,352.98,353.01,0.0,0.0
1629641647.80024695,109428711,-0.27,-0.3,-3.39,-3.3,352.98,353.02,0.0,0.0
1629641647.90020704,109528671,-0.35,-0.38,-4.08,-4.13,352.98,353.02,0.0,0.0
1629641648.00016713,109628631,-0.42,-0.44,-4.57,-4.73,352.98,353.01,0.0,0.0
1629641648.10012698,109728591,-0.49,-0.49,-4.96,-5.13,352.98,353.0,0.0,0.0
1629641648.20008707,109828551,-0.56,-0.54,-5.36,-5.47,352.98,352.98,0.0,0.0
1629641648.30004692,109928511,-0.62,-0.58,-5.8,-5.83,352.98,352.97,0.0,0.0
1629641648.40000701,110028471,-0.68,-0.64,-6.26,-6.24,352.98,352.96,0.0,0.0
1629641648.49996710,110128431,-0.74,-0.69,-6.74,-6.69,352.98,352.96,0.0,0.0
1629641648.59992695,110228391,-0.79,-0.73,-7.2,-7.15,352.98,352.96,0.0,0.0
1629641648.69988704,110328351,-0.86,-0.79,-7.57,-7.56,352.98,352.96,0.0,0.0
1629641648.79984713,110428311,-0.93,-0.85,-7.8,-7.84,352.98,352.96,0.0,0.0
1629641648.89980698,110528271,-0.97,-0.9,-7.96,-8.0,352.98,352.96,0.0,0.0
1629641648.99976707,110628231,-1.02,-0.95,-8.11,-8.12,352.98,352.97,0.0,0.0
1629641649.09972692,110728191,-1.07,-0.98,-8.26,-8.22,352.98,352.97,0.0,0.0
1629641649.20052004,110828984,-1.12,-1.03,-8.42,-8.34,352.98,352.97,0.0,0.0
1629641649.30048013,110928944,-1.18,-1.12,-8.65,-8.5,352.29,352.97,0.0,0.0
1629641649.40043998,111028904,-1.24,-1.68,-8.97,-8.53,349.59,352.7,0.0,0.0
1629641649.50040007,111128864,-1.16,-2.37,-9.43,-8.48,347.84,351.68,0.0,0.0
1629641649.60035992,111228824,-0.81,-2.39,-10.01,-8.77,346.94,350.01,0.0,0.0
1629641649.70032001,111328784,-0.23,-1.53,-10.66,-9.56,346.5,348.06,0.0,0.01
1629641649.80028009,111428744,0.39,-0.1,-11.25,-10.66,346.32,346.18,0.0,0.0
1629641649.90023994,111528704,0.81,1.36,-11.71,-11.75,346.25,344.63,0.0,0.0
1629641650.00020003,111628664,0.91,2.41,-11.99,-12.58,346.22,343.59,0.0,0.0
1629641650.10016012,111728624,0.72,2.82,-12.14,-13.03,346.18,343.11,0.0,0.0
1629641650.20011997,111828584,0.32,2.58,-12.23,-13.16,346.12,343.15,0.0,0.0
1629641650.30008006,111928544,-0.17,1.84,-12.38,-13.11,346.01,343.58,0.0,0.0
1629641650.40003991,112028504,-0.62,0.85,-12.64,-13.05,345.88,344.24,0.0,0.0
1629641650.50000000,112128464,-0.91,-0.12,-13.02,-13.06,345.73,344.96,0.0,0.0
1629641650.59996009,112228424,-1.01,-0.87,-13.48,-13.2,345.6,345.61,0.0,0.0
1629641650.69991994,112328384,-0.95,-1.3,-13.97,-13.46,345.48,346.11,0.0,0.0
1629641650.79988003,112428344,-0.78,-1.43,-14.45,-13.82,345.4,346.4,0.0,0.0
1629641650.89984012,112528304,-0.57,-4.08,-14.93,-16.99,345.34,346.62,0.0,0.0
1629641650.99979997,112628264,-0.19,-10.95,-15.37,-24.44,345.32,347.56,0.0,0.02
1629641651.09976006,112728224,1.19,-16.59,-14.57,-30.28,345.37,348.94,0.0,0.06
1629641651.19971991,112828184,4.3,-18.03,-11.91,-32.17,345.56,349.32,0.0,0.07
1629641651.30051303,112928977,8.75,-14.72,-7.71,-29.99,345.95,348.24,0.0,0.06
1629641651.40047312,113028937,13.08,-8.62,-3.05,-24.84,346.54,346.68,0.0,0.07
1629641651.50043297,113128897,16.01,-2.25,0.54,-18.41,347.28,345.59,0.0,0.09
