timestamp,TimeUS,DesRoll,Roll,DesPitch,Pitch,DesYaw,Yaw,ErrRP,ErrYaw
1629641202.70004010,42328895,0.0,0.1,0.0,0.09,352.88,352.89,0.0,0.0
1629641202.79999995,42428855,0.0,0.1,0.0,0.09,352.88,352.89,0.0,0.0
1629641202.89996004,42528815,0.0,0.1,0.0,0.09,352.88,352.89,0.0,0.0
1629641202.99991989,42628775,0.0,0.1,0.0,0.08,352.88,352.89,0.0,0.0
1629641203.09987998,42728735,0.0,0.1,0.0,0.09,352.88,352.89,0.0,0.0
1629641203.19984007,42828695,0.0,0.1,0.0,0.08,352.88,352.89,0.0,0.0
1629641203.29979992,42928655,0.0,0.1,0.0,0.08,352.88,352.89,0.0,0.0
1629641203.39976001,43028615,0.0,0.1,0.0,0.08,352.87,352.88,0.0,0.0
1629641203.49972010,43128575,0.0,0.1,0.0,0.08,352.87,352.88,0.0,0.0
1629641203.59967995,43228535,0.0,0.1,0.0,0.08,352.87,352.88,0.0,0.0
1629641203.69964004,43328495,0.0,0.1,0.0,0.08,352.87,352.88,0.0,0.0
1629641203.79960012,43428455,0.0,0.1,0.0,0.08,352.87,352.88,0.0,0.0
1629641203.89955997,43528415,0.0,0.1,0.0,0.08,352.87,352.88,0.0,0.0
1629641203.99952006,43628375,0.0,0.1,0.0,0.08,352.87,352.88,0.0,0.0
1629641204.09947991,43728335,0.0,0.1,0.0,0.08,352.87,352.88,0.0,0.0
1629641204.19944000,43828295,0.0,0.1,0.0,0.08,352.87,352.88,0.0,0.0
1629641204.29940009,43928255,0.0,0.1,0.0,0.08,352.87,352.88,0.0,0.0
1629641204.39935994,44028215,0.0,0.1,0.0,0.08,352.87,352.88,0.0,0.0
1629641204.49932003,44128175,0.0,0.1,0.0,0.08,352.87,352.88,0.0,0.0
1629641204.60011292,44228968,0.0,0.09,0.0,0.08,352.87,352.88,0.0,0.0
1629641204.70007300,44328928,0.0,0.09,0.0,0.08,352.87,352.88,0.0,0.0
1629641204.80003309,44428888,0.0,0.09,0.0,0.07,352.87,352.88,0.0,0.0
1629641204.89999294,44528848,0.0,0.09,0.0,0.07,352.87,352.88,0.0,0.0
1629641204.99995303,44628808,0.0,0.09,0.0,0.07,352.87,352.88,0.0,0.0
1629641205.09991312,44728768,-0.01,0.09,-0.01,0.07,352.87,352.88,0.0,0.0
1629641205.19987297,44828728,-0.06,0.09,-0.06,0.07,352.87,352.88,0.0,0.0
1629641205.29983306,44928688,-0.05,0.09,-0.05,0.07,352.87,352.88,0.0,0.0
1629641205.39979291,45028648,-0.1,0.09,-0.11,0.07,352.87,352.88,0.0,0.0
1629641205.49975300,45128608,-0.16,0.09,-0.16,0.07,352.87,352.88,0.0,0.0
1629641205.59971309,45228568,-0.2,0.09,-0.2,0.07,352.87,352.88,0.0,0.0
1629641205.69967294,45328528,-0.22,0.09,-0.21,0.07,352.87,352.88,0.0,0.0
1629641205.79963303,45428488,-0.23,0.09,-0.22,0.07,352.87,352.88,0.0,0.0
1629641205.89959311,45528448,-0.25,0.09,-0.23,0.07,352.87,352.88,0.0,0.0
1629641205.99955297,45628408,-0.26,0.08,-0.25,0.07,352.87,352.88,0.0,0.0
1629641206.09951305,45728368,-0.28,0.08,-0.27,0.07,352.87,352.88,0.0,0.0
1629641206.19947290,45828328,-0.3,0.08,-0.29,0.07,352.87,352.88,0.0,0.0
1629641206.29943299,45928288,-0.33,0.08,-0.3,0.07,352.87,352.88,0.0,0.0
1629641206.39939308,46028248,-0.37,0.08,-0.3,0.07,352.87,352.88,0.0,0.0
1629641206.49935293,46128208,-0.37,0.08,-0.29,0.07,352.87,352.88,0.0,0.0
1629641206.59931302,46228168,-0.39,0.08,-0.29,0.07,352.87,352.88,0.0,0.0
1629641206.70010591,46328961,-0.42,0.04,-0.33,0.03,352.87,352.88,0.0,0.0
1629641206.80006599,46428921,-0.43,-0.19,-0.37,-0.18,352.87,352.88,0.0,0.0
1629641206.90002608,46528881,-0.39,-0.47,-0.36,-0.43,352.87,352.88,0.0,0.0
1629641206.99998593,46628841,-0.27,-0.6,-0.29,-0.57,352.87,352.88,0.0,0.0
1629641207.09994602,46728801,-0.1,-0.58,-0.17,-0.58,352.87,352.88,0.0,0.0
1629641207.19990611,46828761,0.04,-0.45,-0.03,-0.47,352.87,352.88,0.0,0.0
1629641207.29986596,46928721,0.19,-0.26,0.12,-0.29,352.87,352.88,0.0,0.0
1629641207.39982605,47028681,0.34,-0.04,0.27,-0.08,352.87,352.87,0.0,0.0
1629641207.49978590,47128641,0.42,0.12,0.35,0.09,352.87,352.87,0.0,0.0
1629641207.59974599,47228601,0.45,0.22,0.37,0.19,352.87,352.87,0.0,0.0
1629641207.69970608,47328561,0.44,0.26,0.38,0.23,352.87,352.87,0.0,0.0
1629641207.79966593,47428521,0.45,0.26,0.33,0.22,352.87,352.87,0.0,0.0
1629641207.89962602,47528481,0.48,0.28,0.28,0.16,352.87,352.87,0.0,0.0
1629641207.99958611,47628441,0.46,0.28,0.26,0.11,352.87,352.87,0.0,0.0
1629641208.09954596,47728401,0.43,0.27,0.27,0.09,352.87,352.87,0.0,0.0
1629641208.19950604,47828361,0.39,0.24,0.3,0.12,352.87,352.87,0.0,0.0
1629641208.29946589,47928321,0.41,0.24,0.29,0.15,352.87,352.87,0.0,0.0
1629641208.39942598,48028281,0.43,0.27,0.27,0.15,352.87,352.87,0.0,0.0
1629641208.49938607,48128241,0.41,0.29,0.25,0.15,352.8,352.8,0.0,0.0
1629641208.59934592,48228201,0.38,0.3,0.24,0.14,352.8,352.81,0.0,0.0
1629641208.69930601,48328161,0.32,0.26,0.22,0.13,352.8,352.81,0.0,0.0
1629641208.80009890,48428954,0.26,0.2,0.22,0.13,352.8,352.81,0.0,0.0
1629641208.90005898,48528914,0.21,0.13,0.22,0.14,352.8,352.81,0.0,0.0
1629641209.00001907,48628874,0.18,0.08,0.2,0.14,352.8,352.82,0.0,0.0
1629641209.09997892,48728834,0.15,0.05,0.18,0.13,352.8,352.82,0.0,0.0
1629641209.19993901,48828794,0.15,0.05,0.15,0.11,352.8,352.82,0.0,0.0
1629641209.29989910,48928754,0.17,0.07,0.11,0.08,352.8,352.82,0.0,0.0
1629641209.39985895,49028714,0.19,0.11,0.08,0.05,352.8,352.82,0.0,0.0
1629641209.49981904,49128674,0.21,0.14,0.07,0.01,352.8,352.82,0.0,0.0
1629641209.59977913,49228634,0.21,0.17,0.07,0.0,352.8,352.82,0.0,0.0
1629641209.69973898,49328594,0.18,0.17,0.06,0.01,352.8,352.81,0.0,0.0
1629641209.79969907,49428554,0.12,0.13,0.03,0.0,352.8,352.81,0.0,0.0
1629641209.89965892,49528514,0.08,0.08,0.0,-0.01,352.8,352.81,0.0,0.0
1629641209.99961901,49628474,0.05,0.03,-0.03,-0.05,352.8,352.81,0.0,0.0
1629641210.09957910,49728434,0.03,0.0,-0.03,-0.07,352.8,352.81,0.0,0.0
1629641210.19953895,49828394,0.0,-0.02,0.03,-0.04,352.8,352.81,0.0,0.0
1629641210.29949903,49928354,0.0,-0.03,0.11,0.03,352.8,352.81,0.0,0.0
1629641210.39945912,50028314,0.02,-0.02,0.14,0.11,352.8,352.8,0.0,0.0
1629641210.49941897,50128274,0.04,0.0,0.11,0.13,352.8,352.8,0.0,0.0
1629641210.59937906,50228234,0.05,0.03,0.06,0.1,352.8,352.8,0.0,0.0
1629641210.69933891,50328194,0.06,0.04,0.0,0.04,352.8,352.8,0.0,0.0
1629641210.79929900,50428154,0.06,0.05,-0.05,-0.04,352.8,352.81,0.0,0.0
1629641210.90009212,50528947,0.07,0.06,-0.08,-0.1,352.8,352.81,0.0,0.0
1629641211.00005198,50628907,0.06,0.06,-0.07,-0.12,352.8,352.81,0.0,0.0
1629641211.10001206,50728867,0.06,0.06,-0.01,-0.08,352.8,352.81,0.0,0.0
1629641211.19997191,50828827,0.07,0.06,0.06,0.0,352.8,352.81,0.0,0.0
1629641211.29993200,50928787,0.11,0.08,0.13,0.09,352.8,352.81,0.0,0.0
1629641211.39989209,51028747,0.14,0.12,0.14,0.14,352.8,352.81,0.0,0.0
1629641211.49985194,51128707,0.15,0.15,0.1,0.14,352.8,352.81,0.0,0.0
1629641211.59981203,51228667,0.17,0.17,0.06,0.11,352.8,352.8,0.0,0.0
1629641211.69977212,51328627,0.2,0.2,0.05,0.08,352.8,352.8,0.0,0.0
1629641211.79973197,51428587,0.19,0.21,0.06,0.06,352.8,352.8,0.0,0.0
1629641211.89969206,51528547,0.14,0.18,0.09,0.07,352.8,352.8,0.0,0.0
1629641211.99965191,51628507,0.11,0.12,0.1,0.09,352.8,352.8,0.0,0.0
1629641212.09961200,51728467,0.08,0.07,0.09,0.1,352.8,352.8,0.0,0.0
1629641212.19957209,51828427,0.06,0.04,0.1,0.09,352.8,352.8,0.0,0.0
1629641212.29953194,51928387,0.06,0.02,0.12,0.1,352.8,352.8,0.0,0.0
1629641212.39949203,52028347,0.05,0.02,0.14,0.12,352.8,352.81,0.0,0.0
1629641212.49945211,52128307,0.05,0.03,0.15,0.14,352.8,352.81,0.0,0.0
1629641212.59941196,52228267,0.04,0.02,0.12,0.14,352.8,352.82,0.0,0.0
1629641212.69937205,52328227,0.06,0.03,0.11,0.12,352.8,352.82,0.0,0.0
1629641212.79933190,52428187,0.09,0.05,0.11,0.12,352.8,352.82,0.0,0.0
1629641212.90012503,52528980,0.11,0.08,0.1,0.11,352.8,352.82,0.0,0.0
1629641213.00008512,52628940,0.1,0.1,0.08,0.08,352.8,352.82,0.0,0.0
1629641213.10004497,52728900,0.08,0.09,0.09,0.06,352.8,352.82,0.0,0.0
1629641213.20000505,52828860,0.09,0.09,0.11,0.07,352.8,352.82,0.0,0.0
1629641213.29996490,52928820,0.09,0.08,0.16,0.12,352.8,352.82,0.0,0.0
1629641213.39992499,53028780,0.07,0.07,0.19,0.17,352.8,352.82,0.0,0.0
1629641213.49988508,53128740,0.08,0.07,0.17,0.18,352.8,352.81,0.0,0.0
1629641213.59984493,53228700,0.06,0.07,0.14,0.17,352.8,352.81,0.0,0.0
1629641213.69980502,53328660,0.05,0.06,0.11,0.13,352.8,352.81,0.0,0.0
1629641213.79976511,53428620,0.05,0.05,0.09,0.09,352.8,352.81,0.0,0.0
1629641213.89972496,53528580,0.06,0.06,0.1,0.07,352.8,352.81,0.0,0.0
1629641213.99968505,53628540,0.06,0.06,0.15,0.11,352.8,352.81,0.0,0.0
1629641214.09964490,53728500,0.09,0.07,0.16,0.15,352.8,352.81,0.0,0.0
1629641214.19960499,53828460,0.12,0.1,0.19,0.18,352.8,352.81,0.0,0.0
1629641214.29956508,53928420,0.14,0.13,0.17,0.19,352.8,352.82,0.0,0.0
1629641214.39952493,54028380,0.14,0.14,0.14,0.16,352.8,352.82,0.0,0.0
1629641214.49948502,54128340,0.1,0.13,0.09,0.12,352.8,352.82,0.0,0.0
1629641214.59944510,54228300,0.05,0.07,0.05,0.07,352.8,352.82,0.0,0.0
1629641214.69940495,54328260,0.01,0.02,0.02,0.02,352.8,352.82,0.0,0.0
1629641214.79936504,54428220,0.02,0.0,0.05,0.01,352.8,352.82,0.0,0.0
1629641214.89932489,54528180,0.05,0.0,0.09,0.04,352.8,352.82,0.0,0.0
1629641215.00011802,54628973,0.06,0.03,0.1,0.08,352.8,352.81,0.0,0.0
1629641215.10007811,54728933,0.08,0.06,0.06,0.07,352.8,352.81,0.0,0.0
1629641215.20003796,54828893,0.11,0.1,0.03,0.04,352.8,352.82,0.0,0.0
1629641215.29999804,54928853,0.11,0.13,0.01,0.01,352.8,352.82,0.0,0.0
1629641215.39995790,55028813,0.09,0.13,0.0,0.0,352.8,352.81,0.0,0.0
1629641215.49991798,55128773,0.04,0.09,0.0,0.0,352.8,352.81,0.0,0.0
1629641215.59987807,55228733,0.0,0.03,-0.01,-0.01,352.8,352.81,0.0,0.0
1629641215.69983792,55328693,0.0,0.0,0.01,0.0,352.8,352.81,0.0,0.0
1629641215.79979801,55428653,0.02,0.0,0.07,0.05,352.8,352.81,0.0,0.0
1629641215.89975810,55528613,0.06,0.03,0.07,0.08,352.8,352.8,0.0,0.0
1629641215.99971795,55628573,0.09,0.07,0.06,0.08,352.8,352.8,0.0,0.0
1629641216.09967804,55728533,0.08,0.08,0.03,0.07,352.8,352.8,0.0,0.0
1629641216.19963813,55828493,0.06,0.07,0.02,0.04,352.8,352.79,0.0,0.0
1629641216.29959798,55928453,0.06,0.05,0.02,0.01,352.8,352.79,0.0,0.0
1629641216.39955807,56028413,0.08,0.08,0.01,0.0,352.8,352.8,0.0,0.0
1629641216.49951792,56128373,0.09,0.08,0.02,0.0,352.8,352.8,0.0,0.0
1629641216.59947801,56228333,0.09,0.08,0.01,0.0,352.8,352.8,0.0,0.0
1629641216.69943810,56328293,0.08,0.08,0.01,0.0,352.8,352.8,0.0,0.0
1629641216.79939795,56428253,0.07,0.06,0.02,0.01,352.8,352.81,0.0,0.0
1629641216.89935803,56528213,0.08,0.05,0.03,0.03,352.8,352.81,0.0,0.0
1629641216.99931812,56628173,0.1,0.07,0.03,0.03,352.8,352.81,0.0,0.0
1629641217.10011101,56728966,0.12,0.09,0.02,0.03,352.8,352.82,0.0,0.0
1629641217.20007110,56828926,0.12,0.11,0.02,0.03,352.8,352.82,0.0,0.0
1629641217.30003095,56928886,0.1,0.11,0.03,0.03,352.8,352.82,0.0,0.0
1629641217.39999104,57028846,0.09,0.1,0.05,0.04,352.8,352.82,0.0,0.0
1629641217.49995112,57128806,0.07,0.09,0.08,0.06,352.8,352.82,0.0,0.0
1629641217.59991097,57228766,0.06,0.06,0.09,0.07,352.8,352.82,0.0,0.0
1629641217.69987106,57328726,0.07,0.06,0.12,0.09,352.8,352.81,0.0,0.0
1629641217.79983091,57428686,0.06,0.06,0.15,0.13,352.8,352.81,0.0,0.0
1629641217.89979100,57528646,0.04,0.05,0.16,0.16,352.8,352.81,0.0,0.0
1629641217.99975109,57628606,0.04,0.03,0.15,0.17,352.8,352.8,0.0,0.0
1629641218.09971094,57728566,0.08,0.05,0.16,0.17,352.8,352.8,0.0,0.0
1629641218.19967103,57828526,0.09,0.08,0.16,0.17,352.8,352.8,0.0,0.0
1629641218.29963112,57928486,0.1,0.1,0.15,0.16,352.8,352.8,0.0,0.0
1629641218.39959097,58028446,0.09,0.1,0.12,0.13,352.8,352.8,0.0,0.0
1629641218.49955106,58128406,0.06,0.07,0.09,0.09,352.8,352.81,0.0,0.0
1629641218.59951091,58228366,0.04,0.04,0.07,0.05,352.8,352.81,0.0,0.0
1629641218.69947100,58328326,0.02,0.01,0.08,0.05,352.8,352.81,0.0,0.0
1629641218.79943109,58428286,0.03,0.01,0.1,0.07,352.8,352.81,0.0,0.0
1629641218.89939094,58528246,0.04,0.02,0.12,0.1,352.8,352.81,0.0,0.0
1629641218.99935102,58628206,0.05,0.03,0.12,0.11,352.8,352.81,0.0,0.0
1629641219.09931111,58728166,0.06,0.05,0.14,0.13,352.8,352.81,0.0,0.0
1629641219.20010400,58828959,0.05,0.06,0.14,0.15,352.8,352.81,0.0,0.0
1629641219.30006409,58928919,0.06,0.07,0.11,0.14,352.8,352.81,0.0,0.0
1629641219.40002394,59028879,0.09,0.08,0.06,0.1,352.8,352.81,0.0,0.0
1629641219.49998403,59128839,0.11,0.09,0.04,0.06,352.8,352.81,0.0,0.0
1629641219.59994411,59228799,0.12,0.11,0.02,0.02,352.8,352.8,0.0,0.0
1629641219.69990396,59328759,0.14,0.13,0.05,0.01,352.8,352.8,0.0,0.0
1629641219.79986405,59428719,0.15,0.14,0.08,0.03,352.8,352.8,0.0,0.0
1629641219.89982390,59528679,0.14,0.14,0.08,0.05,352.8,352.8,0.0,0.0
1629641219.99978399,59628639,0.13,0.14,0.07,0.05,352.8,352.8,0.0,0.0
1629641220.09974408,59728599,0.09,0.11,0.05,0.05,352.8,352.8,0.0,0.0
1629641220.19970393,59828559,0.07,0.07,0.04,0.03,352.8,352.8,0.0,0.0
1629641220.29966402,59928519,0.07,0.05,0.02,0.02,352.8,352.8,0.0,0.0
1629641220.39962411,60028479,0.1,0.06,0.0,0.01,352.8,352.81,0.0,0.0
1629641220.49958396,60128439,0.1,0.08,-0.01,-0.01,352.8,352.81,0.0,0.0
1629641220.59954405,60228399,0.1,0.08,0.01,-0.01,352.8,352.81,0.0,0.0
1629641220.69950390,60328359,0.09,0.08,0.04,0.01,352.8,352.82,0.0,0.0
1629641220.79946399,60428319,0.09,0.08,0.07,0.04,352.8,352.82,0.0,0.0
1629641220.89942408,60528279,0.08,0.09,0.07,0.07,352.8,352.82,0.0,0.0
1629641220.99938393,60628239,0.08,0.09,0.05,0.08,352.8,352.82,0.0,0.0
1629641221.09934402,60728199,0.09,0.09,0.02,0.05,352.8,352.82,0.0,0.0
1629641221.19930410,60828159,0.12,0.1,0.03,0.04,352.8,352.81,0.0,0.0
1629641221.30009699,60928952,0.12,0.12,0.01,0.02,352.8,352.81,0.0,0.0
1629641221.40005708,61028912,0.09,0.11,0.0,0.0,352.8,352.81,0.0,0.0
1629641221.50001693,61128872,0.07,0.08,0.01,0.0,352.8,352.8,0.0,0.0
1629641221.59997702,61228832,0.08,0.07,0.04,0.02,352.8,352.8,0.0,0.0
1629641221.69993711,61328792,0.11,0.09,0.06,0.04,352.8,352.8,0.0,0.0
1629641221.79989696,61428752,0.13,0.12,0.08,0.07,352.8,352.8,0.0,0.0
1629641221.89985704,61528712,0.12,0.12,0.09,0.08,352.8,352.8,0.0,0.0
1629641221.99981689,61628672,0.11,0.12,0.09,0.09,352.8,352.8,0.0,0.0
1629641222.09977698,61728632,0.13,0.13,0.12,0.1,352.8,352.8,0.0,0.0
1629641222.19973707,61828592,0.12,0.12,0.15,0.13,352.8,352.8,0.0,0.0
1629641222.29969692,61928552,0.14,0.13,0.13,0.14,352.8,352.8,0.0,0.0
1629641222.39965701,62028512,0.13,0.14,0.07,0.1,352.8,352.8,0.0,0.0
1629641222.49961710,62128472,0.1,0.13,0.05,0.06,352.8,352.8,0.0,0.0
1629641222.59957695,62228432,0.1,0.11,0.07,0.04,352.8,352.8,0.0,0.0
1629641222.69953704,62328392,0.13,0.11,0.1,0.06,352.8,352.8,0.0,0.0
1629641222.79949713,62428352,0.14,0.12,0.12,0.09,352.8,352.8,0.0,0.0
1629641222.89945698,62528312,0.14,0.13,0.14,0.12,352.8,352.8,0.0,0.0
1629641222.99941707,62628272,0.11,0.12,0.12,0.14,352.8,352.81,0.0,0.0
1629641223.09937692,62728232,0.07,0.08,0.1,0.12,352.8,352.81,0.0,0.0
1629641223.19933701,62828192,0.06,0.05,0.08,0.08,352.8,352.81,0.0,0.0
1629641223.30013013,62928985,0.07,0.05,0.08,0.07,352.8,352.81,0.0,0.0
1629641223.40008998,63028945,0.08,0.06,0.08,0.07,352.8,352.81,0.0,0.0
1629641223.50005007,63128905,0.07,0.07,0.11,0.08,352.8,352.81,0.0,0.0
1629641223.60000992,63228865,0.06,0.07,0.12,0.1,352.8,352.82,0.0,0.0
1629641223.69997001,63328825,0.04,0.05,0.16,0.14,352.8,352.82,0.0,0.0
1629641223.79993010,63428785,0.04,0.04,0.21,0.19,352.8,352.81,0.0,0.0
1629641223.89988995,63528745,0.07,0.05,0.21,0.23,352.8,352.81,0.0,0.0
1629641223.99985003,63628705,0.08,0.05,0.19,0.22,352.8,352.81,0.0,0.0
1629641224.09981012,63728665,0.1,0.08,0.18,0.2,352.8,352.81,0.0,0.0
1629641224.19976997,63828625,0.12,0.1,0.17,0.18,352.8,352.81,0.0,0.0
1629641224.29973006,63928585,0.12,0.12,0.15,0.15,352.8,352.81,0.0,0.0
1629641224.39968991,64028545,0.11,0.11,0.13,0.13,352.8,352.81,0.0,0.0
1629641224.49965000,64128505,0.1,0.1,0.15,0.12,352.8,352.81,0.0,0.0
1629641224.59961009,64228465,0.09,0.09,0.14,0.12,352.8,352.8,0.0,0.0
1629641224.69956994,64328425,0.08,0.07,0.11,0.1,352.8,352.8,0.0,0.0
1629641224.79953003,64428385,0.08,0.07,0.09,0.08,352.8,352.8,0.0,0.0
1629641224.89949012,64528345,0.08,0.07,0.09,0.07,352.8,352.81,0.0,0.0
1629641224.99944997,64628305,0.11,0.08,0.08,0.07,352.8,352.81,0.0,0.0
1629641225.09941006,64728265,0.13,0.12,0.09,0.08,352.8,352.81,0.0,0.0
1629641225.19936991,64828225,0.13,0.13,0.08,0.07,352.8,352.81,0.0,0.0
1629641225.29933000,64928185,0.15,0.13,0.06,0.07,352.8,352.81,0.0,0.0
1629641225.40012312,65028978,0.15,0.13,0.07,0.07,352.8,352.81,0.0,0.0
1629641225.50008297,65128938,0.16,0.13,0.07,0.07,352.8,352.81,0.0,0.0
1629641225.60004306,65228898,0.19,0.15,0.07,0.07,352.8,352.81,0.0,0.0
1629641225.70000291,65328858,0.16,0.17,0.08,0.08,352.8,352.82,0.0,0.0
1629641225.79996300,65428818,0.1,0.13,0.11,0.1,352.8,352.81,0.0,0.0
1629641225.89992309,65528778,0.07,0.08,0.14,0.12,352.8,352.81,0.0,0.0
1629641225.99988294,65628738,0.06,0.05,0.15,0.14,352.8,352.81,0.0,0.0
1629641226.09984303,65728698,0.07,0.05,0.11,0.13,352.8,352.81,0.0,0.0
1629641226.19980311,65828658,0.07,0.05,0.1,0.1,352.8,352.81,0.0,0.0
1629641226.29976296,65928618,0.07,0.06,0.08,0.09,352.8,352.81,0.0,0.0
1629641226.39972305,66028578,0.08,0.07,0.06,0.06,352.8,352.8,0.0,0.0
1629641226.49968290,66128538,0.07,0.06,0.03,0.03,352.8,352.8,0.0,0.0
1629641226.59964299,66228498,0.05,0.04,0.02,0.01,352.8,352.81,0.0,0.0
1629641226.69960308,66328458,0.04,0.02,0.05,0.01,352.8,352.8,0.0,0.0
1629641226.79956293,66428418,0.06,0.02,0.07,0.03,352.8,352.81,0.0,0.0
1629641226.89952302,66528378,0.06,0.03,0.1,0.06,352.8,352.8,0.0,0.0
1629641226.99948311,66628338,0.07,0.05,0.11,0.09,352.8,352.8,0.0,0.0
1629641227.09944296,66728298,0.07,0.06,0.11,0.1,352.8,352.81,0.0,0.0
1629641227.19940305,66828258,0.07,0.07,0.11,0.11,352.8,352.81,0.0,0.0
1629641227.29936290,66928218,0.08,0.08,0.08,0.1,352.8,352.81,0.0,0.0
1629641227.39932299,67028178,0.07,0.08,0.05,0.06,352.8,352.81,0.0,0.0
1629641227.50011611,67128971,0.05,0.07,0.04,0.03,352.8,352.81,0.0,0.0
1629641227.60007596,67228931,0.05,0.05,0.08,0.04,352.8,352.81,0.0,0.0
1629641227.70003605,67328891,0.11,0.08,0.11,0.08,352.8,352.81,0.0,0.0
1629641227.79999590,67428851,0.16,0.13,0.13,0.12,352.8,352.82,0.0,0.0
1629641227.89995599,67528811,0.2,0.2,0.13,0.14,352.8,352.82,0.0,0.0
1629641227.99991608,67628771,0.19,0.22,0.12,0.14,352.8,352.81,0.0,0.0
1629641228.09987593,67728731,0.18,0.2,0.12,0.13,352.8,352.81,0.0,0.0
1629641228.19983602,67828691,0.18,0.19,0.11,0.12,352.8,352.81,0.0,0.0
1629641228.29979610,67928651,0.16,0.18,0.08,0.08,352.8,352.81,0.0,0.0
1629641228.39975595,68028611,0.13,0.15,0.11,0.08,352.8,352.81,0.0,0.0
1629641228.49971604,68128571,0.09,0.12,0.12,0.09,352.8,352.81,0.0,0.0
1629641228.59967589,68228531,0.09,0.08,0.13,0.11,352.8,352.81,0.0,0.0
1629641228.69963598,68328491,0.12,0.08,0.15,0.14,352.8,352.81,0.0,0.0
1629641228.79959607,68428451,0.16,0.11,0.15,0.15,352.8,352.82,0.0,0.0
1629641228.89955592,68528411,0.18,0.14,0.14,0.15,352.8,352.82,0.0,0.0
1629641228.99951601,68628371,0.18,0.17,0.13,0.14,352.8,352.82,0.0,0.0
1629641229.09947610,68728331,0.18,0.17,0.1,0.11,352.8,352.82,0.0,0.0
1629641229.19943595,68828291,0.14,0.15,0.06,0.07,352.8,352.82,0.0,0.0
1629641229.29939604,68928251,0.14,0.14,0.07,0.06,352.8,352.82,0.0,0.0
1629641229.39935613,69028211,0.14,0.13,0.09,0.07,352.8,352.81,0.0,0.0
1629641229.49931598,69128171,0.14,0.13,0.11,0.1,352.8,352.81,0.0,0.0
1629641229.60010910,69228964,0.15,0.13,0.12,0.11,352.8,352.81,0.0,0.0
1629641229.70006895,69328924,0.15,0.14,0.15,0.13,352.8,352.81,0.0,0.0
1629641229.80002904,69428884,0.1,0.12,0.16,0.15,352.8,352.81,0.0,0.0
1629641229.89998913,69528844,0.08,0.09,0.14,0.16,352.8,352.81,0.0,0.0
1629641229.99994898,69628804,0.11,0.08,0.13,0.15,352.8,352.81,0.0,0.0
1629641230.09990907,69728764,0.13,0.1,0.11,0.13,352.8,352.81,0.0,0.0
1629641230.19986892,69828724,0.15,0.11,0.1,0.11,352.8,352.81,0.0,0.0
1629641230.29982901,69928684,0.13,0.11,0.13,0.12,352.8,352.8,0.0,0.0
1629641230.39978909,70028644,0.1,0.09,0.13,0.13,352.8,352.81,0.0,0.0
1629641230.49974895,70128604,0.1,0.08,0.1,0.1,352.8,352.81,0.0,0.0
1629641230.59970903,70228564,0.12,0.09,0.07,0.07,352.8,352.8,0.0,0.0
1629641230.69966912,70328524,0.17,0.14,0.07,0.05,352.8,352.8,0.0,0.0
1629641230.79962897,70428484,0.18,0.18,0.06,0.04,352.8,352.81,0.0,0.0
1629641230.89958906,70528444,0.16,0.18,0.06,0.04,352.8,352.81,0.0,0.0
1629641230.99954891,70628404,0.14,0.16,0.09,0.05,352.8,352.81,0.0,0.0
1629641231.09950900,70728364,0.12,0.14,0.07,0.07,352.8,352.81,0.0,0.0
1629641231.19946909,70828324,0.1,0.1,0.05,0.05,352.8,352.81,0.0,0.0
1629641231.29942894,70928284,0.09,0.08,0.06,0.05,352.8,352.81,0.0,0.0
1629641231.39938903,71028244,0.08,0.07,0.08,0.06,352.8,352.81,0.0,0.0
1629641231.49934912,71128204,0.05,0.06,0.1,0.09,352.8,352.81,0.0,0.0
1629641231.59930897,71228164,0.03,0.04,0.1,0.11,352.8,352.81,0.0,0.0
1629641231.70010209,71328957,0.02,0.02,0.09,0.1,352.8,352.81,0.0,0.0
1629641231.80006194,71428917,0.04,0.02,0.08,0.08,352.8,352.8,0.0,0.0
1629641231.90002203,71528877,0.07,0.04,0.07,0.06,352.8,352.8,0.0,0.0
1629641231.99998212,71628837,0.09,0.06,0.09,0.05,352.8,352.8,0.0,0.0
1629641232.09994197,71728797,0.12,0.09,0.1,0.07,352.8,352.8,0.0,0.0
1629641232.19990206,71828757,0.15,0.13,0.14,0.11,352.8,352.8,0.0,0.0
1629641232.29986191,71928717,0.13,0.15,0.15,0.14,352.8,352.8,0.0,0.0
1629641232.39982200,72028677,0.08,0.11,0.11,0.13,352.8,352.8,0.0,0.0
1629641232.49978209,72128637,0.05,0.06,0.07,0.09,352.8,352.8,0.0,0.0
1629641232.59974194,72228597,0.03,0.03,0.07,0.06,352.8,352.81,0.0,0.0
1629641232.69970202,72328557,0.03,0.01,0.08,0.06,352.8,352.81,0.0,0.0
1629641232.79966211,72428517,0.05,0.02,0.08,0.06,352.8,352.81,0.0,0.0
1629641232.89962196,72528477,0.07,0.05,0.08,0.08,352.8,352.81,0.0,0.0
1629641232.99958205,72628437,0.06,0.07,0.08,0.09,352.8,352.81,0.0,0.0
1629641233.09954190,72728397,0.01,0.04,0.1,0.1,352.8,352.81,0.0,0.0
1629641233.19950199,72828357,-0.03,-0.01,0.13,0.12,352.8,352.81,0.0,0.0
1629641233.29946208,72928317,-0.05,-0.06,0.1,0.12,352.8,352.81,0.0,0.0
1629641233.39942193,73028277,0.0,-0.06,0.08,0.09,352.8,352.81,0.0,0.0
1629641233.49938202,73128237,0.04,-0.01,0.08,0.07,352.8,352.81,0.0,0.0
1629641233.59934211,73228197,0.07,0.02,0.06,0.05,352.8,352.82,0.0,0.0
1629641233.69930196,73328157,0.08,0.07,0.05,0.03,352.8,352.82,0.0,0.0
1629641233.80009508,73428950,0.11,0.1,0.08,0.04,352.8,352.82,0.0,0.0
1629641233.90005493,73528910,0.13,0.13,0.1,0.07,352.8,352.82,0.0,0.0
1629641234.00001502,73628870,0.13,0.14,0.09,0.1,352.8,352.81,0.0,0.0
1629641234.09997511,73728830,0.17,0.16,0.07,0.09,352.8,352.81,0.0,0.0
1629641234.19993496,73828790,0.19,0.2,0.04,0.06,352.8,352.81,0.0,0.0
1629641234.29989505,73928750,0.19,0.21,0.04,0.04,352.8,352.81,0.0,0.0
1629641234.39985490,74028710,0.16,0.18,0.05,0.04,352.8,352.81,0.0,0.0
1629641234.49981499,74128670,0.16,0.15,0.07,0.04,352.8,352.8,0.0,0.0
1629641234.59977508,74228630,0.18,0.16,0.12,0.08,352.8,352.8,0.0,0.0
1629641234.69973493,74328590,0.2,0.18,0.12,0.1,352.8,352.8,0.0,0.0
1629641234.79969501,74428550,0.2,0.2,0.11,0.11,352.8,352.8,0.0,0.0
1629641234.89965510,74528510,0.2,0.21,0.08,0.1,352.8,352.8,0.0,0.0
1629641234.99961495,74628470,0.2,0.22,0.03,0.07,352.8,352.8,0.0,0.0
1629641235.09957504,74728430,0.21,0.22,0.01,0.03,352.8,352.8,0.0,0.0
1629641235.19953489,74828390,0.21,0.21,0.0,0.0,352.8,352.8,0.0,0.0
1629641235.29949498,74928350,0.16,0.19,-0.01,-0.01,352.8,352.8,0.0,0.0
1629641235.39945507,75028310,0.12,0.14,0.01,-0.01,352.8,352.8,0.0,0.0
1629641235.49941492,75128270,0.12,0.11,0.03,0.0,352.8,352.8,0.0,0.0
1629641235.59937501,75228230,0.16,0.12,0.03,0.01,352.8,352.8,0.0,0.0
1629641235.69933510,75328190,0.18,0.14,0.04,0.02,352.8,352.8,0.0,0.0
1629641235.80012798,75428983,0.21,0.18,0.06,0.05,352.8,352.8,0.0,0.0
1629641235.90008807,75528943,0.25,0.22,0.06,0.06,352.8,352.8,0.0,0.0
1629641236.00004792,75628903,0.24,0.24,0.02,0.04,352.8,352.8,0.0,0.0
1629641236.10000801,75728863,0.19,0.22,0.02,0.02,352.8,352.8,0.0,0.0
1629641236.19996810,75828823,0.15,0.18,0.04,0.02,352.8,352.8,0.0,0.0
1629641236.29992795,75928783,0.16,0.16,0.05,0.02,352.8,352.8,0.0,0.0
1629641236.39988804,76028743,0.17,0.16,0.06,0.04,352.8,352.8,0.0,0.0
1629641236.49984813,76128703,0.15,0.16,0.09,0.06,352.8,352.8,0.0,0.0
1629641236.59980798,76228663,0.14,0.14,0.11,0.09,352.8,352.8,0.0,0.0
1629641236.69976807,76328623,0.15,0.14,0.1,0.1,352.8,352.8,0.0,0.0
1629641236.79972792,76428583,0.18,0.16,0.1,0.09,352.8,352.8,0.0,0.0
1629641236.89968801,76528543,0.19,0.18,0.13,0.11,352.8,352.81,0.0,0.0
1629641236.99964809,76628503,0.19,0.19,0.14,0.13,352.8,352.81,0.0,0.0
1629641237.09960794,76728463,0.17,0.18,0.14,0.14,352.8,352.81,0.0,0.0
1629641237.19956803,76828423,0.14,0.15,0.13,0.14,352.8,352.81,0.0,0.0
1629641237.29952812,76928383,0.11,0.11,0.15,0.14,352.8,352.81,0.0,0.0
1629641237.39948797,77028343,0.1,0.08,0.13,0.13,352.8,352.81,0.0,0.0
1629641237.49944806,77128303,0.12,0.08,0.12,0.12,352.8,352.81,0.0,0.0
1629641237.59940791,77228263,0.17,0.12,0.14,0.13,352.8,352.81,0.0,0.0
1629641237.69936800,77328223,0.21,0.18,0.14,0.14,352.8,352.81,0.0,0.0
1629641237.79932809,77428183,0.2,0.2,0.11,0.12,352.8,352.8,0.0,0.0
1629641237.90012097,77528976,0.16,0.18,0.12,0.11,352.8,352.8,0.0,0.0
1629641238.00008106,77628936,0.11,0.14,0.11,0.11,352.8,352.8,0.0,0.0
1629641238.10004091,77728896,0.11,0.11,0.08,0.09,352.8,352.8,0.0,0.0
1629641238.20000100,77828856,0.13,0.11,0.08,0.06,352.8,352.8,0.0,0.0
1629641238.29996109,77928816,0.14,0.12,0.12,0.07,352.8,352.8,0.0,0.0
1629641238.39992094,78028776,0.16,0.14,0.14,0.11,352.8,352.8,0.0,0.0
1629641238.49988103,78128736,0.17,0.15,0.12,0.13,352.8,352.81,0.0,0.0
1629641238.59984112,78228696,0.16,0.16,0.06,0.09,352.8,352.81,0.0,0.0
1629641238.69980097,78328656,0.13,0.15,0.01,0.05,352.8,352.81,0.0,0.0
1629641238.79976106,78428616,0.12,0.13,0.04,0.02,352.8,352.81,0.0,0.0
1629641238.89972091,78528576,0.12,0.12,0.1,0.05,352.8,352.81,0.0,0.0
1629641238.99968100,78628536,0.12,0.1,0.15,0.11,352.8,352.81,0.0,0.0
1629641239.09964108,78728496,0.11,0.09,0.17,0.16,352.8,352.81,0.0,0.0
1629641239.19960093,78828456,0.08,0.08,0.17,0.18,352.8,352.81,0.0,0.0
1629641239.29956102,78928416,0.08,0.07,0.15,0.17,352.8,352.81,0.0,0.0
1629641239.39952111,79028376,0.07,0.07,0.13,0.14,352.8,352.8,0.0,0.0
1629641239.49948096,79128336,0.08,0.07,0.12,0.11,352.8,352.8,0.0,0.0
1629641239.59944105,79228296,0.09,0.08,0.09,0.09,352.8,352.8,0.0,0.0
1629641239.69940090,79328256,0.06,0.06,0.09,0.07,352.8,352.8,0.0,0.0
1629641239.79936099,79428216,0.04,0.03,0.12,0.09,352.8,352.8,0.0,0.0
1629641239.89932108,79528176,0.03,0.01,0.16,0.13,352.8,352.8,0.0,0.0
1629641240.00011396,79628969,0.06,0.03,0.17,0.16,352.8,352.8,0.0,0.0
1629641240.10007405,79728929,0.1,0.07,0.16,0.17,352.8,352.8,0.0,0.0
1629641240.20003390,79828889,0.11,0.11,0.15,0.17,352.8,352.8,0.0,0.0
1629641240.29999399,79928849,0.07,0.11,0.12,0.15,352.8,352.8,0.0,0.0
1629641240.39995408,80028809,0.04,0.06,0.09,0.11,352.8,352.8,0.0,0.0
1629641240.49991393,80128769,0.03,0.03,0.07,0.07,352.8,352.8,0.0,0.0
1629641240.59987402,80228729,0.06,0.02,0.08,0.06,352.8,352.8,0.0,0.0
1629641240.69983411,80328689,0.09,0.04,0.11,0.07,352.8,352.8,0.0,0.0
1629641240.79979396,80428649,0.12,0.08,0.13,0.1,352.8,352.8,0.0,0.0
1629641240.89975405,80528609,0.14,0.12,0.11,0.1,352.8,352.8,0.0,0.0
1629641240.99971390,80628569,0.16,0.15,0.11,0.1,352.8,352.8,0.0,0.0
1629641241.09967399,80728529,0.18,0.18,0.13,0.11,352.8,352.8,0.0,0.0
1629641241.19963408,80828489,0.16,0.18,0.13,0.12,352.8,352.8,0.0,0.0
1629641241.29959393,80928449,0.14,0.16,0.14,0.13,352.8,352.81,0.0,0.0
1629641241.39955401,81028409,0.14,0.14,0.14,0.14,352.8,352.81,0.0,0.0
1629641241.49951410,81128369,0.14,0.14,0.12,0.14,352.8,352.81,0.0,0.0
1629641241.59947395,81228329,0.13,0.13,0.1,0.12,352.8,352.81,0.0,0.0
1629641241.69943404,81328289,0.12,0.12,0.07,0.11,352.8,352.81,0.0,0.0
1629641241.79939389,81428249,0.12,0.12,0.06,0.09,352.8,352.81,0.0,0.0
1629641241.89935398,81528209,0.14,0.12,0.08,0.08,352.8,352.81,0.0,0.0
1629641241.99931407,81628169,0.16,0.12,0.09,0.08,352.8,352.81,0.0,0.0
1629641242.10010695,81728962,0.16,0.14,0.12,0.1,352.8,352.81,0.0,0.0
1629641242.20006704,81828922,0.16,0.15,0.16,0.14,352.8,352.81,0.0,0.0
1629641242.30002689,81928882,0.15,0.14,0.2,0.19,352.8,352.81,0.0,0.0
1629641242.39998698,82028842,0.16,0.14,0.21,0.22,352.8,352.81,0.0,0.0
1629641242.49994707,82128802,0.13,0.14,0.19,0.22,352.8,352.81,0.0,0.0
1629641242.59990692,82228762,0.08,0.09,0.14,0.18,352.8,352.8,0.0,0.0
1629641242.69986701,82328722,0.07,0.05,0.1,0.13,352.8,352.8,0.0,0.0
1629641242.79982710,82428682,0.07,0.04,0.11,0.09,352.8,352.8,0.0,0.0
1629641242.89978695,82528642,0.09,0.05,0.15,0.11,352.8,352.8,0.0,0.0
1629641242.99974704,82628602,0.11,0.07,0.17,0.13,352.8,352.8,0.0,0.0
1629641243.09970713,82728562,0.14,0.11,0.18,0.16,352.8,352.8,0.0,0.0
1629641243.19966698,82828522,0.15,0.15,0.16,0.17,352.8,352.8,0.0,0.0
1629641243.29962707,82928482,0.16,0.17,0.12,0.14,352.8,352.8,0.0,0.0
1629641243.39958692,83028442,0.15,0.17,0.11,0.12,352.8,352.8,0.0,0.0
1629641243.49954700,83128402,0.1,0.14,0.1,0.1,352.8,352.8,0.0,0.0
1629641243.59950709,83228362,0.06,0.09,0.1,0.08,352.8,352.8,0.0,0.0
1629641243.69946694,83328322,0.06,0.06,0.11,0.08,352.8,352.8,0.0,0.0
1629641243.79942703,83428282,0.07,0.06,0.13,0.09,352.8,352.8,0.0,0.0
1629641243.89938712,83528242,0.06,0.05,0.15,0.11,352.8,352.8,0.0,0.0
1629641243.99934697,83628202,0.07,0.06,0.17,0.14,352.8,352.8,0.0,0.0
1629641244.09930706,83728162,0.59,0.18,-1.37,-0.18,352.8,352.81,0.0,0.0
1629641244.20009995,83828955,2.24,1.41,-12.49,-6.19,352.8,352.74,0.0,0.0
1629641244.30006003,83928915,2.72,2.65,-20.47,-16.93,352.8,352.46,0.0,0.0
1629641244.40002012,84028875,2.37,3.05,-18.81,-22.13,352.8,352.4,0.0,0.01
1629641244.49997997,84128835,1.63,2.54,-13.47,-20.31,352.8,352.74,0.0,0.01
1629641244.59994006,84228795,0.88,1.55,-7.53,-14.05,352.79,353.14,0.0,0.01
1629641244.69989991,84328755,0.36,0.58,-2.97,-6.66,352.79,353.36,0.0,0.01
1629641244.79986000,84428715,0.18,-0.03,-0.73,-0.93,352.79,353.37,0.0,0.02
1629641244.89982009,84528675,0.24,-0.22,-0.58,1.8,352.79,353.3,0.01,0.02
1629641244.99977994,84628635,0.42,-0.08,-1.54,1.79,352.79,353.19,0.01,0.02
1629641245.09974003,84728595,0.58,0.21,-2.62,0.23,352.79,353.05,0.01,0.01
1629641245.19970012,84828555,0.64,0.48,-3.08,-1.53,352.79,352.9,0.01,0.01
1629641245.29965997,84928515,0.57,0.6,-2.71,-2.51,352.79,352.76,0.01,0.01
1629641245.39962006,85028475,0.38,0.53,-1.74,-2.41,352.79,352.65,0.01,0.01
1629641245.49957991,85128435,0.19,0.33,-0.52,-1.43,352.79,352.58,0.01,0.01
1629641245.59954000,85228395,0.03,0.1,0.59,-0.06,352.79,352.54,0.01,0.0
1629641245.69950008,85328355,-0.05,-0.06,1.37,1.2,352.79,352.53,0.01,0.0
1629641245.79945993,85428315,-0.05,-0.15,1.75,2.04,352.79,352.55,0.01,0.0
1629641245.89942002,85528275,-0.01,-0.13,1.77,2.35,352.79,352.59,0.0,0.0
1629641245.99938011,85628235,-0.01,-0.09,1.62,2.23,352.79,352.65,0.0,0.0
1629641246.09933996,85728195,-0.01,-0.05,1.47,1.91,352.79,352.71,0.0,0.0
1629641246.19930005,85828155,-0.01,-0.03,1.42,1.6,352.79,352.77,0.0,0.0
1629641246.30009294,85928948,-0.02,-0.02,1.47,1.45,352.79,352.83,0.0,0.0
1629641246.40005302,86028908,-0.03,-0.02,1.6,1.46,352.79,352.87,0.0,0.0
1629641246.50001311,86128868,-0.06,-0.04,1.74,1.58,352.79,352.89,0.0,0.0
1629641246.59997296,86228828,-0.05,-0.05,1.84,1.74,352.79,352.91,0.0,0.0
1629641246.69993305,86328788,-0.04,-0.05,1.85,1.83,352.79,352.9,0.0,0.0
1629641246.79989290,86428748,-0.03,-0.04,1.82,1.85,352.79,352.89,0.0,0.0
1629641246.89985299,86528708,-0.01,-0.02,1.72,1.79,352.79,352.87,0.0,0.0
1629641246.99981308,86628668,-0.02,-0.02,1.63,1.68,352.79,352.85,0.0,0.0
1629641247.09977293,86728628,-0.05,-0.04,1.58,1.58,352.79,352.82,0.0,0.0
1629641247.19973302,86828588,-0.08,-0.07,1.52,1.5,352.79,352.8,0.0,0.0
1629641247.29969311,86928548,-0.08,-0.09,1.43,1.42,352.79,352.78,0.0,0.0
1629641247.39965296,87028508,-0.05,-0.08,1.35,1.33,352.79,352.77,0.0,0.0
1629641247.49961305,87128468,0.0,-0.04,1.28,1.25,352.79,352.76,0.0,0.0
1629641247.59957290,87228428,0.04,0.01,1.21,1.18,352.79,352.76,0.0,0.0
1629641247.69953299,87328388,0.03,0.04,1.11,1.1,352.79,352.76,0.0,0.0
1629641247.79949307,87428348,0.05,0.06,1.0,1.0,352.79,352.77,0.0,0.0
1629641247.89945292,87528308,0.04,0.06,0.88,0.88,352.79,352.78,0.0,0.0
1629641247.99941301,87628268,0.05,0.05,0.78,0.76,352.79,352.79,0.0,0.0
1629641248.09937310,87728228,0.06,0.05,0.7,0.67,352.79,352.8,0.0,0.0
1629641248.19933295,87828188,0.08,0.07,0.64,0.6,352.79,352.81,0.0,0.0
1629641248.30012608,87928981,0.05,0.06,0.58,0.55,352.79,352.81,0.0,0.0
1629641248.40008593,88028941,0.02,0.03,0.51,0.49,352.79,352.81,0.0,0.0
1629641248.50004601,88128901,0.02,0.01,0.45,0.43,352.79,352.81,0.0,0.0
1629641248.60000610,88228861,0.05,0.02,0.39,0.38,352.79,352.81,0.0,0.0
1629641248.69996595,88328821,0.06,0.04,0.33,0.32,352.79,352.81,0.0,0.0
1629641248.79992604,88428781,0.07,0.06,0.26,0.26,352.79,352.8,0.0,0.0
1629641248.89988589,88528741,0.07,0.07,0.2,0.19,352.79,352.8,0.0,0.0
1629641248.99984598,88628701,0.05,0.05,0.16,0.14,352.79,352.8,0.0,0.0
1629641249.09980607,88728661,0.06,0.04,0.1,0.09,352.79,352.79,0.0,0.0
1629641249.19976592,88828621,0.08,0.04,0.07,0.04,352.79,352.79,0.0,0.0
1629641249.29972601,88928581,0.1,0.06,0.07,0.03,352.79,352.79,0.0,0.0
1629641249.39968610,89028541,0.14,0.11,0.08,0.04,352.79,352.78,0.0,0.0
1629641249.49964595,89128501,0.5,0.21,-0.37,0.0,352.79,352.78,0.0,0.0
1629641249.59960604,89228461,1.59,1.08,-7.95,-4.03,352.79,352.75,0.0,0.0
1629641249.69956613,89328421,2.28,2.04,-13.61,-11.17,352.79,352.61,0.0,0.0
1629641249.79952598,89428381,2.78,2.84,-15.31,-16.05,352.79,352.52,0.0,0.0
1629641249.89948606,89528341,3.21,3.39,-14.16,-17.24,352.79,352.59,0.0,0.0
1629641249.99944592,89628301,3.58,3.75,-11.43,-15.21,352.79,352.85,0.0,0.0
1629641250.09940600,89728261,3.78,3.95,-8.35,-11.39,352.79,353.18,0.0,0.01
1629641250.19936609,89828221,3.83,3.97,-5.84,-7.35,352.79,353.42,0.0,0.01
1629641250.29932594,89928181,3.87,3.94,-4.21,-4.22,352.79,353.51,0.0,0.02
1629641250.40011907,90028974,3.96,3.93,-3.29,-2.35,352.79,353.43,0.0,0.02
1629641250.50007892,90128934,4.08,4.0,-2.71,-1.48,352.79,353.24,0.0,0.02
1629641250.60003901,90228894,4.25,4.14,-2.11,-1.1,352.79,353.01,0.0,0.01
1629641250.69999909,90328854,4.43,4.34,-1.32,-0.74,352.79,352.8,0.0,0.01
1629641250.79995894,90428814,4.53,4.51,-0.32,-0.12,352.79,352.64,0.0,0.01
1629641250.89991903,90528774,4.62,4.63,0.75,0.75,352.79,352.55,0.0,0.01
1629641250.99987912,90628734,4.73,4.73,1.78,1.79,353.86,352.53,0.0,0.01
1629641251.09983897,90728694,4.88,4.79,2.67,2.95,357.62,352.85,0.0,0.01
1629641251.19979906,90828654,5.13,4.86,3.34,4.08,3.47,354.18,0.0,0.01
1629641251.29975891,90928614,5.52,5.08,3.73,4.92,9.47,357.11,0.0,0.01
1629641251.39971900,91028574,6.06,5.5,3.76,5.27,15.47,1.74,0.0,0.02
1629641251.49967909,91128534,6.69,6.1,3.38,5.06,21.47,7.85,0.0,0.02
1629641251.59963894,91228494,7.34,6.8,2.65,4.32,27.47,15.11,0.0,0.03
1629641251.69959903,91328454,7.95,7.52,1.59,3.1,33.47,23.15,0.0,0.04
1629641251.79955912,91428414,8.38,8.13,0.29,1.5,39.47,31.69,0.0,0.05
1629641251.89951897,91528374,8.56,8.47,-1.1,-0.31,45.47,40.43,0.0,0.06
1629641251.99947906,91628334,8.49,8.48,-2.5,-2.18,51.47,49.11,0.0,0.06
1629641252.09943891,91728294,8.18,8.15,-3.79,-3.9,57.47,57.51,0.0,0.07
1629641252.19939899,91828254,7.72,7.55,-4.99,-5.39,63.47,65.41,0.0,0.07
1629641252.29935908,91928214,7.23,6.85,-6.12,-6.65,69.47,72.69,0.0,0.07
1629641252.39931893,92028174,6.66,6.13,-7.17,-7.7,75.47,79.31,0.0,0.07
1629641252.50011206,92128967,6.03,5.44,-8.12,-8.58,81.47,85.31,0.0,0.07
1629641252.60007191,92228927,5.35,4.79,-9.0,-9.33,87.47,90.81,0.0,0.06
1629641252.70003200,92328887,4.63,4.19,-9.8,-9.98,93.47,95.93,0.0,0.06
1629641252.79999208,92428847,3.83,3.58,-10.57,-10.61,99.47,100.85,0.0,0.06
1629641252.89995193,92528807,2.9,2.91,-11.29,-11.24,105.47,105.73,0.0,0.05
1629641252.99991202,92628767,1.85,2.09,-11.9,-11.84,111.47,110.7,0.0,0.05
1629641253.09987211,92728727,0.66,1.11,-12.41,-12.37,117.47,115.87,0.0,0.05
1629641253.19983196,92828687,-0.69,-0.08,-12.84,-12.84,123.47,121.29,0.0,0.05
1629641253.29979205,92928647,-2.16,-1.5,-13.09,-13.18,129.24,127.0,0.0,0.05
1629641253.39975190,93028607,-3.71,-3.32,-13.14,-13.25,132.75,132.85,0.0,0.05
1629641253.49971199,93128567,-5.26,-5.66,-13.02,-12.92,133.73,138.28,0.0,0.05
1629641253.59967208,93228527,-6.58,-8.07,-12.82,-12.27,133.64,142.5,0.0,0.04
1629641253.69963193,93328487,-7.4,-9.91,-12.73,-11.62,133.17,145.03,0.0,0.04
1629641253.79959202,93428447,-7.62,-10.81,-12.86,-11.25,132.57,145.83,0.0,0.03
1629641253.89955211,93528407,-7.28,-10.7,-13.21,-11.29,131.97,145.14,0.0,0.03
1629641253.99951196,93628367,-6.59,-9.78,-13.74,-11.76,131.41,143.27,0.0,0.03
1629641254.09947205,93728327,-5.68,-8.3,-14.35,-12.59,130.93,140.56,0.0,0.03
1629641254.19943190,93828287,-4.73,-6.52,-14.93,-13.6,130.51,137.32,0.0,0.03
1629641254.29939198,93928247,-3.83,-4.69,-15.43,-14.61,130.14,133.86,0.0,0.04
1629641254.39935207,94028207,-3.06,-2.99,-15.77,-15.44,129.81,130.52,0.0,0.04
1629641254.49931192,94128167,-2.48,-1.6,-15.95,-15.99,129.51,127.62,0.0,0.04
1629641254.60010505,94228960,-2.1,-0.63,-16.01,-16.26,129.22,125.4,0.0,0.04
1629641254.70006490,94328920,-1.91,-0.11,-16.01,-16.31,128.94,123.97,0.0,0.04
1629641254.80002499,94428880,-1.94,-0.04,-15.99,-16.25,128.66,123.33,0.0,0.04
1629641254.89998507,94528840,-2.14,-0.38,-15.97,-16.14,128.38,123.38,0.0,0.03
1629641254.99994493,94628800,-2.45,-1.01,-15.99,-16.06,128.1,123.97,0.0,0.03
1629641255.09990501,94728760,-2.78,-1.8,-16.06,-16.03,127.82,124.9,0.0,0.02
1629641255.19986510,94828720,-3.09,-2.62,-16.12,-16.04,127.54,125.97,0.0,0.02
1629641255.29982495,94928680,-3.36,-3.35,-16.17,-16.07,127.28,127.01,0.0,0.01
1629641255.39978504,95028640,-3.56,-3.94,-16.2,-16.09,127.03,127.87,0.0,0.01
1629641255.49974489,95128600,-3.68,-4.33,-16.21,-16.09,126.79,128.46,0.0,0.01
1629641255.59970498,95228560,-3.7,-4.51,-16.25,-16.1,126.57,128.73,0.0,0.01
1629641255.69966507,95328520,-3.62,-4.49,-16.28,-16.12,126.37,128.7,0.0,0.01
1629641255.79962492,95428480,-3.46,-4.27,-16.33,-16.18,126.18,128.39,0.0,0.01
1629641255.89958501,95528440,-3.31,-3.95,-16.37,-16.24,126.01,127.87,0.0,0.01
1629641255.99954510,95628400,-3.16,-3.61,-16.42,-16.32,125.85,127.22,0.0,0.01
1629641256.09950495,95728360,-3.0,-3.25,-16.48,-16.41,125.7,126.52,0.0,0.01
1629641256.19946504,95828320,-2.86,-2.92,-16.55,-16.5,125.57,125.84,0.0,0.01
1629641256.29942513,95928280,-2.73,-2.65,-16.62,-16.6,125.43,125.24,0.0,0.02
1629641256.39938498,96028240,-2.63,-2.44,-16.7,-16.71,125.31,124.76,0.0,0.02
1629641256.49934506,96128200,-2.57,-2.3,-16.74,-16.79,125.19,124.43,0.0,0.02
1629641256.59930491,96228160,-2.57,-2.26,-16.75,-16.83,125.07,124.23,0.0,0.01
1629641256.70009804,96328953,-2.58,-2.29,-16.76,-16.83,124.95,124.15,0.0,0.01
1629641256.80005813,96428913,-2.6,-2.37,-16.77,-16.82,124.84,124.18,0.0,0.01
1629641256.90001798,96528873,-2.64,-2.48,-16.77,-16.8,124.73,124.27,0.0,0.01
1629641256.99997807,96628833,-2.67,-2.6,-16.81,-16.8,124.63,124.4,0.0,0.01
1629641257.09993792,96728793,-2.73,-2.73,-16.85,-16.82,124.53,124.52,0.0,0.01
1629641257.19989800,96828753,-2.77,-2.84,-16.9,-16.87,124.43,124.63,0.0,0.01
1629641257.29985809,96928713,-2.81,-2.94,-16.92,-16.9,124.33,124.69,0.0,0.01
1629641257.39981794,97028673,-2.84,-3.0,-16.95,-16.93,124.24,124.7,0.0,0.01
1629641257.49977803,97128633,-2.83,-3.02,-16.98,-16.96,124.16,124.65,0.0,0.01
1629641257.59973812,97228593,-2.79,-2.99,-17.02,-17.0,124.08,124.56,0.0,0.01
1629641257.69969797,97328553,-2.73,-2.91,-17.03,-17.02,124.0,124.42,0.0,0.01
1629641257.79965806,97428513,-2.7,-2.82,-17.05,-17.03,123.93,124.27,0.0,0.01
1629641257.89961791,97528473,-2.67,-2.75,-17.09,-17.06,123.86,124.1,0.0,0.01
1629641257.99957800,97628433,-2.63,-2.68,-17.12,-17.1,123.8,123.94,0.0,0.01
1629641258.09953809,97728393,-2.59,-2.62,-17.15,-17.14,123.73,123.79,0.0,0.01
1629641258.19949794,97828353,-2.57,-2.57,-17.18,-17.19,123.67,123.66,0.0,0.01
1629641258.29945803,97928313,-2.55,-2.54,-17.23,-17.23,123.61,123.56,0.0,0.01
1629641258.39941812,98028273,-2.52,-2.51,-17.28,-17.29,123.56,123.49,0.0,0.01
1629641258.49937797,98128233,-2.51,-2.49,-17.29,-17.33,123.5,123.44,0.0,0.01
1629641258.59933805,98228193,-2.52,-2.49,-17.29,-17.34,123.45,123.41,0.0,0.01
1629641258.70013094,98328986,-2.53,-2.51,-17.29,-17.33,123.4,123.39,0.0,0.01
1629641258.80009103,98428946,-2.54,-2.53,-17.28,-17.31,123.35,123.38,0.0,0.01
1629641258.90005112,98528906,-2.55,-2.56,-17.27,-17.28,123.31,123.38,0.0,0.01
1629641259.00001097,98628866,-2.54,-2.57,-17.31,-17.29,123.26,123.37,0.0,0.01
1629641259.09997106,98728826,-2.54,-2.58,-17.35,-17.33,123.22,123.36,0.0,0.01
1629641259.19993091,98828786,-2.55,-2.59,-17.38,-17.37,123.18,123.33,0.0,0.01
1629641259.29989100,98928746,-2.52,-2.59,-17.41,-17.4,123.14,123.3,0.0,0.01
1629641259.39985108,99028706,-2.49,-2.56,-17.44,-17.43,123.1,123.26,0.0,0.01
1629641259.49981093,99128666,-2.49,-2.54,-17.46,-17.46,123.07,123.22,0.0,0.01
1629641259.59977102,99228626,-2.46,-2.51,-17.48,-17.48,123.04,123.17,0.0,0.01
1629641259.69973111,99328586,-2.45,-2.48,-17.47,-17.49,123.0,123.12,0.0,0.01
1629641259.79969096,99428546,-2.44,-2.47,-17.48,-17.48,122.98,123.07,0.0,0.01
1629641259.89965105,99528506,-2.4,-2.45,-17.52,-17.5,122.95,123.03,0.0,0.01
1629641259.99961090,99628466,-2.38,-2.41,-17.55,-17.54,122.92,122.99,0.0,0.01
1629641260.09957099,99728426,-2.36,-2.39,-17.57,-17.57,122.9,122.96,0.0,0.01
1629641260.19953108,99828386,-2.34,-2.37,-17.57,-17.59,122.87,122.93,0.0,0.01
1629641260.29949093,99928346,-2.35,-2.35,-17.57,-17.59,122.85,122.91,0.0,0.01
1629641260.39945102,100028306,-2.37,-2.36,-17.6,-17.6,122.83,122.89,0.0,0.01
1629641260.49941111,100128266,-2.39,-2.39,-17.61,-17.61,122.81,122.87,0.0,0.01
1629641260.59937096,100228226,-2.4,-2.42,-17.63,-17.63,122.78,122.86,0.0,0.01
1629641260.69933105,100328186,-2.39,-2.43,-17.65,-17.66,122.76,122.85,0.0,0.01
1629641260.80012393,100428979,-2.38,-2.43,-17.65,-17.67,122.74,122.84,0.0,0.01
1629641260.90008402,100528939,-2.37,-2.42,-17.62,-17.65,122.72,122.82,0.0,0.01
1629641261.00004411,100628899,-2.38,-2.41,-17.6,-17.62,122.71,122.8,0.0,0.01
1629641261.10000396,100728859,-2.39,-2.42,-17.63,-17.63,122.69,122.78,0.0,0.01
1629641261.19996405,100828819,-2.37,-2.41,-17.67,-17.66,122.67,122.76,0.0,0.0
1629641261.29992390,100928779,-2.34,-2.38,-17.69,-17.69,122.66,122.74,0.0,0.0
1629641261.39988399,101028739,-2.34,-2.35,-17.7,-17.71,122.64,122.72,0.0,0.0
1629641261.49984407,101128699,-2.36,-2.36,-17.7,-17.72,122.63,122.7,0.0,0.0
1629641261.59980392,101228659,-2.34,-2.36,-17.69,-17.72,122.62,122.68,0.0,0.0
1629641261.69976401,101328619,-2.31,-2.34,-17.72,-17.73,122.61,122.67,0.0,0.0
1629641261.79972410,101428579,-2.31,-2.33,-17.75,-17.75,122.59,122.65,0.0,0.0
1629641261.89968395,101528539,-2.33,-2.33,-17.77,-17.77,122.58,122.64,0.0,0.0
1629641261.99964404,101628499,-2.36,-2.36,-17.79,-17.79,122.57,122.63,0.0,0.0
1629641262.09960389,101728459,-2.36,-2.38,-17.79,-17.8,122.56,122.63,0.0,0.0
1629641262.19956398,101828419,-2.34,-2.38,-17.76,-17.8,122.55,122.62,0.0,0.0
1629641262.29952407,101928379,-2.3,-2.35,-17.69,-17.74,122.55,122.61,0.0,0.0
1629641262.39948392,102028339,-2.25,-2.3,-17.65,-17.68,122.55,122.6,0.0,0.0
1629641262.49944401,102128299,-2.23,-2.27,-17.65,-17.64,122.55,122.59,0.0,0.0
1629641262.59940410,102228259,-2.23,-2.25,-17.67,-17.64,122.55,122.59,0.0,0.0
1629641262.69936395,102328219,-2.23,-2.24,-17.7,-17.67,122.55,122.6,0.0,0.0
1629641262.79932404,102428179,-2.26,-2.26,-17.72,-17.71,122.56,122.61,0.0,0.0
1629641262.90011692,102528972,-2.29,-2.3,-17.71,-17.73,122.56,122.62,0.0,0.0
1629641263.00007701,102628932,-2.31,-2.34,-17.69,-17.72,122.56,122.63,0.0,0.0
1629641263.10003710,102728892,-2.31,-2.36,-17.67,-17.7,122.56,122.63,0.0,0.0
1629641263.19999695,102828852,-2.3,-2.36,-17.65,-17.67,122.56,122.64,0.0,0.0
1629641263.29995704,102928812,-2.26,-2.33,-17.65,-17.65,122.56,122.64,0.0,0.0
1629641263.39991713,103028772,-2.23,-2.3,-17.67,-17.67,122.56,122.65,0.0,0.0
1629641263.49987698,103128732,-2.22,-2.26,-17.68,-17.69,122.57,122.65,0.0,0.0
1629641263.59983706,103228692,-2.21,-2.24,-17.69,-17.7,122.57,122.64,0.0,0.0
1629641263.69979692,103328652,-2.21,-2.23,-17.67,-17.7,122.57,122.64,0.0,0.0
1629641263.79975700,103428612,-2.2,-2.22,-17.66,-17.68,122.58,122.64,0.0,0.0
1629641263.89971709,103528572,-2.17,-2.2,-17.64,-17.66,122.58,122.64,0.0,0.0
1629641263.99967694,103628532,-2.18,-2.18,-17.64,-17.64,122.59,122.64,0.0,0.0
1629641264.09963703,103728492,-2.2,-2.2,-17.63,-17.63,122.59,122.64,0.0,0.0
1629641264.19959712,103828452,-2.22,-2.23,-17.62,-17.62,122.59,122.65,0.0,0.0
1629641264.29955697,103928412,-2.21,-2.24,-17.61,-17.6,122.6,122.65,0.0,0.0
1629641264.39951706,104028372,-2.21,-2.24,-17.62,-17.6,122.6,122.66,0.0,0.0
1629641264.49947691,104128332,-2.2,-2.23,-17.63,-17.61,122.6,122.66,0.0,0.0
1629641264.59943700,104228292,-2.2,-2.23,-17.64,-17.62,122.6,122.66,0.0,0.0
1629641264.69939709,104328252,-2.19,-2.22,-17.65,-17.64,122.61,122.67,0.0,0.0
1629641264.79935694,104428212,-2.18,-2.21,-17.66,-17.65,122.61,122.67,0.0,0.0
1629641264.89931703,104528172,-2.18,-2.2,-17.65,-17.65,122.61,122.67,0.0,0.0
1629641265.00010991,104628965,-2.19,-2.22,-17.62,-17.64,122.61,122.67,0.0,0.0
1629641265.10007000,104728925,-2.2,-2.23,-17.6,-17.61,122.61,122.67,0.0,0.0
1629641265.20003009,104828885,-2.22,-2.24,-17.61,-17.61,122.61,122.67,0.0,0.0
1629641265.29998994,104928845,-2.21,-2.25,-17.62,-17.61,122.61,122.67,0.0,0.0
1629641265.39995003,105028805,-2.17,-2.23,-17.64,-17.63,122.62,122.67,0.0,0.0
1629641265.49991012,105128765,-2.13,-2.18,-17.65,-17.65,122.62,122.67,0.0,0.0
1629641265.59986997,105228725,-2.11,-2.13,-17.66,-17.66,122.62,122.68,0.0,0.0
1629641265.69983006,105328685,-2.12,-2.12,-17.66,-17.67,122.62,122.68,0.0,0.0
1629641265.79978991,105428645,-2.15,-2.13,-17.67,-17.68,122.63,122.68,0.0,0.0
1629641265.89974999,105528605,-2.17,-2.15,-17.68,-17.7,122.63,122.68,0.0,0.0
1629641265.99971008,105628565,-2.16,-2.18,-17.69,-17.72,122.63,122.68,0.0,0.0
1629641266.09966993,105728525,-2.14,-2.17,-17.66,-17.7,122.63,122.68,0.0,0.0
1629641266.19963002,105828485,-2.11,-2.15,-17.63,-17.66,122.63,122.68,0.0,0.0
1629641266.29959011,105928445,-2.11,-2.13,-17.61,-17.62,122.63,122.68,0.0,0.0
1629641266.39954996,106028405,-2.13,-2.14,-17.61,-17.61,122.63,122.69,0.0,0.0
1629641266.49951005,106128365,-2.14,-2.16,-17.64,-17.62,122.63,122.69,0.0,0.0
1629641266.59946990,106228325,-2.14,-2.17,-17.69,-17.66,122.63,122.69,0.0,0.0
1629641266.69942999,106328285,-2.14,-2.18,-17.7,-17.7,122.63,122.69,0.0,0.0
1629641266.79939008,106428245,-2.13,-2.18,-17.7,-17.72,122.63,122.69,0.0,0.0
1629641266.89934993,106528205,-2.13,-2.17,-17.68,-17.73,122.63,122.69,0.0,0.0
1629641266.99931002,106628165,-2.12,-2.15,-17.64,-17.7,122.63,122.69,0.0,0.0
1629641267.10010290,106728958,-2.12,-2.14,-17.6,-17.64,122.63,122.68,0.0,0.0
1629641267.20006299,106828918,-2.11,-2.13,-17.57,-17.6,122.63,122.68,0.0,0.0
1629641267.30002308,106928878,-2.11,-2.13,-17.59,-17.59,122.63,122.68,0.0,0.0
1629641267.39998293,107028838,-2.12,-2.13,-17.63,-17.61,122.64,122.68,0.0,0.0
1629641267.49994302,107128798,-2.14,-2.15,-17.66,-17.64,122.64,122.68,0.0,0.0
1629641267.59990311,107228758,-2.15,-2.16,-17.68,-17.67,122.64,122.68,0.0,0.0
1629641267.69986296,107328718,-2.16,-2.17,-17.68,-17.69,122.64,122.68,0.0,0.0
1629641267.79982305,107428678,-2.19,-2.19,-17.68,-17.7,122.63,122.68,0.0,0.0
1629641267.89978290,107528638,-2.19,-2.21,-17.67,-17.7,122.63,122.68,0.0,0.0
1629641267.99974298,107628598,-2.17,-2.2,-17.66,-17.67,122.63,122.68,0.0,0.0
1629641268.09970307,107728558,-2.17,-2.2,-17.64,-17.65,122.63,122.67,0.0,0.0
1629641268.19966292,107828518,-2.19,-2.21,-17.64,-17.64,122.63,122.67,0.0,0.0
1629641268.29962301,107928478,-2.21,-2.23,-17.63,-17.63,122.62,122.67,0.0,0.0
1629641268.39958310,108028438,-2.22,-2.25,-17.64,-17.63,122.62,122.66,0.0,0.0
1629641268.49954295,108128398,-2.2,-2.25,-17.66,-17.65,122.61,122.66,0.0,0.0
1629641268.59950304,108228358,-2.2,-2.23,-17.68,-17.67,122.61,122.66,0.0,0.0
1629641268.69946313,108328318,-2.21,-2.22,-17.68,-17.69,122.61,122.65,0.0,0.0
1629641268.79942298,108428278,-2.17,-2.2,-17.68,-17.69,122.61,122.65,0.0,0.0
1629641268.89938307,108528238,-2.13,-2.17,-17.67,-17.7,122.61,122.64,0.0,0.0
1629641268.99934292,108628198,-2.13,-2.14,-17.66,-17.68,122.61,122.64,0.0,0.0
1629641269.09930301,108728158,-2.14,-2.14,-17.64,-17.66,122.6,122.64,0.0,0.0
1629641269.20009589,108828951,-2.15,-2.16,-17.62,-17.63,122.6,122.63,0.0,0.0
1629641269.30005598,108928911,-2.17,-2.18,-17.6,-17.6,122.6,122.63,0.0,0.0
1629641269.40001607,109028871,-2.19,-2.21,-17.59,-17.58,122.6,122.63,0.0,0.0
1629641269.49997592,109128831,-2.17,-2.21,-17.6,-17.58,122.6,122.63,0.0,0.0
1629641269.59993601,109228791,-2.14,-2.18,-17.61,-17.59,122.6,122.64,0.0,0.0
1629641269.69989610,109328751,-2.1,-2.14,-17.65,-17.62,122.61,122.64,0.0,0.0
1629641269.79985595,109428711,-2.08,-2.1,-17.68,-17.67,122.61,122.64,0.0,0.0
1629641269.89981604,109528671,-2.06,-2.07,-17.68,-17.7,122.61,122.65,0.0,0.0
1629641269.99977612,109628631,-2.07,-2.06,-17.64,-17.7,122.62,122.65,0.0,0.0
1629641270.09973598,109728591,-2.09,-2.07,-17.6,-17.65,122.62,122.65,0.0,0.0
1629641270.19969606,109828551,-2.1,-2.09,-17.6,-17.62,122.62,122.65,0.0,0.0
1629641270.29965591,109928511,-2.1,-2.11,-17.63,-17.62,122.62,122.66,0.0,0.0
1629641270.39961600,110028471,-2.1,-2.12,-17.66,-17.65,122.63,122.66,0.0,0.0
1629641270.49957609,110128431,-2.09,-2.12,-17.69,-17.68,122.63,122.66,0.0,0.0
1629641270.59953594,110228391,-2.07,-2.1,-17.72,-17.71,122.63,122.66,0.0,0.0
1629641270.69949603,110328351,-2.08,-2.09,-17.74,-17.75,122.63,122.67,0.0,0.0
1629641270.79945612,110428311,-2.09,-2.1,-17.73,-17.76,122.64,122.67,0.0,0.0
1629641270.89941597,110528271,-2.09,-2.1,-17.7,-17.74,122.64,122.67,0.0,0.0
1629641270.99937606,110628231,-2.1,-2.11,-17.7,-17.72,122.64,122.67,0.0,0.0
1629641271.09933591,110728191,-2.12,-2.13,-17.71,-17.72,122.64,122.67,0.0,0.0
1629641271.20012903,110828984,-2.14,-2.15,-17.7,-17.72,122.64,122.67,0.0,0.0
1629641271.30008912,110928944,-2.15,-2.16,-17.69,-17.72,122.64,122.67,0.0,0.0
1629641271.40004897,111028904,-2.15,-2.17,-17.66,-17.7,122.64,122.67,0.0,0.0
1629641271.50000906,111128864,-2.14,-2.17,-17.66,-17.68,122.64,122.67,0.0,0.0
1629641271.59996891,111228824,-2.12,-2.15,-17.67,-17.68,122.64,122.67,0.0,0.0
1629641271.69992900,111328784,-2.1,-2.13,-17.68,-17.69,122.64,122.67,0.0,0.0
1629641271.79988909,111428744,-2.1,-2.12,-17.67,-17.69,122.65,122.67,0.0,0.0
1629641271.89984894,111528704,-2.13,-2.13,-17.68,-17.68,122.65,122.67,0.0,0.0
1629641271.99980903,111628664,-2.15,-2.15,-17.67,-17.68,122.65,122.67,0.0,0.0
1629641272.09976912,111728624,-2.14,-2.16,-17.66,-17.66,122.64,122.67,0.0,0.0
1629641272.19972897,111828584,-2.12,-2.16,-17.65,-17.65,122.64,122.67,0.0,0.0
1629641272.29968905,111928544,-2.12,-2.14,-17.67,-17.64,122.64,122.67,0.0,0.0
1629641272.39964890,112028504,-2.12,-2.13,-17.69,-17.66,122.64,122.67,0.0,0.0
1629641272.49960899,112128464,-2.12,-2.12,-17.71,-17.69,122.64,122.67,0.0,0.0
1629641272.59956908,112228424,-2.11,-2.12,-17.7,-17.71,122.64,122.67,0.0,0.0
1629641272.69952893,112328384,-2.09,-2.1,-17.67,-17.7,122.64,122.67,0.0,0.0
1629641272.79948902,112428344,-2.09,-2.09,-17.66,-17.69,122.64,122.67,0.0,0.0
1629641272.89944911,112528304,-2.08,-2.09,-17.68,-17.69,122.64,122.67,0.0,0.0
1629641272.99940896,112628264,-2.1,-2.1,-17.68,-17.7,122.64,122.67,0.0,0.0
1629641273.09936905,112728224,-2.12,-2.12,-17.68,-17.7,122.64,122.66,0.0,0.0
1629641273.19932890,112828184,-2.13,-2.14,-17.68,-17.7,122.64,122.66,0.0,0.0
1629641273.30012202,112928977,-2.12,-2.16,-17.67,-17.7,122.64,122.66,0.0,0.0
1629641273.40008211,113028937,-2.1,-2.14,-17.66,-17.69,122.64,122.66,0.0,0.0
1629641273.50004196,113128897,-2.07,-2.12,-17.66,-17.68,122.64,122.66,0.0,0.0
1629641273.60000205,113228857,-2.05,-2.09,-17.66,-17.67,122.65,122.66,0.0,0.0
1629641273.69996190,113328817,-2.05,-2.05,-17.65,-17.66,122.65,122.66,0.0,0.0
1629641273.79992199,113428777,-2.07,-2.06,-17.64,-17.65,122.65,122.66,0.0,0.0
1629641273.89988208,113528737,-2.1,-2.09,-17.65,-17.66,122.65,122.67,0.0,0.0
1629641273.99984193,113628697,-2.12,-2.12,-17.64,-17.66,122.66,122.67,0.0,0.0
1629641274.09980202,113728657,-2.13,-2.15,-17.62,-17.64,122.66,122.68,0.0,0.0
1629641274.19976211,113828617,-2.11,-2.14,-17.61,-17.62,122.66,122.68,0.0,0.0
1629641274.29972196,113928577,-2.08,-2.1,-17.61,-17.61,122.66,122.68,0.0,0.0
1629641274.39968204,114028537,-2.05,-2.06,-17.6,-17.6,122.66,122.68,0.0,0.0
1629641274.49964190,114128497,-2.07,-2.06,-17.62,-17.6,122.66,122.68,0.0,0.0
1629641274.59960198,114228457,-2.06,-2.06,-17.66,-17.64,122.66,122.69,0.0,0.0
1629641274.69956207,114328417,-2.05,-2.06,-17.67,-17.67,122.66,122.69,0.0,0.0
1629641274.79952192,114428377,-2.04,-2.05,-17.69,-17.69,122.66,122.68,0.0,0.0
1629641274.89948201,114528337,-2.02,-2.05,-17.71,-17.72,122.66,122.68,0.0,0.0
1629641274.99944210,114628297,-2.03,-2.04,-17.72,-17.74,122.67,122.68,0.0,0.0
1629641275.09940195,114728257,-2.04,-2.05,-17.71,-17.73,122.67,122.68,0.0,0.0
1629641275.19936204,114828217,-2.06,-2.07,-17.7,-17.72,122.67,122.68,0.0,0.0
1629641275.29932213,114928177,-2.09,-2.09,-17.67,-17.69,122.67,122.68,0.0,0.0
1629641275.40011501,115028970,-2.09,-2.11,-17.65,-17.67,122.66,122.68,0.0,0.0
1629641275.50007510,115128930,-2.08,-2.12,-17.66,-17.65,122.66,122.68,0.0,0.0
1629641275.60003495,115228890,-2.07,-2.11,-17.68,-17.66,122.66,122.68,0.0,0.0
1629641275.69999504,115328850,-2.04,-2.08,-17.68,-17.67,122.67,122.68,0.0,0.0
1629641275.79995489,115428810,-2.01,-2.05,-17.69,-17.69,122.67,122.68,0.0,0.0
1629641275.89991498,115528770,-2.0,-2.01,-17.7,-17.7,122.67,122.68,0.0,0.0
1629641275.99987507,115628730,-2.03,-2.02,-17.7,-17.71,122.67,122.68,0.0,0.0
1629641276.09983492,115728690,-2.05,-2.04,-17.68,-17.71,122.67,122.68,0.0,0.0
1629641276.19979501,115828650,-2.05,-2.06,-17.67,-17.69,122.68,122.69,0.0,0.0
1629641276.29975510,115928610,-2.02,-2.05,-17.67,-17.68,122.68,122.69,0.0,0.0
1629641276.39971495,116028570,-2.02,-2.04,-17.67,-17.68,122.68,122.69,0.0,0.0
1629641276.49967504,116128530,-2.05,-2.05,-17.69,-17.69,122.68,122.69,0.0,0.0
1629641276.59963512,116228490,-2.04,-2.06,-17.72,-17.72,122.68,122.7,0.0,0.0
1629641276.69959497,116328450,-2.05,-2.06,-17.7,-17.73,122.68,122.7,0.0,0.0
1629641276.79955506,116428410,-2.07,-2.07,-17.68,-17.71,122.67,122.69,0.0,0.0
1629641276.89951491,116528370,-2.08,-2.09,-17.67,-17.69,122.67,122.69,0.0,0.0
1629641276.99947500,116628330,-2.06,-2.1,-17.67,-17.69,122.67,122.69,0.0,0.0
1629641277.09943509,116728290,-2.05,-2.08,-17.66,-17.68,122.67,122.68,0.0,0.0
1629641277.19939494,116828250,-2.05,-2.07,-17.65,-17.66,122.67,122.68,0.0,0.0
1629641277.29935503,116928210,-2.04,-2.06,-17.65,-17.65,122.67,122.68,0.0,0.0
1629641277.39931512,117028170,-2.04,-2.06,-17.67,-17.66,122.67,122.68,0.0,0.0
1629641277.50010800,117128963,-2.02,-2.03,-17.66,-17.66,122.67,122.67,0.0,0.0
1629641277.60006809,117228923,-2.02,-2.03,-17.66,-17.67,122.67,122.67,0.0,0.0
1629641277.70002794,117328883,-2.01,-2.03,-17.68,-17.69,122.67,122.67,0.0,0.01
1629641277.79998803,117428843,-2.01,-2.02,-17.71,-17.72,122.67,122.67,0.0,0.01
1629641277.89994812,117528803,-2.01,-2.02,-17.68,-17.72,122.67,122.67,0.0,0.01
1629641277.99990797,117628763,-2.02,-2.01,-17.66,-17.7,122.67,122.68,0.0,0.01
1629641278.09986806,117728723,-2.02,-2.02,-17.65,-17.68,122.67,122.68,0.0,0.01
1629641278.19982791,117828683,-2.04,-2.03,-17.66,-17.67,122.67,122.68,0.0,0.01
1629641278.29978800,117928643,-2.05,-2.06,-17.68,-17.68,122.68,122.68,0.0,0.01
1629641278.39974809,118028603,-2.05,-2.07,-17.69,-17.7,122.68,122.69,0.0,0.01
1629641278.49970794,118128563,-2.05,-2.08,-17.68,-17.7,122.68,122.69,0.0,0.01
1629641278.59966803,118228523,-2.04,-2.07,-17.66,-17.68,122.68,122.69,0.0,0.01
1629641278.69962811,118328483,-2.03,-2.05,-17.64,-17.66,122.68,122.69,0.0,0.01
1629641278.79958797,118428443,-2.01,-2.04,-17.64,-17.65,122.68,122.69,0.0,0.01
1629641278.89954805,118528403,-2.02,-2.02,-17.66,-17.65,122.68,122.69,0.0,0.01
1629641278.99950790,118628363,-2.03,-2.03,-17.69,-17.68,122.68,122.69,0.0,0.01
1629641279.09946799,118728323,-2.05,-2.05,-17.69,-17.7,122.68,122.69,0.0,0.01
1629641279.19942808,118828283,-2.08,-2.08,-17.69,-17.7,122.67,122.69,0.0,0.01
1629641279.29938793,118928243,-2.08,-2.1,-17.7,-17.7,122.67,122.69,0.0,0.01
1629641279.39934802,119028203,-2.09,-2.11,-17.71,-17.71,122.67,122.68,0.0,0.01
1629641279.49930811,119128163,-2.12,-2.13,-17.73,-17.72,122.67,122.68,0.0,0.01
1629641279.60010099,119228956,-2.14,-2.15,-17.74,-17.74,122.66,122.68,0.0,0.01
1629641279.70006108,119328916,-2.12,-2.16,-17.69,-17.73,122.66,122.67,0.0,0.01
1629641279.80002093,119428876,-2.07,-2.12,-17.65,-17.68,122.66,122.67,0.0,0.01
1629641279.89998102,119528836,-2.02,-2.05,-17.66,-17.66,122.66,122.66,0.0,0.01
1629641279.99994111,119628796,-2.01,-2.01,-17.68,-17.67,122.66,122.66,0.0,0.01
1629641280.09990096,119728756,-2.02,-2.0,-17.68,-17.68,122.66,122.66,0.0,0.01
1629641280.19986105,119828716,-2.03,-2.01,-17.65,-17.67,122.66,122.66,0.0,0.01
1629641280.29982090,119928676,-2.02,-2.01,-17.63,-17.65,122.66,122.66,0.0,0.01
1629641280.39978099,120028636,-2.01,-2.01,-17.64,-17.65,122.67,122.66,0.0,0.01
1629641280.49974108,120128596,-2.01,-2.01,-17.66,-17.66,122.67,122.67,0.0,0.01
1629641280.59970093,120228556,-2.02,-2.02,-17.7,-17.69,122.67,122.67,0.0,0.01
1629641280.69966102,120328516,-2.03,-2.04,-17.71,-17.72,122.67,122.68,0.0,0.01
1629641280.79962111,120428476,-2.01,-2.04,-17.7,-17.73,122.67,122.68,0.0,0.01
1629641280.89958096,120528436,-1.98,-2.02,-17.66,-17.7,122.68,122.68,0.0,0.01
1629641280.99954104,120628396,-1.95,-1.99,-17.65,-17.68,122.68,122.69,0.0,0.01
1629641281.09950089,120728356,-1.97,-1.97,-17.67,-17.68,122.68,122.69,0.0,0.01
1629641281.19946098,120828316,-1.99,-1.99,-17.68,-17.69,122.68,122.69,0.0,0.01
1629641281.29942107,120928276,-2.0,-2.0,-17.68,-17.69,122.68,122.69,0.0,0.01
1629641281.39938092,121028236,-1.99,-2.01,-17.68,-17.7,122.69,122.69,0.0,0.01
1629641281.49934101,121128196,-2.0,-2.01,-17.68,-17.69,122.69,122.69,0.0,0.01
1629641281.59930110,121228156,-2.03,-2.03,-17.66,-17.68,122.69,122.69,0.0,0.01
1629641281.70009398,121328949,-2.05,-2.06,-17.65,-17.66,122.69,122.69,0.0,0.01
1629641281.80005407,121428909,-2.06,-2.08,-17.64,-17.65,122.69,122.69,0.0,0.01
1629641281.90001392,121528869,-2.04,-2.07,-17.65,-17.65,122.68,122.69,0.0,0.01
1629641281.99997401,121628829,-2.01,-2.04,-17.65,-17.65,122.68,122.69,0.0,0.01
1629641282.09993410,121728789,-1.98,-2.0,-17.67,-17.66,122.68,122.69,0.0,0.01
1629641282.19989395,121828749,-1.96,-1.98,-17.68,-17.68,122.69,122.69,0.0,0.01
1629641282.29985404,121928709,-1.99,-1.98,-17.69,-17.69,122.69,122.69,0.0,0.01
1629641282.39981413,122028669,-1.99,-1.99,-17.72,-17.72,122.69,122.69,0.0,0.01
1629641282.49977398,122128629,-2.02,-2.01,-17.73,-17.74,122.69,122.68,0.0,0.01
1629641282.59973407,122228589,-2.05,-2.03,-17.73,-17.76,122.69,122.68,0.0,0.01
1629641282.69969392,122328549,-2.05,-2.06,-17.72,-17.76,122.68,122.68,0.0,0.01
1629641282.79965401,122428509,-2.02,-2.05,-17.69,-17.73,122.68,122.68,0.0,0.01
1629641282.89961410,122528469,-1.99,-2.02,-17.65,-17.67,122.68,122.68,0.0,0.01
1629641282.99957395,122628429,-1.97,-1.99,-17.64,-17.64,122.69,122.68,0.0,0.01
1629641283.09953403,122728389,-1.97,-1.97,-17.67,-17.64,122.69,122.68,0.0,0.01
1629641283.19949412,122828349,-1.99,-1.98,-17.7,-17.67,122.69,122.69,0.0,0.01
1629641283.29945397,122928309,-2.03,-2.01,-17.73,-17.71,122.69,122.69,0.0,0.01
1629641283.39941406,123028269,-2.08,-2.07,-17.74,-17.75,122.69,122.69,0.0,0.01
1629641283.49937391,123128229,-2.07,-2.09,-17.73,-17.76,122.68,122.7,0.0,0.01
1629641283.59933400,123228189,-2.03,-2.08,-17.71,-17.75,122.68,122.7,0.0,0.01
1629641283.70012712,123328982,-2.01,-2.05,-17.71,-17.73,122.68,122.69,0.0,0.01
1629641283.80008698,123428942,-1.99,-2.02,-17.71,-17.73,122.68,122.69,0.0,0.01
1629641283.90004706,123528902,-1.96,-1.98,-17.7,-17.72,122.68,122.69,0.0,0.01
1629641284.00000691,123628862,-1.92,-1.94,-17.72,-17.72,122.68,122.68,0.0,0.01
1629641284.09996700,123728822,-1.93,-1.92,-17.72,-17.72,122.68,122.68,0.0,0.01
1629641284.19992709,123828782,-1.96,-1.94,-17.7,-17.72,122.68,122.67,0.0,0.01
1629641284.29988694,123928742,-2.0,-1.98,-17.69,-17.7,122.68,122.67,0.0,0.01
1629641284.39984703,124028702,-2.03,-2.02,-17.69,-17.69,122.68,122.67,0.0,0.01
1629641284.49980712,124128662,-2.03,-2.06,-17.68,-17.69,122.68,122.67,0.0,0.01
1629641284.59976697,124228622,-2.01,-2.06,-17.69,-17.69,122.68,122.67,0.0,0.01
1629641284.69972706,124328582,-2.0,-2.04,-17.71,-17.7,122.68,122.67,0.0,0.01
