timestamp,TimeUS,DesRoll,Roll,DesPitch,Pitch,DesYaw,Yaw,ErrRP,ErrYaw
1629642761.59999990,65828658,0.0,0.11,0.0,0.1,352.95,352.96,0.0,0.0
1629642761.69995975,65928618,0.0,0.11,0.0,0.1,352.95,352.96,0.0,0.0
1629642761.79991984,66028578,0.0,0.11,0.0,0.1,352.95,352.96,0.0,0.0
1629642761.89987969,66128538,0.0,0.11,0.0,0.1,352.95,352.96,0.0,0.0
1629642761.99983978,66228498,0.0,0.11,0.0,0.1,352.95,352.96,0.0,0.0
1629642762.09979987,66328458,0.0,0.11,0.0,0.1,352.95,352.96,0.0,0.0
1629642762.19975972,66428418,0.0,0.11,0.0,0.1,352.95,352.96,0.0,0.0
1629642762.29971981,66528378,0.0,0.11,0.0,0.1,352.95,352.96,0.0,0.0
1629642762.39967990,66628338,0.0,0.11,0.0,0.1,352.95,352.96,0.0,0.0
1629642762.49963975,66728298,0.0,0.11,0.0,0.1,352.95,352.96,0.0,0.0
1629642762.59959984,66828258,0.0,0.11,0.0,0.1,352.95,352.96,0.0,0.0
1629642762.69955969,66928218,0.0,0.11,0.0,0.1,352.95,352.96,0.0,0.0
1629642762.79951978,67028178,0.0,0.11,0.0,0.1,352.95,352.96,0.0,0.0
1629642762.90031290,67128971,0.0,0.11,0.0,0.1,352.95,352.96,0.0,0.0
1629642763.00027275,67228931,0.0,0.11,0.0,0.1,352.96,352.97,0.0,0.0
1629642763.10023284,67328891,0.0,0.11,0.0,0.1,352.96,352.97,0.0,0.0
1629642763.20019269,67428851,0.0,0.11,0.0,0.1,352.96,352.97,0.0,0.0
1629642763.30015278,67528811,0.0,0.11,0.0,0.1,352.96,352.97,0.0,0.0
1629642763.40011287,67628771,0.0,0.11,0.0,0.1,352.96,352.97,0.0,0.0
1629642763.50007272,67728731,0.0,0.11,0.0,0.1,352.96,352.97,0.0,0.0
1629642763.60003281,67828691,0.0,0.11,0.0,0.1,352.96,352.97,0.0,0.0
1629642763.69999290,67928651,0.0,0.11,0.0,0.1,352.96,352.97,0.0,0.0
1629642763.79995275,68028611,0.0,0.11,0.0,0.1,352.96,352.97,0.0,0.0
1629642763.89991283,68128571,0.0,0.11,0.0,0.1,352.96,352.97,0.0,0.0
1629642763.99987268,68228531,0.0,0.11,0.0,0.1,352.96,352.97,0.0,0.0
1629642764.09983277,68328491,0.0,0.12,0.0,0.1,352.96,352.97,0.0,0.0
1629642764.19979286,68428451,0.0,0.11,0.0,0.1,352.96,352.97,0.0,0.0
1629642764.29975271,68528411,0.0,0.12,0.0,0.1,352.96,352.97,0.0,0.0
1629642764.39971280,68628371,0.0,0.12,0.0,0.1,352.96,352.97,0.0,0.0
1629642764.49967289,68728331,0.0,0.12,0.0,0.1,352.96,352.97,0.0,0.0
1629642764.59963274,68828291,0.0,0.12,0.0,0.1,352.96,352.97,0.0,0.0
1629642764.69959283,68928251,0.0,0.12,0.0,0.1,352.96,352.97,0.0,0.0
1629642764.79955292,69028211,0.0,0.12,0.0,0.1,352.96,352.97,0.0,0.0
1629642764.89951277,69128171,0.0,0.12,0.0,0.1,352.97,352.98,0.0,0.0
1629642765.00030589,69228964,0.0,0.12,0.0,0.1,352.97,352.98,0.0,0.0
1629642765.10026574,69328924,0.0,0.12,0.0,0.1,352.97,352.98,0.0,0.0
1629642765.20022583,69428884,0.0,0.12,0.0,0.11,352.97,352.98,0.0,0.0
1629642765.30018592,69528844,0.0,0.12,0.0,0.11,352.97,352.98,0.0,0.0
1629642765.40014577,69628804,0.0,0.12,0.0,0.11,352.97,352.98,0.0,0.0
1629642765.50010586,69728764,-0.13,0.12,-0.14,0.11,352.97,352.98,0.0,0.0
1629642765.60006571,69828724,-0.14,0.12,-0.16,0.11,352.97,352.98,0.0,0.0
1629642765.70002580,69928684,-0.21,0.12,-0.23,0.11,352.97,352.98,0.0,0.0
1629642765.79998589,70028644,-0.29,0.12,-0.31,0.11,352.97,352.98,0.0,0.0
1629642765.89994574,70128604,-0.35,0.12,-0.37,0.11,352.97,352.98,0.0,0.0
1629642765.99990582,70228564,-0.38,0.12,-0.41,0.11,352.97,352.98,0.0,0.0
1629642766.09986591,70328524,-0.4,0.12,-0.44,0.11,352.97,352.98,0.0,0.0
1629642766.19982576,70428484,-0.43,0.12,-0.48,0.11,352.97,352.98,0.0,0.0
1629642766.29978585,70528444,-0.46,0.12,-0.5,0.11,352.97,352.98,0.0,0.0
1629642766.39974570,70628404,-0.47,0.12,-0.52,0.11,352.97,352.98,0.0,0.0
1629642766.49970579,70728364,-0.48,0.12,-0.56,0.11,352.97,352.98,0.0,0.0
1629642766.59966588,70828324,-0.51,0.12,-0.58,0.11,352.97,352.98,0.0,0.0
1629642766.69962573,70928284,-0.53,0.12,-0.58,0.11,352.97,352.98,0.0,0.0
1629642766.79958582,71028244,-0.58,0.12,-0.59,0.11,352.97,352.99,0.0,0.0
1629642766.89954591,71128204,-0.64,0.12,-0.61,0.11,352.97,352.99,0.0,0.0
1629642766.99950576,71228164,-0.67,0.07,-0.66,0.06,352.97,352.99,0.0,0.0
1629642767.10029888,71328957,-0.67,-0.28,-0.68,-0.31,352.97,352.99,0.0,0.0
1629642767.20025873,71428917,-0.62,-0.71,-0.63,-0.74,352.97,352.99,0.0,0.0
1629642767.30021882,71528877,-0.47,-0.95,-0.49,-0.99,352.97,352.99,0.0,0.0
1629642767.40017891,71628837,-0.26,-0.97,-0.25,-0.99,352.97,352.98,0.0,0.0
1629642767.50013876,71728797,0.02,-0.77,0.03,-0.78,352.97,352.98,0.0,0.0
1629642767.60009885,71828757,0.33,-0.43,0.33,-0.44,352.97,352.97,0.0,0.0
1629642767.70005870,71928717,0.53,-0.07,0.56,-0.06,352.97,352.97,0.0,0.0
1629642767.80001879,72028677,0.62,0.17,0.64,0.19,352.97,352.97,0.0,0.0
1629642767.89997888,72128637,0.63,0.3,0.64,0.31,352.97,352.97,0.0,0.0
1629642767.99993873,72228597,0.59,0.32,0.61,0.33,352.97,352.97,0.0,0.0
1629642768.09989882,72328557,0.55,0.3,0.58,0.3,352.97,352.97,0.0,0.0
1629642768.19985890,72428517,0.53,0.25,0.54,0.25,352.97,352.97,0.0,0.0
1629642768.29981875,72528477,0.53,0.23,0.54,0.22,352.97,352.97,0.0,0.0
1629642768.39977884,72628437,0.53,0.23,0.54,0.22,352.97,352.97,0.0,0.0
1629642768.49973869,72728397,0.49,0.23,0.58,0.26,352.97,352.97,0.0,0.0
1629642768.59969878,72828357,0.45,0.21,0.63,0.35,352.97,352.97,0.0,0.0
1629642768.69965887,72928317,0.44,0.21,0.61,0.41,352.97,352.97,0.0,0.0
1629642768.79961872,73028277,0.48,0.25,0.57,0.42,352.66,352.66,0.0,0.0
1629642768.89957881,73128237,0.49,0.3,0.53,0.41,352.66,352.66,0.0,0.0
1629642768.99953890,73228197,0.48,0.32,0.47,0.36,352.66,352.66,0.0,0.0
1629642769.09949875,73328157,0.46,0.33,0.41,0.29,352.66,352.67,0.0,0.0
1629642769.20029187,73428950,0.45,0.32,0.4,0.24,352.66,352.67,0.0,0.0
1629642769.30025172,73528910,0.44,0.33,0.39,0.23,352.66,352.67,0.0,0.0
1629642769.40021181,73628870,0.41,0.31,0.36,0.22,352.66,352.67,0.0,0.0
1629642769.50017190,73728830,0.41,0.32,0.32,0.2,352.66,352.68,0.0,0.0
1629642769.60013175,73828790,0.41,0.32,0.27,0.18,352.66,352.68,0.0,0.0
1629642769.70009184,73928750,0.37,0.31,0.25,0.16,352.66,352.67,0.0,0.0
1629642769.80005169,74028710,0.31,0.27,0.23,0.14,352.66,352.67,0.0,0.0
1629642769.90001178,74128670,0.29,0.23,0.22,0.14,352.66,352.67,0.0,0.0
1629642769.99997187,74228630,0.29,0.21,0.24,0.16,352.66,352.67,0.0,0.0
1629642770.09993172,74328590,0.27,0.21,0.21,0.16,352.66,352.66,0.0,0.0
1629642770.19989181,74428550,0.25,0.19,0.17,0.14,352.66,352.66,0.0,0.0
1629642770.29985189,74528510,0.24,0.18,0.12,0.1,352.66,352.66,0.0,0.0
1629642770.39981174,74628470,0.23,0.18,0.06,0.04,352.66,352.66,0.0,0.0
1629642770.49977183,74728430,0.23,0.18,0.03,0.0,352.66,352.66,0.0,0.0
1629642770.59973168,74828390,0.22,0.18,0.02,-0.02,352.66,352.66,0.0,0.0
1629642770.69969177,74928350,0.18,0.17,0.02,-0.03,352.66,352.66,0.0,0.0
1629642770.79965186,75028310,0.13,0.11,0.05,-0.01,352.66,352.66,0.0,0.0
1629642770.89961171,75128270,0.13,0.09,0.06,0.01,352.66,352.67,0.0,0.0
1629642770.99957180,75228230,0.16,0.11,0.05,0.01,352.66,352.67,0.0,0.0
1629642771.09953189,75328190,0.17,0.13,0.07,0.03,352.66,352.67,0.0,0.0
1629642771.20032477,75428983,0.2,0.16,0.08,0.05,352.66,352.67,0.0,0.0
1629642771.30028486,75528943,0.23,0.2,0.08,0.07,352.66,352.67,0.0,0.0
1629642771.40024471,75628903,0.22,0.21,0.04,0.05,352.66,352.67,0.0,0.0
1629642771.50020480,75728863,0.18,0.19,0.04,0.03,352.66,352.66,0.0,0.0
1629642771.60016489,75828823,0.15,0.16,0.06,0.02,352.66,352.66,0.0,0.0
1629642771.70012474,75928783,0.17,0.15,0.07,0.03,352.66,352.66,0.0,0.0
1629642771.80008483,76028743,0.19,0.16,0.08,0.05,352.66,352.66,0.0,0.0
1629642771.90004492,76128703,0.18,0.16,0.1,0.08,352.66,352.66,0.0,0.0
1629642772.00000477,76228663,0.17,0.16,0.13,0.11,352.66,352.66,0.0,0.0
1629642772.09996486,76328623,0.19,0.16,0.12,0.12,352.66,352.66,0.0,0.0
1629642772.19992471,76428583,0.23,0.18,0.12,0.1,352.66,352.66,0.0,0.0
1629642772.29988480,76528543,0.24,0.2,0.15,0.12,352.66,352.66,0.0,0.0
1629642772.39984488,76628503,0.24,0.22,0.17,0.15,352.66,352.67,0.0,0.0
1629642772.49980474,76728463,0.23,0.23,0.18,0.17,352.66,352.67,0.0,0.0
1629642772.59976482,76828423,0.2,0.21,0.18,0.17,352.66,352.67,0.0,0.0
1629642772.69972491,76928383,0.17,0.18,0.21,0.18,352.66,352.67,0.0,0.0
1629642772.79968476,77028343,0.15,0.15,0.19,0.19,352.66,352.67,0.0,0.0
1629642772.89964485,77128303,0.18,0.14,0.19,0.19,352.66,352.67,0.0,0.0
1629642772.99960470,77228263,0.22,0.16,0.21,0.19,352.66,352.67,0.0,0.0
1629642773.09956479,77328223,0.26,0.22,0.2,0.19,352.66,352.66,0.0,0.0
1629642773.19952488,77428183,0.26,0.24,0.18,0.17,352.66,352.66,0.0,0.0
1629642773.30031776,77528976,0.22,0.22,0.19,0.18,352.66,352.66,0.0,0.0
1629642773.40027785,77628936,0.19,0.19,0.18,0.18,352.66,352.66,0.0,0.0
1629642773.50023770,77728896,0.18,0.17,0.15,0.16,352.66,352.67,0.0,0.0
1629642773.60019779,77828856,0.21,0.18,0.14,0.13,352.66,352.67,0.0,0.0
1629642773.70015788,77928816,0.21,0.19,0.18,0.14,352.66,352.67,0.0,0.0
1629642773.80011773,78028776,0.23,0.21,0.2,0.17,352.66,352.67,0.0,0.0
1629642773.90007782,78128736,0.22,0.23,0.17,0.18,352.66,352.67,0.0,0.0
1629642774.00003791,78228696,0.2,0.23,0.1,0.13,352.66,352.67,0.0,0.0
1629642774.09999776,78328656,0.15,0.19,0.05,0.07,352.66,352.67,0.0,0.0
1629642774.19995785,78428616,0.13,0.14,0.07,0.04,352.66,352.67,0.0,0.0
1629642774.29991770,78528576,0.12,0.11,0.13,0.07,352.66,352.66,0.0,0.0
1629642774.39987779,78628536,0.12,0.1,0.18,0.13,352.66,352.66,0.0,0.0
1629642774.49983788,78728496,0.11,0.09,0.2,0.19,352.66,352.66,0.0,0.0
1629642774.59979773,78828456,0.09,0.09,0.2,0.23,352.66,352.66,0.0,0.0
1629642774.69975781,78928416,0.09,0.07,0.18,0.23,352.66,352.66,0.0,0.0
1629642774.79971790,79028376,0.09,0.06,0.16,0.21,352.66,352.66,0.0,0.0
1629642774.89967775,79128336,0.11,0.07,0.13,0.17,352.66,352.66,0.0,0.0
1629642774.99963784,79228296,0.12,0.09,0.1,0.12,352.66,352.66,0.0,0.0
1629642775.09959769,79328256,0.1,0.1,0.09,0.08,352.66,352.67,0.0,0.0
1629642775.19955778,79428216,0.07,0.08,0.13,0.08,352.66,352.67,0.0,0.0
1629642775.29951787,79528176,0.06,0.06,0.18,0.12,352.66,352.67,0.0,0.0
1629642775.40031075,79628969,0.08,0.06,0.2,0.17,352.66,352.67,0.0,0.0
1629642775.50027084,79728929,0.1,0.08,0.2,0.2,352.66,352.67,0.0,0.0
1629642775.60023069,79828889,0.11,0.1,0.19,0.2,352.66,352.67,0.0,0.0
1629642775.70019078,79928849,0.07,0.09,0.15,0.17,352.66,352.67,0.0,0.0
1629642775.80015087,80028809,0.03,0.05,0.11,0.13,352.66,352.67,0.0,0.0
1629642775.90011072,80128769,0.02,0.02,0.09,0.09,352.66,352.67,0.0,0.0
1629642776.00007081,80228729,0.05,0.03,0.1,0.08,352.66,352.67,0.0,0.0
1629642776.10003090,80328689,0.08,0.05,0.13,0.1,352.66,352.67,0.0,0.0
1629642776.19999075,80428649,0.1,0.09,0.14,0.13,352.66,352.67,0.0,0.0
1629642776.29995084,80528609,0.12,0.11,0.11,0.13,352.66,352.67,0.0,0.0
1629642776.39991069,80628569,0.13,0.13,0.1,0.11,352.66,352.67,0.0,0.0
1629642776.49987078,80728529,0.15,0.15,0.12,0.11,352.66,352.67,0.0,0.0
1629642776.59983087,80828489,0.14,0.15,0.13,0.11,352.66,352.67,0.0,0.0
1629642776.69979072,80928449,0.12,0.13,0.13,0.12,352.66,352.67,0.0,0.0
1629642776.79975080,81028409,0.12,0.1,0.14,0.13,352.66,352.66,0.0,0.0
1629642776.89971089,81128369,0.12,0.09,0.12,0.13,352.66,352.66,0.0,0.0
1629642776.99967074,81228329,0.13,0.1,0.09,0.1,352.66,352.66,0.0,0.0
1629642777.09963083,81328289,0.13,0.1,0.05,0.06,352.66,352.66,0.0,0.0
1629642777.19959068,81428249,0.14,0.11,0.04,0.02,352.66,352.66,0.0,0.0
1629642777.29955077,81528209,0.16,0.14,0.07,0.03,352.66,352.66,0.0,0.0
1629642777.39951086,81628169,0.18,0.17,0.09,0.06,352.66,352.66,0.0,0.0
1629642777.50030375,81728962,0.18,0.19,0.13,0.09,352.66,352.66,0.0,0.0
1629642777.60026383,81828922,0.18,0.19,0.18,0.14,352.66,352.66,0.0,0.0
1629642777.70022368,81928882,0.17,0.18,0.22,0.19,352.66,352.66,0.0,0.0
1629642777.80018377,82028842,0.18,0.18,0.23,0.22,352.66,352.66,0.0,0.0
1629642777.90014386,82128802,0.16,0.17,0.22,0.23,352.66,352.66,0.0,0.0
1629642778.00010371,82228762,0.11,0.12,0.17,0.2,352.66,352.66,0.0,0.0
1629642778.10006380,82328722,0.11,0.08,0.13,0.16,352.66,352.67,0.0,0.0
1629642778.20002389,82428682,0.11,0.07,0.14,0.12,352.66,352.67,0.0,0.0
1629642778.29998374,82528642,0.13,0.09,0.17,0.14,352.66,352.67,0.0,0.0
1629642778.39994383,82628602,0.16,0.13,0.18,0.16,352.66,352.67,0.0,0.0
1629642778.49990392,82728562,0.18,0.16,0.19,0.17,352.66,352.67,0.0,0.0
1629642778.59986377,82828522,0.19,0.18,0.16,0.17,352.66,352.67,0.0,0.0
1629642778.69982386,82928482,0.2,0.19,0.13,0.14,352.66,352.67,0.0,0.0
1629642778.79978371,83028442,0.18,0.19,0.12,0.11,352.66,352.67,0.0,0.0
1629642778.89974380,83128402,0.14,0.15,0.11,0.09,352.66,352.67,0.0,0.0
1629642778.99970388,83228362,0.11,0.11,0.12,0.08,352.66,352.67,0.0,0.0
1629642779.09966373,83328322,0.12,0.09,0.13,0.1,352.66,352.67,0.0,0.0
1629642779.19962382,83428282,0.12,0.1,0.14,0.13,352.66,352.67,0.0,0.0
1629642779.29958391,83528242,0.11,0.09,0.16,0.16,352.66,352.67,0.0,0.0
1629642779.39954376,83628202,0.12,0.1,0.17,0.17,352.66,352.67,0.0,0.0
1629642779.49950385,83728162,0.13,0.11,0.17,0.18,352.66,352.67,0.0,0.0
1629642779.60029674,83828955,0.15,0.13,0.16,0.17,352.66,352.66,0.0,0.0
1629642779.70025682,83928915,0.17,0.15,0.14,0.15,352.66,352.67,0.0,0.0
1629642779.80021691,84028875,0.18,0.17,0.13,0.12,352.66,352.67,0.0,0.0
1629642779.90017676,84128835,0.21,0.19,0.12,0.11,352.66,352.67,0.0,0.0
1629642780.00013685,84228795,0.21,0.2,0.09,0.08,352.66,352.67,0.0,0.0
1629642780.10009670,84328755,0.19,0.2,0.09,0.07,352.66,352.67,0.0,0.0
1629642780.20005679,84428715,0.19,0.19,0.1,0.07,352.66,352.67,0.0,0.0
1629642780.30001688,84528675,0.16,0.17,0.1,0.09,352.66,352.67,0.0,0.0
1629642780.39997673,84628635,0.16,0.16,0.07,0.08,352.66,352.67,0.0,0.0
1629642780.49993682,84728595,0.16,0.14,0.05,0.06,352.66,352.67,0.0,0.0
1629642780.59989691,84828555,0.17,0.15,0.05,0.04,352.66,352.67,0.0,0.0
1629642780.69985676,84928515,0.18,0.16,0.08,0.04,352.66,352.67,0.0,0.0
1629642780.79981685,85028475,0.15,0.16,0.09,0.05,352.66,352.67,0.0,0.0
1629642780.89977670,85128435,0.14,0.14,0.13,0.09,352.66,352.67,0.0,0.0
1629642780.99973679,85228395,0.12,0.12,0.18,0.15,352.66,352.67,0.0,0.0
1629642781.09969687,85328355,0.12,0.11,0.21,0.2,352.66,352.67,0.0,0.0
1629642781.19965672,85428315,0.14,0.12,0.22,0.23,352.66,352.67,0.0,0.0
1629642781.29961681,85528275,0.18,0.15,0.17,0.22,352.66,352.67,0.0,0.0
1629642781.39957690,85628235,0.16,0.16,0.09,0.16,352.66,352.66,0.0,0.0
1629642781.49953675,85728195,0.14,0.14,0.06,0.09,352.66,352.66,0.0,0.0
1629642781.59949684,85828155,0.14,0.12,0.05,0.03,352.66,352.66,0.0,0.0
1629642781.70028973,85928948,0.14,0.13,0.06,0.02,352.66,352.66,0.0,0.0
1629642781.80024981,86028908,0.15,0.13,0.09,0.04,352.66,352.66,0.0,0.0
1629642781.90020990,86128868,0.15,0.14,0.13,0.08,352.66,352.67,0.0,0.0
1629642782.00016975,86228828,0.15,0.15,0.15,0.12,352.66,352.67,0.0,0.0
1629642782.10012984,86328788,0.16,0.16,0.13,0.14,352.66,352.67,0.0,0.0
1629642782.20008969,86428748,0.15,0.16,0.13,0.14,352.66,352.67,0.0,0.0
1629642782.30004978,86528708,0.14,0.15,0.08,0.12,352.66,352.67,0.0,0.0
1629642782.40000987,86628668,0.11,0.12,0.07,0.08,352.66,352.67,0.0,0.0
1629642782.49996972,86728628,0.06,0.08,0.11,0.08,352.66,352.67,0.0,0.0
1629642782.59992981,86828588,0.02,0.04,0.14,0.1,352.66,352.68,0.0,0.0
1629642782.69988990,86928548,0.0,0.0,0.14,0.12,352.66,352.68,0.0,0.0
1629642782.79984975,87028508,0.03,0.0,0.14,0.13,352.66,352.67,0.0,0.0
1629642782.89980984,87128468,0.08,0.04,0.14,0.14,352.66,352.67,0.0,0.0
1629642782.99976969,87228428,0.12,0.1,0.16,0.15,352.66,352.66,0.0,0.0
1629642783.09972978,87328388,0.11,0.12,0.14,0.15,352.66,352.66,0.0,0.0
1629642783.19968987,87428348,0.77,0.29,-1.94,-0.38,352.66,352.66,0.0,0.0
1629642783.29964972,87528308,2.35,1.58,-13.59,-7.1,352.65,352.56,0.0,0.0
1629642783.39960980,87628268,2.74,2.76,-20.71,-17.68,352.65,352.27,0.0,0.0
1629642783.49956989,87728228,2.33,3.07,-18.58,-22.29,352.65,352.25,0.0,0.01
1629642783.59952974,87828188,1.56,2.47,-13.08,-20.05,352.65,352.6,0.0,0.01
1629642783.70032287,87928981,0.74,1.42,-7.11,-13.54,352.65,353.01,0.0,0.01
1629642783.80028272,88028941,0.21,0.41,-2.68,-6.13,352.65,353.2,0.0,0.01
1629642783.90024281,88128901,0.06,-0.19,-0.61,-0.56,352.65,353.2,0.0,0.02
1629642784.00020289,88228861,0.19,-0.33,-0.54,1.98,352.65,353.13,0.0,0.02
1629642784.10016274,88328821,0.4,-0.12,-1.54,1.83,352.65,353.02,0.01,0.02
1629642784.20012283,88428781,0.55,0.2,-2.59,0.2,352.65,352.89,0.01,0.01
1629642784.30008268,88528741,0.58,0.46,-3.03,-1.55,352.65,352.75,0.01,0.01
1629642784.40004277,88628701,0.47,0.54,-2.63,-2.5,352.65,352.62,0.01,0.01
1629642784.50000286,88728661,0.32,0.46,-1.66,-2.36,352.65,352.53,0.01,0.01
1629642784.59996271,88828621,0.16,0.29,-0.47,-1.39,352.65,352.46,0.01,0.01
1629642784.69992280,88928581,0.04,0.11,0.63,-0.03,352.65,352.43,0.01,0.0
1629642784.79988289,89028541,0.0,-0.02,1.39,1.21,352.65,352.42,0.01,0.0
1629642784.89984274,89128501,0.01,-0.06,1.74,2.02,352.65,352.44,0.0,0.0
1629642784.99980283,89228461,0.04,-0.05,1.78,2.33,352.65,352.48,0.0,0.0
1629642785.09976292,89328421,0.05,-0.01,1.67,2.25,352.65,352.53,0.0,0.0
1629642785.19972277,89428381,0.06,0.01,1.54,1.96,352.65,352.58,0.0,0.0
1629642785.29968286,89528341,0.07,0.05,1.48,1.69,352.65,352.63,0.0,0.0
1629642785.39964271,89628301,0.08,0.07,1.49,1.5,352.65,352.68,0.0,0.0
1629642785.49960279,89728261,0.05,0.07,1.6,1.48,352.65,352.71,0.0,0.0
1629642785.59956288,89828221,0.01,0.04,1.71,1.56,352.65,352.74,0.0,0.0
1629642785.69952273,89928181,0.01,0.01,1.8,1.68,352.65,352.75,0.0,0.0
1629642785.80031586,90028974,0.03,0.01,1.81,1.77,352.65,352.75,0.0,0.0
1629642785.90027571,90128934,0.04,0.02,1.76,1.79,352.65,352.74,0.0,0.0
1629642786.00023580,90228894,0.06,0.04,1.68,1.74,352.65,352.72,0.0,0.0
1629642786.10019588,90328854,0.08,0.06,1.57,1.63,352.65,352.7,0.0,0.0
1629642786.20015574,90428814,0.07,0.06,1.46,1.49,352.65,352.68,0.0,0.0
1629642786.30011582,90528774,0.06,0.05,1.35,1.36,352.65,352.66,0.0,0.0
1629642786.40007591,90628734,0.06,0.06,1.24,1.23,352.65,352.64,0.0,0.0
1629642786.50003576,90728694,0.06,0.06,1.14,1.12,352.65,352.63,0.0,0.0
1629642786.59999585,90828654,0.09,0.07,1.03,1.01,352.65,352.63,0.0,0.0
1629642786.69995570,90928614,0.13,0.1,0.95,0.92,352.65,352.62,0.0,0.0
1629642786.79991579,91028574,0.11,0.12,0.89,0.84,352.65,352.63,0.0,0.0
1629642786.89987588,91128534,0.06,0.1,0.82,0.78,352.65,352.63,0.0,0.0
1629642786.99983573,91228494,0.03,0.04,0.76,0.73,352.65,352.63,0.0,0.0
1629642787.09979582,91328454,0.03,0.01,0.69,0.67,352.65,352.64,0.0,0.0
1629642787.19975591,91428414,0.04,0.02,0.59,0.58,352.65,352.64,0.0,0.0
1629642787.29971576,91528374,0.05,0.02,0.5,0.49,352.65,352.65,0.0,0.0
1629642787.39967585,91628334,0.07,0.04,0.42,0.4,352.65,352.66,0.0,0.0
1629642787.49963570,91728294,0.07,0.05,0.38,0.35,352.65,352.66,0.0,0.0
1629642787.59959579,91828254,0.09,0.07,0.33,0.31,352.65,352.66,0.0,0.0
1629642787.69955587,91928214,0.15,0.11,0.26,0.25,352.65,352.66,0.0,0.0
1629642787.79951572,92028174,0.18,0.15,0.21,0.19,352.65,352.66,0.0,0.0
1629642787.90030885,92128967,0.17,0.17,0.18,0.15,352.65,352.66,0.0,0.0
1629642788.00026870,92228927,0.16,0.17,0.18,0.14,352.65,352.66,0.0,0.0
1629642788.10022879,92328887,0.17,0.17,0.2,0.15,352.65,352.66,0.0,0.0
1629642788.20018888,92428847,0.19,0.18,0.18,0.16,352.65,352.66,0.0,0.0
1629642788.30014873,92528807,0.19,0.19,0.14,0.14,352.65,352.65,0.0,0.0
1629642788.40010881,92628767,0.19,0.19,0.14,0.12,352.65,352.65,0.0,0.0
1629642788.50006890,92728727,0.2,0.2,0.13,0.12,352.65,352.65,0.0,0.0
1629642788.60002875,92828687,0.17,0.18,0.06,0.08,352.65,352.65,0.0,0.0
1629642788.69998884,92928647,0.17,0.16,0.01,0.02,352.65,352.65,0.0,0.0
1629642788.79994869,93028607,0.18,0.16,0.0,-0.01,352.65,352.64,0.0,0.0
1629642788.89990878,93128567,0.17,0.16,-0.01,-0.02,352.65,352.64,0.0,0.0
1629642788.99986887,93228527,0.16,0.15,0.01,0.0,352.65,352.64,0.0,0.0
1629642789.09982872,93328487,0.17,0.15,0.02,0.02,352.65,352.65,0.0,0.0
1629642789.19978881,93428447,0.19,0.17,0.02,0.02,352.65,352.65,0.0,0.0
1629642789.29974890,93528407,0.22,0.2,0.01,0.01,352.65,352.65,0.0,0.0
1629642789.39970875,93628367,0.2,0.21,0.01,0.01,352.65,352.65,0.0,0.0
1629642789.49966884,93728327,0.18,0.18,0.02,0.01,352.65,352.65,0.0,0.0
1629642789.59962869,93828287,0.16,0.16,0.04,0.02,352.65,352.65,0.0,0.0
1629642789.69958878,93928247,0.17,0.15,0.06,0.04,352.65,352.65,0.0,0.0
1629642789.79954886,94028207,0.18,0.16,0.07,0.06,352.65,352.64,0.0,0.0
1629642789.89950871,94128167,0.18,0.17,0.08,0.08,352.65,352.64,0.0,0.0
1629642790.00030184,94228960,0.2,0.18,0.08,0.1,352.65,352.64,0.0,0.0
1629642790.10026169,94328920,0.23,0.21,0.08,0.1,352.65,352.64,0.0,0.0
1629642790.20022178,94428880,0.24,0.24,0.09,0.09,352.65,352.64,0.0,0.0
1629642790.30018187,94528840,0.22,0.24,0.1,0.1,352.65,352.64,0.0,0.0
1629642790.40014172,94628800,0.2,0.22,0.11,0.1,352.65,352.64,0.0,0.0
1629642790.50010180,94728760,0.2,0.2,0.09,0.09,352.65,352.64,0.0,0.0
1629642790.60006189,94828720,0.22,0.2,0.07,0.07,352.65,352.64,0.0,0.0
1629642790.70002174,94928680,0.22,0.2,0.06,0.05,352.65,352.64,0.0,0.0
1629642790.79998183,95028640,0.2,0.19,0.06,0.03,352.65,352.64,0.0,0.0
1629642790.89994168,95128600,0.18,0.19,0.06,0.04,352.65,352.64,0.0,0.0
1629642790.99990177,95228560,0.16,0.17,0.06,0.05,352.65,352.64,0.0,0.0
1629642791.09986186,95328520,0.17,0.16,0.07,0.06,352.65,352.65,0.0,0.0
1629642791.19982171,95428480,0.2,0.18,0.09,0.07,352.65,352.65,0.0,0.0
1629642791.29978180,95528440,0.18,0.17,0.12,0.11,352.65,352.65,0.0,0.0
1629642791.39974189,95628400,0.14,0.14,0.17,0.15,352.65,352.65,0.0,0.0
1629642791.49970174,95728360,0.13,0.12,0.19,0.18,352.65,352.65,0.0,0.0
1629642791.59966183,95828320,0.11,0.1,0.2,0.2,352.65,352.65,0.0,0.0
1629642791.69962192,95928280,0.1,0.09,0.18,0.2,352.65,352.65,0.0,0.0
1629642791.79958177,96028240,0.12,0.1,0.14,0.15,352.65,352.65,0.0,0.0
1629642791.89954185,96128200,0.14,0.14,0.12,0.12,352.65,352.65,0.0,0.0
1629642791.99950171,96228160,0.12,0.14,0.14,0.11,352.65,352.65,0.0,0.0
1629642792.10029483,96328953,0.14,0.14,0.17,0.14,352.65,352.65,0.0,0.0
1629642792.20025492,96428913,0.16,0.15,0.19,0.17,352.65,352.65,0.0,0.0
1629642792.30021477,96528873,0.18,0.17,0.22,0.21,352.65,352.65,0.0,0.0
1629642792.40017486,96628833,0.21,0.19,0.22,0.23,352.65,352.65,0.0,0.0
1629642792.50013471,96728793,0.21,0.21,0.2,0.23,352.65,352.65,0.0,0.0
1629642792.60009480,96828753,0.2,0.22,0.17,0.2,352.65,352.65,0.0,0.0
1629642792.70005488,96928713,0.16,0.2,0.18,0.18,352.65,352.65,0.0,0.0
1629642792.80001473,97028673,0.11,0.14,0.17,0.16,352.65,352.65,0.0,0.0
1629642792.89997482,97128633,0.08,0.08,0.18,0.15,352.65,352.65,0.0,0.0
1629642792.99993491,97228593,0.09,0.05,0.18,0.15,352.65,352.65,0.0,0.0
1629642793.09989476,97328553,0.11,0.06,0.2,0.16,352.65,352.65,0.0,0.0
1629642793.19985485,97428513,0.11,0.07,0.22,0.18,352.65,352.65,0.0,0.0
1629642793.29981470,97528473,0.11,0.08,0.22,0.2,352.65,352.65,0.0,0.0
1629642793.39977479,97628433,0.12,0.09,0.23,0.22,352.65,352.64,0.0,0.0
1629642793.49973488,97728393,0.14,0.1,0.23,0.22,352.65,352.64,0.0,0.0
1629642793.59969473,97828353,0.13,0.11,0.21,0.21,352.65,352.65,0.0,0.0
1629642793.69965482,97928313,0.14,0.12,0.17,0.19,352.65,352.65,0.0,0.0
1629642793.79961491,98028273,0.16,0.13,0.13,0.14,352.65,352.65,0.0,0.0
1629642793.89957476,98128233,0.17,0.15,0.14,0.12,352.65,352.65,0.0,0.0
1629642793.99953485,98228193,0.15,0.14,0.16,0.14,352.65,352.65,0.0,0.0
1629642794.10032773,98328986,0.14,0.13,0.17,0.15,352.65,352.65,0.0,0.0
1629642794.20028782,98428946,0.14,0.13,0.2,0.18,352.65,352.65,0.0,0.0
1629642794.30024791,98528906,0.13,0.12,0.22,0.22,352.65,352.65,0.0,0.0
1629642794.40020776,98628866,0.14,0.12,0.21,0.22,352.65,352.65,0.0,0.0
1629642794.50016785,98728826,0.14,0.12,0.2,0.22,352.65,352.65,0.0,0.0
1629642794.60012770,98828786,0.12,0.12,0.18,0.19,352.65,352.64,0.0,0.0
1629642794.70008779,98928746,0.13,0.11,0.16,0.17,352.65,352.64,0.0,0.0
1629642794.80004787,99028706,0.14,0.13,0.14,0.14,352.65,352.64,0.0,0.0
1629642794.90000772,99128666,0.13,0.13,0.13,0.12,352.65,352.64,0.0,0.0
1629642794.99996781,99228626,0.15,0.13,0.14,0.11,352.65,352.64,0.0,0.0
1629642795.09992790,99328586,0.15,0.14,0.17,0.13,352.65,352.65,0.0,0.0
1629642795.19988775,99428546,0.15,0.14,0.18,0.16,352.65,352.65,0.0,0.0
1629642795.29984784,99528506,0.17,0.16,0.15,0.16,352.65,352.65,0.0,0.0
1629642795.39980769,99628466,0.18,0.18,0.13,0.14,352.65,352.65,0.0,0.0
1629642795.49976778,99728426,0.2,0.19,0.13,0.13,352.65,352.65,0.0,0.0
1629642795.59972787,99828386,0.21,0.21,0.15,0.12,352.65,352.65,0.0,0.0
1629642795.69968772,99928346,0.2,0.21,0.16,0.13,352.65,352.65,0.0,0.0
1629642795.79964781,100028306,0.16,0.18,0.14,0.13,352.65,352.65,0.0,0.0
1629642795.89960790,100128266,0.13,0.14,0.14,0.13,352.65,352.65,0.0,0.0
1629642795.99956775,100228226,0.11,0.1,0.12,0.12,352.65,352.65,0.0,0.0
1629642796.09952784,100328186,0.13,0.1,0.12,0.11,352.65,352.64,0.0,0.0
1629642796.20032072,100428979,0.14,0.1,0.13,0.11,352.65,352.64,0.0,0.0
1629642796.30028081,100528939,0.14,0.12,0.17,0.14,352.65,352.64,0.0,0.0
1629642796.40024090,100628899,0.12,0.12,0.2,0.18,352.65,352.64,0.0,0.0
1629642796.50020075,100728859,0.11,0.1,0.19,0.19,352.65,352.65,0.0,0.0
1629642796.60016084,100828819,0.12,0.1,0.15,0.16,352.65,352.65,0.0,0.0
1629642796.70012069,100928779,0.15,0.14,0.14,0.13,352.65,352.65,0.0,0.0
1629642796.80008078,101028739,0.14,0.16,0.14,0.11,352.65,352.65,0.0,0.0
1629642796.90004086,101128699,0.12,0.14,0.15,0.12,352.65,352.65,0.0,0.0
1629642797.00000072,101228659,0.13,0.12,0.18,0.14,352.65,352.65,0.0,0.0
1629642797.09996080,101328619,0.16,0.13,0.17,0.15,352.65,352.65,0.0,0.0
1629642797.19992089,101428579,0.17,0.15,0.16,0.15,352.65,352.65,0.0,0.0
1629642797.29988074,101528539,0.15,0.15,0.15,0.15,352.65,352.65,0.0,0.0
1629642797.39984083,101628499,0.11,0.12,0.13,0.14,352.65,352.65,0.0,0.0
1629642797.49980068,101728459,0.11,0.1,0.13,0.13,352.65,352.65,0.0,0.0
1629642797.59976077,101828419,0.13,0.09,0.17,0.14,352.65,352.65,0.0,0.0
1629642797.69972086,101928379,0.16,0.11,0.23,0.19,352.65,352.65,0.0,0.0
1629642797.79968071,102028339,0.2,0.16,0.23,0.22,352.65,352.65,0.0,0.0
1629642797.89964080,102128299,0.21,0.21,0.2,0.23,352.65,352.66,0.0,0.0
1629642797.99960089,102228259,0.2,0.21,0.16,0.19,352.65,352.66,0.0,0.0
1629642798.09956074,102328219,0.18,0.2,0.11,0.13,352.65,352.66,0.0,0.0
1629642798.19952083,102428179,0.14,0.16,0.08,0.09,352.65,352.66,0.0,0.0
1629642798.30031371,102528972,0.11,0.11,0.08,0.07,352.65,352.66,0.0,0.0
1629642798.40027380,102628932,0.09,0.07,0.11,0.07,352.65,352.66,0.0,0.0
1629642798.50023389,102728892,0.1,0.06,0.13,0.09,352.65,352.65,0.0,0.0
1629642798.60019374,102828852,0.12,0.07,0.15,0.12,352.65,352.65,0.0,0.0
1629642798.70015383,102928812,0.17,0.12,0.16,0.15,352.65,352.65,0.0,0.0
1629642798.80011392,103028772,0.21,0.17,0.13,0.14,352.65,352.66,0.0,0.0
1629642798.90007377,103128732,0.22,0.21,0.12,0.12,352.65,352.66,0.0,0.0
1629642799.00003386,103228692,0.23,0.23,0.11,0.1,352.65,352.66,0.0,0.0
1629642799.09999371,103328652,0.22,0.23,0.14,0.1,352.65,352.66,0.0,0.0
1629642799.19995379,103428612,0.22,0.22,0.16,0.12,352.65,352.66,0.0,0.0
1629642799.29991388,103528572,0.23,0.23,0.19,0.17,352.65,352.66,0.0,0.0
1629642799.39987373,103628532,0.22,0.23,0.19,0.19,352.65,352.66,0.0,0.0
1629642799.49983382,103728492,0.19,0.22,0.2,0.21,352.65,352.66,0.0,0.0
1629642799.59979391,103828452,0.17,0.18,0.23,0.22,352.65,352.66,0.0,0.0
1629642799.69975376,103928412,0.17,0.17,0.25,0.25,352.65,352.65,0.0,0.0
1629642799.79971385,104028372,0.17,0.16,0.24,0.26,352.65,352.65,0.0,0.0
1629642799.89967370,104128332,0.18,0.16,0.22,0.24,352.65,352.65,0.0,0.0
1629642799.99963379,104228292,0.19,0.17,0.21,0.22,352.65,352.65,0.0,0.0
1629642800.09959388,104328252,0.19,0.18,0.19,0.2,352.65,352.65,0.0,0.0
1629642800.19955373,104428212,0.2,0.19,0.18,0.17,352.65,352.65,0.0,0.0
1629642800.29951382,104528172,0.2,0.19,0.18,0.16,352.65,352.65,0.0,0.0
1629642800.40030670,104628965,0.18,0.17,0.21,0.18,352.65,352.65,0.0,0.0
1629642800.50026679,104728925,0.17,0.16,0.22,0.21,352.65,352.65,0.0,0.0
1629642800.60022688,104828885,0.15,0.14,0.21,0.21,352.65,352.65,0.0,0.0
1629642800.70018673,104928845,0.15,0.13,0.19,0.2,352.65,352.65,0.0,0.0
1629642800.80014682,105028805,0.2,0.15,0.16,0.17,352.65,352.65,0.0,0.0
1629642800.90010691,105128765,0.25,0.22,0.16,0.16,352.65,352.65,0.0,0.0
1629642801.00006676,105228725,0.28,0.27,0.16,0.15,352.65,352.65,0.0,0.0
1629642801.10002685,105328685,0.27,0.29,0.15,0.15,352.65,352.65,0.0,0.0
1629642801.19998670,105428645,0.23,0.26,0.14,0.13,352.65,352.65,0.0,0.0
1629642801.29994678,105528605,0.2,0.22,0.12,0.13,352.65,352.65,0.0,0.0
1629642801.39990687,105628565,0.2,0.19,0.1,0.1,352.65,352.65,0.0,0.0
1629642801.49986672,105728525,0.23,0.2,0.13,0.11,352.65,352.65,0.0,0.0
1629642801.59982681,105828485,0.26,0.23,0.16,0.13,352.65,352.65,0.0,0.0
1629642801.69978690,105928445,0.27,0.25,0.19,0.16,352.65,352.65,0.0,0.0
1629642801.79974675,106028405,0.24,0.24,0.21,0.2,352.65,352.65,0.0,0.0
1629642801.89970684,106128365,0.23,0.22,0.18,0.2,352.65,352.65,0.0,0.0
1629642801.99966669,106228325,0.22,0.21,0.12,0.15,352.65,352.65,0.0,0.0
1629642802.09962678,106328285,0.22,0.2,0.1,0.1,352.65,352.65,0.0,0.0
1629642802.19958687,106428245,0.23,0.2,0.09,0.07,352.65,352.65,0.0,0.0
1629642802.29954672,106528205,0.23,0.22,0.12,0.08,352.65,352.65,0.0,0.0
1629642802.39950681,106628165,0.22,0.22,0.16,0.12,352.65,352.65,0.0,0.0
1629642802.50029969,106728958,0.22,0.22,0.21,0.18,352.65,352.65,0.0,0.0
1629642802.60025978,106828918,0.23,0.22,0.24,0.24,352.65,352.65,0.0,0.0
1629642802.70021987,106928878,0.21,0.22,0.23,0.27,352.65,352.66,0.0,0.0
1629642802.80017972,107028838,0.2,0.2,0.17,0.23,352.65,352.66,0.0,0.0
1629642802.90013981,107128798,0.17,0.17,0.13,0.17,352.65,352.66,0.0,0.0
1629642803.00009990,107228758,0.16,0.15,0.09,0.11,352.65,352.66,0.0,0.0
1629642803.10005975,107328718,0.15,0.14,0.1,0.07,352.65,352.66,0.0,0.0
1629642803.20001984,107428678,0.12,0.11,0.12,0.08,352.65,352.66,0.0,0.0
1629642803.29997969,107528638,0.12,0.1,0.14,0.1,352.65,352.66,0.0,0.0
1629642803.39993978,107628598,0.15,0.11,0.17,0.14,352.65,352.66,0.0,0.0
1629642803.49989986,107728558,0.14,0.12,0.19,0.17,352.65,352.65,0.0,0.0
1629642803.59985971,107828518,0.12,0.11,0.19,0.18,352.65,352.65,0.0,0.0
1629642803.69981980,107928478,0.1,0.09,0.2,0.19,352.65,352.65,0.0,0.0
1629642803.79977989,108028438,0.08,0.06,0.19,0.18,352.65,352.65,0.0,0.0
1629642803.89973974,108128398,0.1,0.06,0.16,0.16,352.65,352.65,0.0,0.0
1629642803.99969983,108228358,0.11,0.07,0.15,0.15,352.65,352.64,0.0,0.0
1629642804.09965992,108328318,0.1,0.08,0.15,0.14,352.65,352.65,0.0,0.0
1629642804.19961977,108428278,0.15,0.11,0.14,0.13,352.65,352.65,0.0,0.0
1629642804.29957986,108528238,0.19,0.16,0.13,0.11,352.65,352.65,0.0,0.0
1629642804.39953971,108628198,0.2,0.2,0.15,0.12,352.65,352.65,0.0,0.0
1629642804.49949980,108728158,0.18,0.2,0.17,0.13,352.65,352.65,0.0,0.0
1629642804.60029268,108828951,0.16,0.18,0.2,0.16,352.65,352.65,0.0,0.0
1629642804.70025277,108928911,0.13,0.15,0.23,0.2,352.65,352.65,0.0,0.0
1629642804.80021286,109028871,0.1,0.11,0.24,0.23,352.65,352.65,0.0,0.0
1629642804.90017271,109128831,0.12,0.09,0.24,0.24,352.65,352.65,0.0,0.0
1629642805.00013280,109228791,0.15,0.1,0.23,0.24,352.65,352.65,0.0,0.0
1629642805.10009289,109328751,0.2,0.15,0.2,0.22,352.65,352.65,0.0,0.0
1629642805.20005274,109428711,0.24,0.2,0.17,0.18,352.65,352.65,0.0,0.0
1629642805.30001283,109528671,0.27,0.26,0.17,0.15,352.65,352.65,0.0,0.0
1629642805.39997292,109628631,0.27,0.29,0.22,0.16,352.65,352.65,0.0,0.0
1629642805.49993277,109728591,0.24,0.29,0.27,0.22,352.65,352.65,0.0,0.0
1629642805.59989285,109828551,0.22,0.25,0.28,0.27,352.65,352.65,0.0,0.0
1629642805.69985271,109928511,0.21,0.22,0.24,0.27,352.65,352.66,0.0,0.0
1629642805.79981279,110028471,0.2,0.19,0.19,0.22,352.65,352.66,0.0,0.0
1629642805.89977288,110128431,0.23,0.19,0.15,0.17,352.65,352.66,0.0,0.0
1629642805.99973273,110228391,0.26,0.22,0.09,0.1,352.65,352.66,0.0,0.0
1629642806.09969282,110328351,0.26,0.24,0.07,0.05,352.65,352.66,0.0,0.0
1629642806.19965291,110428311,0.25,0.25,0.09,0.04,352.65,352.66,0.0,0.0
1629642806.29961276,110528271,0.25,0.25,0.12,0.07,352.65,352.66,0.0,0.0
1629642806.39957285,110628231,0.23,0.24,0.13,0.1,352.65,352.65,0.0,0.0
1629642806.49953270,110728191,0.2,0.21,0.15,0.13,352.65,352.65,0.0,0.0
1629642806.60032582,110828984,0.18,0.18,0.16,0.15,352.65,352.65,0.0,0.0
1629642806.70028591,110928944,0.16,0.15,0.17,0.17,352.65,352.64,0.0,0.0
1629642806.80024576,111028904,0.15,0.13,0.2,0.19,352.65,352.64,0.0,0.0
1629642806.90020585,111128864,0.16,0.13,0.18,0.19,352.65,352.64,0.0,0.0
1629642807.00016570,111228824,0.19,0.15,0.17,0.18,352.65,352.64,0.0,0.0
1629642807.10012579,111328784,0.21,0.18,0.16,0.16,352.65,352.64,0.0,0.0
1629642807.20008588,111428744,0.21,0.2,0.16,0.15,352.65,352.65,0.0,0.0
1629642807.30004573,111528704,0.19,0.2,0.17,0.15,352.65,352.65,0.0,0.0
1629642807.40000582,111628664,0.16,0.17,0.19,0.16,352.65,352.65,0.0,0.0
1629642807.49996591,111728624,0.17,0.16,0.21,0.19,352.65,352.65,0.0,0.0
1629642807.59992576,111828584,0.19,0.16,0.22,0.21,352.65,352.65,0.0,0.0
1629642807.69988585,111928544,0.19,0.18,0.21,0.22,352.65,352.65,0.0,0.0
1629642807.79984570,112028504,0.19,0.18,0.18,0.19,352.65,352.65,0.0,0.0
1629642807.89980578,112128464,0.18,0.17,0.16,0.17,352.65,352.65,0.0,0.0
1629642807.99976587,112228424,0.2,0.17,0.17,0.15,352.65,352.65,0.0,0.0
1629642808.09972572,112328384,0.21,0.19,0.19,0.16,352.65,352.65,0.0,0.0
1629642808.19968581,112428344,0.21,0.2,0.2,0.18,352.65,352.65,0.0,0.0
1629642808.29964590,112528304,0.21,0.21,0.18,0.18,352.65,352.65,0.0,0.0
1629642808.39960575,112628264,0.18,0.18,0.16,0.16,352.65,352.65,0.0,0.0
1629642808.49956584,112728224,0.15,0.15,0.16,0.15,352.65,352.65,0.0,0.0
1629642808.59952569,112828184,0.13,0.12,0.16,0.14,352.65,352.65,0.0,0.0
1629642808.70031881,112928977,0.13,0.1,0.16,0.15,352.65,352.65,0.0,0.0
1629642808.80027890,113028937,0.13,0.1,0.16,0.15,352.65,352.65,0.0,0.0
1629642808.90023875,113128897,0.15,0.11,0.15,0.15,352.65,352.65,0.0,0.0
1629642809.00019884,113228857,0.16,0.13,0.16,0.15,352.65,352.65,0.0,0.0
1629642809.10015869,113328817,0.17,0.15,0.17,0.16,352.65,352.65,0.0,0.0
1629642809.20011878,113428777,0.14,0.15,0.18,0.17,352.65,352.65,0.0,0.0
1629642809.30007887,113528737,0.12,0.12,0.18,0.17,352.65,352.65,0.0,0.0
1629642809.40003872,113628697,0.09,0.09,0.19,0.17,352.65,352.65,0.0,0.0
1629642809.49999881,113728657,0.08,0.07,0.21,0.19,352.65,352.65,0.0,0.0
1629642809.59995890,113828617,0.1,0.06,0.22,0.21,352.65,352.65,0.0,0.0
1629642809.69991875,113928577,0.14,0.1,0.24,0.22,352.65,352.65,0.0,0.0
1629642809.79987884,114028537,0.18,0.15,0.25,0.24,352.65,352.66,0.0,0.0
1629642809.89983869,114128497,0.17,0.17,0.23,0.24,352.65,352.66,0.0,0.0
1629642809.99979877,114228457,0.19,0.19,0.19,0.2,352.65,352.66,0.0,0.0
1629642810.09975886,114328417,0.21,0.21,0.17,0.17,352.65,352.65,0.0,0.0
1629642810.19971871,114428377,0.21,0.22,0.15,0.14,352.65,352.65,0.0,0.0
1629642810.29967880,114528337,0.22,0.23,0.12,0.11,352.65,352.65,0.0,0.0
1629642810.39963889,114628297,0.22,0.23,0.11,0.09,352.65,352.64,0.0,0.0
1629642810.49959874,114728257,0.21,0.22,0.11,0.08,352.65,352.64,0.0,0.0
1629642810.59955883,114828217,0.18,0.2,0.13,0.09,352.65,352.64,0.0,0.0
1629642810.69951892,114928177,0.16,0.17,0.16,0.12,352.65,352.64,0.0,0.0
1629642810.80031180,115028970,0.16,0.14,0.19,0.15,352.65,352.65,0.0,0.0
1629642810.90027189,115128930,0.17,0.14,0.19,0.18,352.65,352.65,0.0,0.0
1629642811.00023174,115228890,0.18,0.15,0.18,0.19,352.65,352.65,0.0,0.0
1629642811.10019183,115328850,0.22,0.19,0.19,0.19,352.65,352.65,0.0,0.0
1629642811.20015168,115428810,0.25,0.22,0.18,0.18,352.65,352.65,0.0,0.0
1629642811.30011177,115528770,0.26,0.26,0.16,0.17,352.65,352.65,0.0,0.0
1629642811.40007186,115628730,0.24,0.24,0.15,0.15,352.65,352.65,0.0,0.0
1629642811.50003171,115728690,0.21,0.22,0.17,0.14,352.65,352.65,0.0,0.0
1629642811.59999180,115828650,0.21,0.19,0.19,0.16,352.65,352.65,0.0,0.0
1629642811.69995189,115928610,0.24,0.2,0.19,0.18,352.65,352.65,0.0,0.0
1629642811.79991174,116028570,0.25,0.22,0.18,0.18,352.65,352.65,0.0,0.0
1629642811.89987183,116128530,0.23,0.22,0.16,0.18,352.65,352.65,0.0,0.0
1629642811.99983191,116228490,0.24,0.22,0.14,0.15,352.65,352.65,0.0,0.0
1629642812.09979177,116328450,0.24,0.23,0.15,0.13,352.65,352.65,0.0,0.0
1629642812.19975185,116428410,0.22,0.22,0.17,0.14,352.65,352.65,0.0,0.0
1629642812.29971170,116528370,0.2,0.2,0.17,0.16,352.65,352.65,0.0,0.0
1629642812.39967179,116628330,0.21,0.19,0.17,0.16,352.65,352.65,0.0,0.0
1629642812.49963188,116728290,0.23,0.21,0.19,0.18,352.65,352.65,0.0,0.0
1629642812.59959173,116828250,0.22,0.22,0.2,0.19,352.65,352.66,0.0,0.0
1629642812.69955182,116928210,0.23,0.22,0.2,0.2,352.65,352.66,0.0,0.0
1629642812.79951191,117028170,0.23,0.22,0.19,0.18,352.65,352.65,0.0,0.0
1629642812.90030479,117128963,0.25,0.23,0.19,0.19,352.65,352.65,0.0,0.0
1629642813.00026488,117228923,0.25,0.24,0.19,0.19,352.65,352.65,0.0,0.0
1629642813.10022473,117328883,0.26,0.25,0.16,0.18,352.65,352.65,0.0,0.0
1629642813.20018482,117428843,0.26,0.25,0.14,0.14,352.65,352.65,0.0,0.0
1629642813.30014491,117528803,0.24,0.25,0.16,0.14,352.65,352.65,0.0,0.0
1629642813.40010476,117628763,0.23,0.23,0.18,0.16,352.65,352.65,0.0,0.0
1629642813.50006485,117728723,0.22,0.22,0.19,0.18,352.65,352.65,0.0,0.0
1629642813.60002470,117828683,0.21,0.2,0.18,0.18,352.65,352.65,0.0,0.0
1629642813.69998479,117928643,0.19,0.17,0.17,0.17,352.65,352.65,0.0,0.0
1629642813.79994488,118028603,0.18,0.16,0.16,0.15,352.65,352.65,0.0,0.0
1629642813.89990473,118128563,0.18,0.15,0.17,0.15,352.65,352.65,0.0,0.0
1629642813.99986482,118228523,0.19,0.15,0.2,0.16,352.65,352.64,0.0,0.0
1629642814.09982491,118328483,0.2,0.17,0.23,0.2,352.65,352.64,0.0,0.0
1629642814.19978476,118428443,0.22,0.18,0.24,0.22,352.65,352.64,0.0,0.0
1629642814.29974484,118528403,0.21,0.2,0.22,0.22,352.65,352.64,0.0,0.0
1629642814.39970469,118628363,0.2,0.19,0.18,0.19,352.65,352.64,0.0,0.0
1629642814.49966478,118728323,0.18,0.18,0.18,0.17,352.65,352.64,0.0,0.0
1629642814.59962487,118828283,0.15,0.14,0.19,0.17,352.65,352.65,0.0,0.0
1629642814.69958472,118928243,0.14,0.12,0.18,0.17,352.65,352.65,0.0,0.0
1629642814.79954481,119028203,0.13,0.11,0.16,0.16,352.65,352.66,0.0,0.0
1629642814.89950490,119128163,0.09,0.09,0.13,0.14,352.65,352.66,0.0,0.0
1629642815.00029778,119228956,0.07,0.06,0.11,0.11,352.65,352.66,0.0,0.0
1629642815.10025787,119328916,0.07,0.05,0.15,0.12,352.65,352.66,0.0,0.0
1629642815.20021772,119428876,0.12,0.07,0.2,0.16,352.65,352.66,0.0,0.0
1629642815.30017781,119528836,0.17,0.12,0.2,0.19,352.65,352.66,0.0,0.0
1629642815.40013790,119628796,0.18,0.17,0.18,0.19,352.65,352.65,0.0,0.0
1629642815.50009775,119728756,0.18,0.19,0.18,0.18,352.65,352.65,0.0,0.0
1629642815.60005784,119828716,0.16,0.19,0.23,0.2,352.65,352.64,0.0,0.0
1629642815.70001769,119928676,0.16,0.18,0.24,0.22,352.65,352.64,0.0,0.0
1629642815.79997778,120028636,0.16,0.17,0.23,0.23,352.65,352.64,0.0,0.0
1629642815.89993787,120128596,0.15,0.16,0.21,0.21,352.65,352.64,0.0,0.0
1629642815.99989772,120228556,0.13,0.14,0.17,0.17,352.65,352.64,0.0,0.0
1629642816.09985781,120328516,0.13,0.12,0.16,0.14,352.65,352.64,0.0,0.0
1629642816.19981790,120428476,0.15,0.13,0.18,0.15,352.65,352.64,0.0,0.0
1629642816.29977775,120528436,0.19,0.16,0.23,0.19,352.65,352.65,0.0,0.0
1629642816.39973783,120628396,0.23,0.2,0.25,0.23,352.65,352.65,0.0,0.0
1629642816.49969769,120728356,0.23,0.22,0.23,0.23,352.65,352.65,0.0,0.0
1629642816.59965777,120828316,0.21,0.22,0.21,0.22,352.65,352.65,0.0,0.0
1629642816.69961786,120928276,0.2,0.21,0.21,0.21,352.65,352.65,0.0,0.0
1629642816.79957771,121028236,0.22,0.22,0.2,0.19,352.65,352.65,0.0,0.0
1629642816.89953780,121128196,0.21,0.22,0.2,0.19,352.65,352.65,0.0,0.0
1629642816.99949789,121228156,1.06,0.58,-2.77,-0.76,352.65,352.65,0.0,0.0
1629642817.10029078,121328949,1.74,1.43,-10.92,-7.17,352.65,352.56,0.0,0.0
1629642817.20025086,121428909,1.83,1.97,-14.88,-13.76,352.65,352.44,0.0,0.0
1629642817.30021071,121528869,1.45,1.95,-15.65,-17.38,352.65,352.43,0.0,0.01
1629642817.40017080,121628829,0.76,1.37,-14.35,-17.64,352.65,352.56,0.0,0.01
1629642817.50013089,121728789,-0.05,0.44,-12.16,-15.46,352.65,352.71,0.0,0.01
1629642817.60009074,121828749,-0.88,-0.6,-10.11,-12.31,352.65,352.78,0.0,0.01
1629642817.70005083,121928709,-1.64,-1.58,-8.79,-9.52,352.65,352.77,0.0,0.0
1629642817.80001092,122028669,-2.29,-2.41,-8.33,-7.82,352.65,352.74,0.0,0.0
1629642817.89997077,122128629,-2.88,-3.08,-8.46,-7.32,352.65,352.73,0.0,0.0
1629642817.99993086,122228589,-3.46,-3.67,-8.83,-7.64,352.65,352.74,0.0,0.0
1629642818.09989071,122328549,-4.01,-4.2,-9.17,-8.31,352.65,352.77,0.0,0.0
1629642818.19985080,122428509,-4.53,-4.7,-9.29,-8.89,352.65,352.78,0.0,0.0
1629642818.29981089,122528469,-5.04,-5.17,-9.23,-9.18,352.65,352.75,0.0,0.0
1629642818.39977074,122628429,-5.54,-5.63,-9.1,-9.21,352.65,352.71,0.0,0.0
1629642818.49973083,122728389,-6.02,-6.1,-8.98,-9.11,352.65,352.65,0.0,0.0
1629642818.59969091,122828349,-6.47,-6.54,-8.94,-9.0,352.65,352.6,0.0,0.0
1629642818.69965076,122928309,-6.89,-6.95,-8.99,-8.96,352.65,352.57,0.0,0.0
1629642818.79961085,123028269,-7.28,-7.41,-9.13,-8.98,351.32,352.54,0.0,0.0
1629642818.89957070,123128229,-7.55,-8.1,-9.35,-8.88,347.27,352.16,0.0,0.0
1629642818.99953079,123228189,-7.64,-8.94,-9.7,-8.75,341.34,350.72,0.0,0.0
1629642819.10032392,123328982,-7.41,-9.48,-10.32,-8.9,335.34,347.68,0.0,0.01
1629642819.20028377,123428942,-6.67,-9.35,-11.2,-9.54,329.34,343.0,0.0,0.01
1629642819.30024385,123528902,-5.37,-8.38,-12.25,-10.6,323.33,336.87,0.0,0.02
1629642819.40020370,123628862,-3.55,-6.54,-13.31,-11.92,317.33,329.58,0.0,0.02
1629642819.50016379,123728822,-1.41,-3.99,-14.18,-13.22,311.33,321.41,0.0,0.03
1629642819.60012388,123828782,0.9,-0.99,-14.67,-14.21,305.33,312.67,0.0,0.03
1629642819.70008373,123928742,3.24,2.29,-14.68,-14.58,300.58,303.72,0.0,0.03
1629642819.80004382,124028702,5.43,5.88,-14.23,-14.08,298.54,295.27,0.0,0.03
1629642819.90000391,124128662,7.2,9.3,-13.5,-12.78,298.35,288.38,0.0,0.03
1629642819.99996376,124228622,8.31,11.86,-12.87,-11.26,298.64,283.79,0.0,0.03
1629642820.09992385,124328582,8.65,13.19,-12.63,-10.12,299.11,281.56,0.0,0.02
1629642820.19988370,124428542,8.3,13.23,-12.81,-9.69,299.57,281.34,0.0,0.02
1629642820.29984379,124528502,7.48,12.2,-13.34,-9.99,299.97,282.71,0.0,0.02
1629642820.39980388,124628462,6.43,10.43,-14.08,-10.93,300.29,285.28,0.0,0.01
1629642820.49976373,124728422,5.33,8.27,-14.86,-12.27,300.52,288.68,0.0,0.01
1629642820.59972382,124828382,4.32,6.05,-15.54,-13.74,300.7,292.6,0.0,0.01
1629642820.69968390,124928342,3.43,3.97,-16.01,-15.03,300.84,296.7,0.0,0.01
1629642820.79964375,125028302,2.67,2.14,-16.26,-15.97,300.97,300.59,0.0,0.0
1629642820.89960384,125128262,2.1,0.7,-16.31,-16.48,301.11,303.89,0.0,0.0
1629642820.99956369,125228222,1.76,-0.24,-16.25,-16.63,301.26,306.33,0.0,0.01
1629642821.09952378,125328182,1.62,-0.68,-16.14,-16.54,301.44,307.78,0.0,0.01
1629642821.20031691,125428975,1.7,-0.63,-16.03,-16.34,301.64,308.27,0.0,0.01
1629642821.30027676,125528935,1.97,-0.15,-15.96,-16.12,301.86,307.95,0.0,0.01
1629642821.40023685,125628895,2.38,0.65,-15.93,-15.96,302.11,307.02,0.0,0.01
1629642821.50019670,125728855,2.87,1.68,-15.94,-15.87,302.36,305.74,0.0,0.01
1629642821.60015678,125828815,3.31,2.73,-15.95,-15.82,302.63,304.34,0.0,0.01
1629642821.70011687,125928775,3.68,3.68,-15.98,-15.81,302.89,303.02,0.0,0.01
1629642821.80007672,126028735,3.92,4.4,-16.0,-15.81,303.15,301.96,0.0,0.0
1629642821.90003681,126128695,4.05,4.86,-16.01,-15.81,303.39,301.26,0.0,0.0
1629642821.99999690,126228655,4.05,5.04,-16.01,-15.82,303.62,300.97,0.0,0.0
1629642822.09995675,126328615,3.95,4.97,-16.04,-15.84,303.82,301.06,0.0,0.0
1629642822.19991684,126428575,3.77,4.69,-16.09,-15.89,304.01,301.48,0.0,0.0
1629642822.29987669,126528535,3.53,4.26,-16.16,-15.99,304.18,302.14,0.0,0.0
1629642822.39983678,126628495,3.27,3.75,-16.27,-16.13,304.34,302.94,0.0,0.0
1629642822.49979687,126728455,3.06,3.25,-16.37,-16.29,304.48,303.78,0.0,0.0
1629642822.59975672,126828415,2.93,2.86,-16.44,-16.43,304.62,304.58,0.0,0.0
1629642822.69971681,126928375,2.83,2.57,-16.49,-16.53,304.75,305.27,0.0,0.0
1629642822.79967690,127028335,2.78,2.39,-16.54,-16.61,304.88,305.8,0.0,0.0
1629642822.89963675,127128295,2.75,2.33,-16.59,-16.67,305.01,306.15,0.0,0.0
1629642822.99959683,127228255,2.74,2.32,-16.62,-16.71,305.14,306.32,0.0,0.0
1629642823.09955668,127328215,2.77,2.39,-16.63,-16.73,305.27,306.36,0.0,0.0
1629642823.19951677,127428175,2.84,2.52,-16.61,-16.7,305.4,306.28,0.0,0.0
1629642823.30030990,127528968,2.93,2.71,-16.58,-16.65,305.53,306.14,0.0,0.0
1629642823.40026975,127628928,2.99,2.88,-16.57,-16.6,305.66,305.98,0.0,0.0
1629642823.50022984,127728888,3.03,3.03,-16.6,-16.58,305.78,305.82,0.0,0.0
1629642823.60018969,127828848,3.06,3.15,-16.66,-16.61,305.9,305.71,0.0,0.0
1629642823.70014977,127928808,3.08,3.23,-16.71,-16.66,306.01,305.65,0.0,0.0
1629642823.80010986,128028768,3.08,3.26,-16.73,-16.71,306.12,305.66,0.0,0.0
1629642823.90006971,128128728,3.07,3.25,-16.76,-16.74,306.22,305.74,0.0,0.0
1629642824.00002980,128228688,3.03,3.2,-16.8,-16.78,306.32,305.88,0.0,0.0
1629642824.09998989,128328648,2.96,3.11,-16.83,-16.82,306.41,306.05,0.0,0.0
1629642824.19994974,128428608,2.92,3.01,-16.87,-16.86,306.49,306.25,0.0,0.0
1629642824.29990983,128528568,2.9,2.94,-16.9,-16.9,306.58,306.45,0.0,0.0
1629642824.39986992,128628528,2.87,2.88,-16.91,-16.93,306.66,306.64,0.0,0.0
1629642824.49982977,128728488,2.87,2.82,-16.91,-16.95,306.74,306.81,0.0,0.0
1629642824.59978986,128828448,2.89,2.8,-16.91,-16.94,306.81,306.96,0.0,0.0
1629642824.69974971,128928408,2.9,2.82,-16.95,-16.95,306.89,307.07,0.0,0.0
1629642824.79970980,129028368,2.87,2.82,-16.97,-16.98,306.97,307.15,0.0,0.0
1629642824.89966989,129128328,2.84,2.81,-17.0,-17.0,307.04,307.21,0.0,0.0
1629642824.99962974,129228288,2.84,2.8,-17.03,-17.04,307.11,307.24,0.0,0.0
1629642825.09958982,129328248,2.84,2.79,-17.03,-17.06,307.17,307.27,0.0,0.0
1629642825.19954991,129428208,2.84,2.81,-17.05,-17.07,307.24,307.29,0.0,0.0
1629642825.29950976,129528168,2.85,2.83,-17.1,-17.1,307.3,307.31,0.0,0.0
1629642825.40030289,129628961,2.86,2.86,-17.15,-17.14,307.36,307.33,0.0,0.0
1629642825.50026274,129728921,2.88,2.89,-17.19,-17.19,307.42,307.36,0.0,0.0
1629642825.60022283,129828881,2.86,2.89,-17.22,-17.23,307.47,307.41,0.0,0.0
1629642825.70018291,129928841,2.82,2.86,-17.24,-17.25,307.53,307.46,0.0,0.0
1629642825.80014277,130028801,2.78,2.81,-17.26,-17.28,307.58,307.51,0.0,0.0
1629642825.90010285,130128761,2.79,2.8,-17.28,-17.3,307.63,307.57,0.0,0.0
1629642826.00006270,130228721,2.8,2.81,-17.29,-17.31,307.67,307.63,0.0,0.0
1629642826.10002279,130328681,2.77,2.79,-17.31,-17.33,307.72,307.7,0.0,0.0
1629642826.19998288,130428641,2.77,2.77,-17.34,-17.35,307.76,307.76,0.0,0.0
1629642826.29994273,130528601,2.76,2.75,-17.36,-17.37,307.8,307.81,0.0,0.0
1629642826.39990282,130628561,2.73,2.73,-17.4,-17.4,307.84,307.86,0.0,0.0
1629642826.49986291,130728521,2.71,2.71,-17.42,-17.44,307.87,307.89,0.0,0.0
1629642826.59982276,130828481,2.7,2.7,-17.44,-17.47,307.91,307.93,0.0,0.0
1629642826.69978285,130928441,2.71,2.7,-17.45,-17.48,307.95,307.96,0.0,0.0
1629642826.79974270,131028401,2.72,2.7,-17.45,-17.48,307.98,307.99,0.0,0.0
1629642826.89970279,131128361,2.72,2.72,-17.45,-17.47,308.01,308.02,0.0,0.0
1629642826.99966288,131228321,2.71,2.71,-17.47,-17.47,308.04,308.04,0.0,0.0
1629642827.09962273,131328281,2.69,2.71,-17.48,-17.48,308.08,308.07,0.0,0.0
1629642827.19958282,131428241,2.66,2.68,-17.51,-17.51,308.11,308.09,0.0,0.0
1629642827.29954290,131528201,2.66,2.66,-17.53,-17.53,308.13,308.12,0.0,0.0
1629642827.39950275,131628161,2.7,2.67,-17.53,-17.54,308.16,308.15,0.0,0.0
1629642827.50029588,131728954,2.71,2.7,-17.53,-17.55,308.19,308.17,0.0,0.0
1629642827.60025573,131828914,2.73,2.72,-17.53,-17.55,308.22,308.2,0.0,0.0
1629642827.70021582,131928874,2.73,2.74,-17.54,-17.54,308.25,308.23,0.0,0.0
1629642827.80017591,132028834,2.73,2.74,-17.56,-17.56,308.28,308.26,0.0,0.0
1629642827.90013576,132128794,2.72,2.73,-17.57,-17.57,308.31,308.29,0.0,0.0
1629642828.00009584,132228754,2.71,2.72,-17.56,-17.58,308.33,308.32,0.0,0.0
1629642828.10005569,132328714,2.72,2.72,-17.57,-17.58,308.36,308.35,0.0,0.0
1629642828.20001578,132428674,2.63,2.72,-17.53,-17.58,308.39,308.38,0.0,0.0
1629642828.29997587,132528634,-2.55,0.18,-15.51,-16.57,308.41,308.42,0.0,0.0
1629642828.39993572,132628594,-5.44,-4.22,-14.45,-14.89,308.44,308.38,0.0,0.0
1629642828.49989581,132728554,-4.65,-6.02,-14.81,-14.25,308.5,308.35,0.0,0.0
1629642828.59985590,132828514,-2.53,-5.02,-15.66,-14.7,308.6,308.44,0.0,0.0
1629642828.69981575,132928474,-0.42,-2.52,-16.46,-15.68,308.76,308.55,0.0,0.0
1629642828.79977584,133028434,0.96,0.05,-16.99,-16.66,308.97,308.65,0.0,0.0
1629642828.89973569,133128394,1.55,1.82,-17.2,-17.31,309.21,308.77,0.0,0.01
1629642828.99969578,133228354,1.5,2.51,-17.17,-17.53,309.45,308.94,0.0,0.01
1629642829.09965587,133328314,1.09,2.31,-17.04,-17.44,309.69,309.19,0.0,0.01
1629642829.19961572,133428274,0.64,1.63,-16.92,-17.22,309.93,309.49,0.0,0.01
1629642829.29957581,133528234,0.34,0.9,-16.84,-17.0,310.15,309.82,0.0,0.0
1629642829.39953589,133628194,0.27,0.39,-16.85,-16.87,310.37,310.16,0.0,0.0
1629642829.49949574,133728154,0.41,0.23,-16.94,-16.86,310.59,310.5,0.0,0.0
1629642829.60028887,133828947,0.62,0.33,-17.03,-16.94,310.81,310.83,0.0,0.0
1629642829.70024872,133928907,0.79,0.56,-17.12,-17.05,311.03,311.13,0.0,0.0
1629642829.80020881,134028867,0.9,0.77,-17.23,-17.19,311.26,311.4,0.0,0.0
1629642829.90016890,134128827,0.96,0.93,-17.31,-17.31,311.48,311.64,0.0,0.0
1629642830.00012875,134228787,0.98,1.0,-17.35,-17.38,311.69,311.85,0.0,0.0
1629642830.10008883,134328747,0.96,1.0,-17.35,-17.41,311.9,312.04,0.0,0.0
1629642830.20004869,134428707,0.94,0.97,-17.36,-17.41,312.11,312.22,0.0,0.0
1629642830.30000877,134528667,0.95,0.95,-17.4,-17.42,312.31,312.38,0.0,0.0
1629642830.39996886,134628627,0.97,0.96,-17.47,-17.48,312.51,312.54,0.0,0.0
1629642830.49992871,134728587,1.0,0.98,-17.51,-17.53,312.7,312.7,0.0,0.0
1629642830.59988880,134828547,1.02,1.01,-17.52,-17.56,312.88,312.86,0.0,0.0
1629642830.69984889,134928507,1.0,1.02,-17.53,-17.57,313.05,313.02,0.0,0.0
1629642830.79980874,135028467,0.97,0.99,-17.54,-17.58,313.22,313.18,0.0,0.0
1629642830.89976883,135128427,0.95,0.96,-17.58,-17.59,313.38,313.35,0.0,0.0
1629642830.99972892,135228387,0.94,0.93,-17.59,-17.61,313.54,313.51,0.0,0.0
1629642831.09968877,135328347,0.92,0.91,-17.6,-17.62,313.68,313.68,0.0,0.0
1629642831.19964886,135428307,0.89,0.88,-17.64,-17.64,313.82,313.83,0.0,0.0
1629642831.29960871,135528267,0.85,0.83,-17.68,-17.68,313.95,313.98,0.0,0.0
1629642831.39956880,135628227,0.83,0.79,-17.72,-17.72,314.08,314.12,0.0,0.0
1629642831.49952888,135728187,0.82,0.77,-17.76,-17.76,314.2,314.26,0.0,0.0
1629642831.60032177,135828980,0.82,0.76,-17.79,-17.81,314.32,314.38,0.0,0.0
1629642831.70028186,135928940,0.83,0.77,-17.8,-17.83,314.43,314.49,0.0,0.0
1629642831.80024171,136028900,0.84,0.8,-17.81,-17.84,314.53,314.59,0.0,0.0
1629642831.90020180,136128860,0.83,0.81,-17.81,-17.84,314.63,314.69,0.0,0.0
1629642832.00016189,136228820,0.8,0.8,-17.82,-17.84,314.73,314.78,0.0,0.0
1629642832.10012174,136328780,0.76,0.78,-17.83,-17.84,314.82,314.86,0.0,0.0
1629642832.20008183,136428740,0.72,0.73,-17.84,-17.85,314.9,314.94,0.0,0.0
1629642832.30004191,136528700,0.71,0.69,-17.86,-17.86,314.98,315.01,0.0,0.0
1629642832.40000176,136628660,0.73,0.68,-17.89,-17.89,315.06,315.08,0.0,0.0
1629642832.49996185,136728620,0.74,0.69,-17.93,-17.92,315.13,315.15,0.0,0.0
1629642832.59992170,136828580,0.73,0.7,-17.95,-17.96,315.2,315.21,0.0,0.0
1629642832.69988179,136928540,0.73,0.71,-17.95,-17.97,315.26,315.28,0.0,0.0
1629642832.79984188,137028500,0.73,0.71,-17.96,-17.97,315.32,315.34,0.0,0.0
1629642832.89980173,137128460,0.7,0.69,-17.96,-17.97,315.38,315.39,0.0,0.0
1629642832.99976182,137228420,0.7,0.68,-17.97,-17.98,315.44,315.45,0.0,0.0
1629642833.09972191,137328380,0.72,0.69,-17.97,-17.97,315.49,315.5,0.0,0.0
1629642833.19968176,137428340,0.7,0.69,-17.92,-17.95,315.54,315.55,0.0,0.0
1629642833.29964185,137528300,0.68,0.68,-17.9,-17.91,315.58,315.6,0.0,0.0
1629642833.39960170,137628260,0.68,0.68,-17.92,-17.92,315.63,315.64,0.0,0.0
1629642833.49956179,137728220,0.66,0.67,-17.94,-17.94,315.67,315.68,0.0,0.0
1629642833.59952188,137828180,0.65,0.66,-17.97,-17.96,315.71,315.72,0.0,0.0
1629642833.70031476,137928973,0.64,0.64,-17.99,-17.99,315.74,315.76,0.0,0.0
1629642833.80027485,138028933,0.62,0.62,-17.98,-18.01,315.77,315.79,0.0,0.0
1629642833.90023470,138128893,0.59,0.59,-17.96,-18.0,315.8,315.82,0.0,0.0
1629642834.00019479,138228853,0.58,0.56,-17.96,-17.99,315.83,315.85,0.0,0.0
1629642834.10015488,138328813,0.58,0.55,-18.0,-18.01,315.86,315.88,0.0,0.0
1629642834.20011473,138428773,0.6,0.56,-18.01,-18.03,315.88,315.9,0.0,0.0
1629642834.30007482,138528733,0.63,0.59,-18.01,-18.04,315.91,315.92,0.0,0.0
1629642834.40003490,138628693,0.64,0.61,-18.0,-18.03,315.93,315.94,0.0,0.0
1629642834.49999475,138728653,0.65,0.63,-17.99,-18.01,315.95,315.96,0.0,0.0
1629642834.59995484,138828613,0.64,0.64,-17.97,-17.99,315.97,315.98,0.0,0.0
1629642834.69991469,138928573,0.63,0.63,-17.96,-17.97,315.99,316.0,0.0,0.0
1629642834.79987478,139028533,0.62,0.6,-17.98,-17.97,316.01,316.02,0.0,0.0
1629642834.89983487,139128493,0.62,0.6,-18.01,-17.98,316.02,316.03,0.0,0.0
1629642834.99979472,139228453,0.64,0.61,-18.03,-18.02,316.04,316.05,0.0,0.0
1629642835.09975481,139328413,0.63,0.62,-18.06,-18.06,316.05,316.06,0.0,0.0
1629642835.19971490,139428373,0.6,0.61,-18.09,-18.09,316.06,316.07,0.0,0.0
1629642835.29967475,139528333,0.58,0.58,-18.09,-18.11,316.07,316.08,0.0,0.0
1629642835.39963484,139628293,0.57,0.56,-18.06,-18.11,316.08,316.09,0.0,0.0
1629642835.49959469,139728253,0.59,0.56,-18.04,-18.07,316.08,316.1,0.0,0.0
1629642835.59955478,139828213,0.62,0.59,-18.01,-18.04,316.09,316.11,0.0,0.0
1629642835.69951487,139928173,0.63,0.62,-18.02,-18.02,316.1,316.11,0.0,0.0
1629642835.80030775,140028966,0.61,0.62,-18.02,-18.02,316.1,316.11,0.0,0.0
1629642835.90026784,140128926,0.56,0.58,-18.01,-18.02,316.11,316.12,0.0,0.0
1629642836.00022769,140228886,0.52,0.53,-18.01,-18.02,316.11,316.12,0.0,0.0
1629642836.10018778,140328846,0.52,0.5,-18.03,-18.02,316.11,316.11,0.0,0.0
1629642836.20014787,140428806,0.53,0.5,-18.05,-18.05,316.11,316.11,0.0,0.0
1629642836.30010772,140528766,0.54,0.52,-18.06,-18.07,316.11,316.11,0.0,0.0
1629642836.40006781,140628726,0.56,0.54,-18.07,-18.08,316.11,316.11,0.0,0.0
1629642836.50002789,140728686,0.58,0.56,-18.07,-18.09,316.11,316.11,0.0,0.0
1629642836.59998775,140828646,0.57,0.57,-18.08,-18.1,316.11,316.11,0.0,0.0
1629642836.69994783,140928606,0.58,0.57,-18.07,-18.1,316.11,316.11,0.0,0.0
1629642836.79990768,141028566,0.58,0.58,-18.07,-18.09,316.11,316.11,0.0,0.0
1629642836.89986777,141128526,0.58,0.58,-18.06,-18.08,316.11,316.11,0.0,0.0
1629642836.99982786,141228486,0.56,0.57,-18.05,-18.07,316.1,316.11,0.0,0.0
1629642837.09978771,141328446,0.56,0.56,-18.04,-18.06,316.1,316.11,0.0,0.0
1629642837.19974780,141428406,0.56,0.56,-18.04,-18.05,316.1,316.11,0.0,0.0
1629642837.29970789,141528366,0.55,0.54,-18.07,-18.07,316.1,316.11,0.0,0.0
1629642837.39966774,141628326,0.53,0.52,-18.11,-18.11,316.1,316.1,0.0,0.0
1629642837.49962783,141728286,0.52,0.5,-18.12,-18.14,316.09,316.1,0.0,0.0
1629642837.59958792,141828246,0.52,0.49,-18.11,-18.16,316.09,316.1,0.0,0.0
1629642837.69954777,141928206,0.55,0.51,-18.1,-18.14,316.09,316.1,0.0,0.0
1629642837.79950786,142028166,0.58,0.55,-18.1,-18.13,316.09,316.1,0.0,0.0
1629642837.90030074,142128959,0.6,0.58,-18.11,-18.12,316.09,316.1,0.0,0.0
1629642838.00026083,142228919,0.61,0.61,-18.13,-18.13,316.09,316.09,0.0,0.0
1629642838.10022092,142328879,0.62,0.63,-18.13,-18.14,316.09,316.09,0.0,0.0
1629642838.20018077,142428839,0.61,0.63,-18.14,-18.15,316.09,316.09,0.0,0.0
1629642838.30014086,142528799,0.62,0.63,-18.14,-18.16,316.09,316.09,0.0,0.0
1629642838.40010071,142628759,0.61,0.62,-18.11,-18.14,316.09,316.09,0.0,0.0
1629642838.50006080,142728719,0.6,0.6,-18.09,-18.11,316.09,316.09,0.0,0.0
1629642838.60002089,142828679,0.59,0.58,-18.07,-18.09,316.09,316.09,0.0,0.0
1629642838.69998074,142928639,0.64,0.59,-18.08,-18.08,316.09,316.1,0.0,0.0
1629642838.79994082,143028599,0.65,0.63,-18.08,-18.08,316.09,316.1,0.0,0.0
1629642838.89990091,143128559,0.64,0.63,-18.1,-18.09,316.09,316.1,0.0,0.0
1629642838.99986076,143228519,0.61,0.61,-18.11,-18.11,316.09,316.1,0.0,0.0
1629642839.09982085,143328479,0.59,0.58,-18.1,-18.11,316.09,316.1,0.0,0.0
1629642839.19978070,143428439,0.6,0.56,-18.12,-18.12,316.09,316.1,0.0,0.0
1629642839.29974079,143528399,0.6,0.57,-18.11,-18.13,316.09,316.1,0.0,0.0
1629642839.39970088,143628359,0.62,0.59,-18.1,-18.12,316.09,316.1,0.0,0.0
1629642839.49966073,143728319,0.65,0.62,-18.09,-18.11,316.09,316.1,0.0,0.0
1629642839.59962082,143828279,0.62,0.64,-18.09,-18.1,316.09,316.1,0.0,0.0
1629642839.69958091,143928239,0.59,0.62,-18.1,-18.09,316.09,316.1,0.0,0.0
1629642839.79954076,144028199,0.57,0.59,-18.11,-18.11,316.09,316.09,0.0,0.0
1629642839.89950085,144128159,0.54,0.55,-18.11,-18.11,316.09,316.09,0.0,0.0
1629642840.00029373,144228952,0.53,0.53,-18.11,-18.12,316.08,316.09,0.0,0.0
1629642840.10025382,144328912,0.54,0.53,-18.12,-18.13,316.08,316.08,0.0,0.0
1629642840.20021391,144428872,0.57,0.54,-18.11,-18.14,316.08,316.08,0.0,0.0
1629642840.30017376,144528832,0.61,0.58,-18.1,-18.13,316.07,316.08,0.0,0.0
1629642840.40013385,144628792,0.61,0.61,-18.05,-18.1,316.07,316.07,0.0,0.0
1629642840.50009370,144728752,0.62,0.62,-18.04,-18.07,316.07,316.07,0.0,0.0
1629642840.60005379,144828712,0.63,0.62,-18.07,-18.06,316.07,316.07,0.0,0.0
1629642840.70001388,144928672,0.64,0.63,-18.1,-18.08,316.07,316.07,0.0,0.0
1629642840.79997373,145028632,0.64,0.64,-18.09,-18.1,316.07,316.07,0.0,0.0
1629642840.89993382,145128592,0.63,0.63,-18.1,-18.11,316.07,316.07,0.0,0.0
1629642840.99989390,145228552,0.63,0.62,-18.13,-18.14,316.07,316.07,0.0,0.0
1629642841.09985375,145328512,0.63,0.62,-18.15,-18.16,316.07,316.07,0.0,0.0
1629642841.19981384,145428472,0.62,0.62,-18.19,-18.19,316.07,316.07,0.0,0.0
1629642841.29977369,145528432,0.61,0.6,-18.19,-18.22,316.07,316.07,0.0,0.0
1629642841.39973378,145628392,0.6,0.59,-18.18,-18.22,316.07,316.08,0.0,0.0
1629642841.49969387,145728352,0.61,0.59,-18.14,-18.18,316.07,316.08,0.0,0.0
1629642841.59965372,145828312,0.63,0.6,-18.12,-18.14,316.07,316.08,0.0,0.0
1629642841.69961381,145928272,0.65,0.62,-18.13,-18.13,316.07,316.08,0.0,0.0
1629642841.79957390,146028232,0.66,0.64,-18.16,-18.15,316.07,316.08,0.0,0.0
1629642841.89953375,146128192,0.68,0.66,-18.2,-18.19,316.07,316.08,0.0,0.0
1629642842.00032687,146228985,0.67,0.67,-18.23,-18.22,316.08,316.08,0.0,0.0
1629642842.10028672,146328945,0.66,0.65,-18.23,-18.24,316.08,316.08,0.0,0.0
1629642842.20024681,146428905,0.65,0.64,-18.23,-18.25,316.08,316.08,0.0,0.0
1629642842.30020690,146528865,0.65,0.64,-18.2,-18.23,316.08,316.08,0.0,0.0
1629642842.40016675,146628825,0.66,0.64,-18.14,-18.19,316.08,316.09,0.0,0.0
1629642842.50012684,146728785,0.67,0.65,-18.13,-18.14,316.08,316.09,0.0,0.0
1629642842.60008669,146828745,0.69,0.67,-18.15,-18.14,316.08,316.09,0.0,0.0
1629642842.70004678,146928705,0.71,0.69,-18.19,-18.18,316.08,316.09,0.0,0.0
1629642842.80000687,147028665,0.73,0.71,-18.22,-18.22,316.08,316.09,0.0,0.0
1629642842.89996672,147128625,0.7,0.71,-18.25,-18.26,316.08,316.09,0.0,0.0
1629642842.99992681,147228585,0.67,0.68,-18.24,-18.28,316.08,316.09,0.0,0.0
1629642843.09988689,147328545,0.67,0.66,-18.22,-18.26,316.08,316.09,0.0,0.0
1629642843.19984674,147428505,0.66,0.65,-18.22,-18.25,316.08,316.09,0.0,0.0
1629642843.29980683,147528465,0.66,0.64,-18.22,-18.24,316.08,316.09,0.0,0.0
1629642843.39976668,147628425,0.66,0.63,-18.21,-18.23,316.08,316.09,0.0,0.0
1629642843.49972677,147728385,0.68,0.64,-18.21,-18.21,316.08,316.09,0.0,0.0
1629642843.59968686,147828345,0.72,0.67,-18.24,-18.23,316.08,316.09,0.0,0.0
1629642843.69964671,147928305,0.73,0.71,-18.27,-18.27,316.08,316.09,0.0,0.0
1629642843.79960680,148028265,0.73,0.72,-18.28,-18.3,316.08,316.09,0.0,0.0
1629642843.89956689,148128225,0.72,0.72,-18.26,-18.29,316.08,316.09,0.0,0.0
1629642843.99952674,148228185,0.7,0.69,-18.23,-18.26,316.09,316.09,0.0,0.0
