timestamp,TimeUS,DesRoll,Roll,DesPitch,Pitch,DesYaw,Yaw,ErrRP,ErrYaw
1630620453.79999995,41628342,0.0,0.1,0.0,0.08,352.89,352.9,0.0,0.0
1630620453.89996004,41728302,0.0,0.1,0.0,0.08,352.88,352.89,0.0,0.0
1630620453.99992013,41828262,0.0,0.1,0.0,0.08,352.88,352.89,0.0,0.0
1630620454.09987998,41928222,0.0,0.1,0.0,0.08,352.88,352.89,0.0,0.0
1630620454.19984007,42028182,0.0,0.1,0.0,0.08,352.88,352.89,0.0,0.0
1630620454.30063295,42128975,0.0,0.1,0.0,0.08,352.88,352.89,0.0,0.0
1630620454.40059304,42228935,0.0,0.1,0.0,0.08,352.88,352.89,0.0,0.0
1630620454.50055313,42328895,0.0,0.1,0.0,0.09,352.88,352.89,0.0,0.0
1630620454.60051298,42428855,0.0,0.1,0.0,0.09,352.88,352.89,0.0,0.0
1630620454.70047307,42528815,0.0,0.1,0.0,0.09,352.88,352.89,0.0,0.0
1630620454.80043292,42628775,0.0,0.1,0.0,0.08,352.88,352.89,0.0,0.0
1630620454.90039301,42728735,0.0,0.1,0.0,0.09,352.88,352.89,0.0,0.0
1630620455.00035310,42828695,0.0,0.1,0.0,0.08,352.88,352.89,0.0,0.0
1630620455.10031295,42928655,0.0,0.1,0.0,0.08,352.88,352.89,0.0,0.0
1630620455.20027304,43028615,0.0,0.1,0.0,0.08,352.87,352.88,0.0,0.0
1630620455.30023313,43128575,0.0,0.1,0.0,0.08,352.87,352.88,0.0,0.0
1630620455.40019298,43228535,0.0,0.1,0.0,0.08,352.87,352.88,0.0,0.0
1630620455.50015306,43328495,0.0,0.1,0.0,0.08,352.87,352.88,0.0,0.0
1630620455.60011315,43428455,0.0,0.1,0.0,0.08,352.87,352.88,0.0,0.0
1630620455.70007300,43528415,0.0,0.1,0.0,0.08,352.87,352.88,0.0,0.0
1630620455.80003309,43628375,0.0,0.1,0.0,0.08,352.87,352.88,0.0,0.0
1630620455.89999294,43728335,0.0,0.1,0.0,0.08,352.87,352.88,0.0,0.0
1630620455.99995303,43828295,0.0,0.1,0.0,0.08,352.87,352.88,0.0,0.0
1630620456.09991312,43928255,0.0,0.1,0.0,0.08,352.87,352.88,0.0,0.0
1630620456.19987297,44028215,0.0,0.1,0.0,0.08,352.87,352.88,0.0,0.0
1630620456.29983306,44128175,0.0,0.1,0.0,0.08,352.87,352.88,0.0,0.0
1630620456.40062594,44228968,0.0,0.09,0.0,0.08,352.87,352.88,0.0,0.0
1630620456.50058603,44328928,0.0,0.09,0.0,0.08,352.87,352.88,0.0,0.0
1630620456.60054612,44428888,-0.1,0.09,-0.1,0.07,352.87,352.88,0.0,0.0
1630620456.70050597,44528848,-0.08,0.09,-0.08,0.07,352.87,352.88,0.0,0.0
1630620456.80046606,44628808,-0.13,0.09,-0.13,0.07,352.87,352.88,0.0,0.0
1630620456.90042615,44728768,-0.2,0.09,-0.2,0.07,352.87,352.88,0.0,0.0
1630620457.00038600,44828728,-0.25,0.09,-0.25,0.07,352.87,352.88,0.0,0.0
1630620457.10034609,44928688,-0.28,0.09,-0.28,0.07,352.87,352.88,0.0,0.0
1630620457.20030594,45028648,-0.3,0.09,-0.3,0.07,352.87,352.88,0.0,0.0
1630620457.30026603,45128608,-0.31,0.09,-0.33,0.07,352.87,352.88,0.0,0.0
1630620457.40022612,45228568,-0.33,0.09,-0.34,0.07,352.87,352.88,0.0,0.0
1630620457.50018597,45328528,-0.32,0.09,-0.32,0.07,352.87,352.88,0.0,0.0
1630620457.60014606,45428488,-0.32,0.09,-0.32,0.07,352.87,352.88,0.0,0.0
1630620457.70010614,45528448,-0.34,0.09,-0.32,0.07,352.87,352.88,0.0,0.0
1630620457.80006599,45628408,-0.35,0.08,-0.34,0.07,352.87,352.88,0.0,0.0
1630620457.90002608,45728368,-0.37,0.08,-0.37,0.07,352.87,352.88,0.0,0.0
1630620457.99998593,45828328,-0.39,0.08,-0.38,0.07,352.87,352.88,0.0,0.0
1630620458.09994602,45928288,-0.43,0.08,-0.39,0.06,352.87,352.88,0.0,0.0
1630620458.19990611,46028248,-0.48,-0.14,-0.39,-0.11,352.87,352.88,0.0,0.0
1630620458.29986596,46128208,-0.46,-0.46,-0.35,-0.38,352.87,352.88,0.0,0.0
1630620458.39982605,46228168,-0.36,-0.66,-0.26,-0.55,352.87,352.88,0.0,0.0
1630620458.50061893,46328961,-0.22,-0.7,-0.15,-0.58,352.87,352.88,0.0,0.0
1630620458.60057902,46428921,-0.04,-0.59,-0.02,-0.51,352.87,352.88,0.0,0.0
1630620458.70053911,46528881,0.16,-0.38,0.12,-0.35,352.87,352.88,0.0,0.0
1630620458.80049896,46628841,0.37,-0.11,0.25,-0.17,352.87,352.88,0.0,0.0
1630620458.90045905,46728801,0.5,0.12,0.33,-0.01,352.87,352.88,0.0,0.0
1630620459.00041914,46828761,0.51,0.26,0.36,0.1,352.87,352.88,0.0,0.0
1630620459.10037899,46928721,0.46,0.29,0.36,0.15,352.87,352.88,0.0,0.0
1630620459.20033908,47028681,0.44,0.26,0.37,0.18,352.87,352.87,0.0,0.0
1630620459.30029893,47128641,0.4,0.22,0.36,0.19,352.87,352.87,0.0,0.0
1630620459.40025902,47228601,0.4,0.19,0.36,0.18,352.87,352.87,0.0,0.0
1630620459.50021911,47328561,0.42,0.2,0.37,0.19,352.87,352.87,0.0,0.0
1630620459.60017896,47428521,0.46,0.24,0.35,0.19,352.87,352.87,0.0,0.0
1630620459.70013905,47528481,0.52,0.31,0.32,0.18,352.87,352.87,0.0,0.0
1630620459.80009913,47628441,0.51,0.36,0.32,0.17,352.87,352.87,0.0,0.0
1630620459.90005898,47728401,0.46,0.36,0.33,0.18,352.8,352.8,0.0,0.0
1630620460.00001907,47828361,0.4,0.31,0.33,0.2,352.8,352.81,0.0,0.0
1630620460.09997892,47928321,0.38,0.28,0.3,0.2,352.8,352.81,0.0,0.0
1630620460.19993901,48028281,0.37,0.26,0.26,0.18,352.8,352.81,0.0,0.0
1630620460.29989910,48128241,0.35,0.25,0.23,0.16,352.8,352.81,0.0,0.0
1630620460.39985895,48228201,0.32,0.23,0.22,0.15,352.8,352.81,0.0,0.0
1630620460.49981904,48328161,0.27,0.2,0.21,0.13,352.8,352.81,0.0,0.0
1630620460.60061193,48428954,0.21,0.15,0.21,0.13,352.8,352.81,0.0,0.0
1630620460.70057201,48528914,0.17,0.11,0.21,0.13,352.8,352.81,0.0,0.0
1630620460.80053210,48628874,0.14,0.07,0.19,0.13,352.8,352.81,0.0,0.0
1630620460.90049195,48728834,0.11,0.04,0.17,0.12,352.8,352.81,0.0,0.0
1630620461.00045204,48828794,0.1,0.04,0.13,0.09,352.8,352.81,0.0,0.0
1630620461.10041213,48928754,0.12,0.04,0.08,0.06,352.8,352.81,0.0,0.0
1630620461.20037198,49028714,0.14,0.07,0.05,0.02,352.8,352.81,0.0,0.0
1630620461.30033207,49128674,0.16,0.1,0.03,0.0,352.8,352.81,0.0,0.0
1630620461.40029216,49228634,0.16,0.13,0.03,-0.01,352.8,352.81,0.0,0.0
1630620461.50025201,49328594,0.14,0.13,0.02,-0.01,352.8,352.81,0.0,0.0
1630620461.60021210,49428554,0.09,0.09,0.0,-0.03,352.8,352.81,0.0,0.0
1630620461.70017195,49528514,0.06,0.05,-0.04,-0.06,352.8,352.81,0.0,0.0
1630620461.80013204,49628474,0.04,0.01,-0.06,-0.09,352.8,352.81,0.0,0.0
1630620461.90009212,49728434,0.03,0.0,-0.04,-0.1,352.8,352.81,0.0,0.0
1630620462.00005198,49828394,0.0,-0.01,0.02,-0.06,352.8,352.81,0.0,0.0
1630620462.10001206,49928354,0.0,-0.01,0.1,0.03,352.8,352.82,0.0,0.0
1630620462.19997215,50028314,0.02,0.0,0.13,0.11,352.8,352.82,0.0,0.0
1630620462.29993200,50128274,0.04,0.01,0.09,0.12,352.8,352.82,0.0,0.0
1630620462.39989209,50228234,0.05,0.03,0.04,0.08,352.8,352.82,0.0,0.0
1630620462.49985194,50328194,0.06,0.05,-0.01,0.02,352.8,352.82,0.0,0.0
1630620462.59981203,50428154,0.07,0.06,-0.07,-0.05,352.8,352.82,0.0,0.0
1630620462.70060515,50528947,0.08,0.07,-0.11,-0.12,352.8,352.82,0.0,0.0
1630620462.80056500,50628907,0.07,0.07,-0.09,-0.14,352.8,352.82,0.0,0.0
1630620462.90052509,50728867,0.07,0.07,-0.03,-0.1,352.8,352.82,0.0,0.0
1630620463.00048494,50828827,0.07,0.06,0.06,-0.01,352.8,352.81,0.0,0.0
1630620463.10044503,50928787,0.12,0.09,0.13,0.09,352.8,352.81,0.0,0.0
1630620463.20040512,51028747,0.15,0.13,0.14,0.15,352.8,352.81,0.0,0.0
1630620463.30036497,51128707,0.16,0.15,0.11,0.16,352.8,352.8,0.0,0.0
1630620463.40032506,51228667,0.18,0.17,0.07,0.12,352.8,352.8,0.0,0.0
1630620463.50028515,51328627,0.21,0.21,0.06,0.09,352.8,352.79,0.0,0.0
1630620463.60024500,51428587,0.2,0.23,0.07,0.07,352.8,352.79,0.0,0.0
1630620463.70020509,51528547,0.15,0.2,0.1,0.08,352.8,352.79,0.0,0.0
1630620463.80016494,51628507,0.11,0.14,0.11,0.1,352.8,352.79,0.0,0.0
1630620463.90012503,51728467,0.07,0.08,0.09,0.11,352.8,352.79,0.0,0.0
1630620464.00008512,51828427,0.05,0.04,0.09,0.09,352.8,352.8,0.0,0.0
1630620464.10004497,51928387,0.05,0.02,0.1,0.09,352.8,352.8,0.0,0.0
1630620464.20000505,52028347,0.05,0.02,0.13,0.1,352.8,352.81,0.0,0.0
1630620464.29996514,52128307,0.05,0.02,0.14,0.13,352.8,352.81,0.0,0.0
1630620464.39992499,52228267,0.04,0.02,0.12,0.13,352.8,352.82,0.0,0.0
1630620464.49988508,52328227,0.06,0.02,0.12,0.12,352.8,352.82,0.0,0.0
1630620464.59984493,52428187,0.09,0.05,0.12,0.12,352.8,352.83,0.0,0.0
1630620464.70063806,52528980,0.11,0.08,0.1,0.11,352.8,352.83,0.0,0.0
1630620464.80059814,52628940,0.1,0.09,0.09,0.09,352.8,352.83,0.0,0.0
1630620464.90055799,52728900,0.08,0.08,0.09,0.07,352.8,352.83,0.0,0.0
1630620465.00051808,52828860,0.09,0.09,0.11,0.07,352.8,352.82,0.0,0.0
1630620465.10047793,52928820,0.08,0.08,0.16,0.12,352.8,352.82,0.0,0.0
1630620465.20043802,53028780,0.07,0.06,0.19,0.17,352.8,352.82,0.0,0.0
1630620465.30039811,53128740,0.08,0.06,0.17,0.18,352.8,352.81,0.0,0.0
1630620465.40035796,53228700,0.07,0.06,0.15,0.17,352.8,352.81,0.0,0.0
1630620465.50031805,53328660,0.06,0.06,0.11,0.14,352.8,352.8,0.0,0.0
1630620465.60027814,53428620,0.06,0.05,0.09,0.09,352.8,352.8,0.0,0.0
1630620465.70023799,53528580,0.07,0.06,0.1,0.07,352.8,352.8,0.0,0.0
1630620465.80019808,53628540,0.07,0.06,0.15,0.11,352.8,352.81,0.0,0.0
1630620465.90015793,53728500,0.1,0.07,0.16,0.14,352.8,352.81,0.0,0.0
1630620466.00011802,53828460,0.13,0.1,0.19,0.18,352.8,352.81,0.0,0.0
1630620466.10007811,53928420,0.15,0.13,0.18,0.19,352.8,352.82,0.0,0.0
1630620466.20003796,54028380,0.14,0.14,0.14,0.16,352.8,352.82,0.0,0.0
1630620466.29999804,54128340,0.1,0.13,0.1,0.13,352.8,352.82,0.0,0.0
1630620466.39995813,54228300,0.05,0.07,0.05,0.07,352.8,352.82,0.0,0.0
1630620466.49991798,54328260,0.01,0.02,0.02,0.03,352.8,352.82,0.0,0.0
1630620466.59987807,54428220,0.01,0.0,0.05,0.02,352.8,352.82,0.0,0.0
1630620466.69983792,54528180,0.04,0.0,0.09,0.04,352.8,352.82,0.0,0.0
1630620466.80063105,54628973,0.06,0.03,0.1,0.07,352.8,352.82,0.0,0.0
1630620466.90059114,54728933,0.07,0.06,0.06,0.07,352.8,352.82,0.0,0.0
1630620467.00055099,54828893,0.11,0.1,0.03,0.03,352.8,352.82,0.0,0.0
1630620467.10051107,54928853,0.11,0.12,0.01,0.01,352.8,352.82,0.0,0.0
1630620467.20047092,55028813,0.09,0.12,0.0,0.0,352.8,352.82,0.0,0.0
1630620467.30043101,55128773,0.04,0.09,0.0,-0.01,352.8,352.81,0.0,0.0
1630620467.40039110,55228733,0.01,0.03,-0.01,-0.01,352.8,352.81,0.0,0.0
1630620467.50035095,55328693,0.0,0.0,0.01,0.0,352.8,352.81,0.0,0.0
1630620467.60031104,55428653,0.02,0.0,0.07,0.04,352.8,352.81,0.0,0.0
1630620467.70027113,55528613,0.06,0.03,0.07,0.08,352.8,352.81,0.0,0.0
1630620467.80023098,55628573,0.09,0.06,0.06,0.07,352.8,352.8,0.0,0.0
1630620467.90019107,55728533,0.07,0.08,0.04,0.06,352.8,352.8,0.0,0.0
1630620468.00015116,55828493,0.05,0.06,0.02,0.03,352.8,352.8,0.0,0.0
1630620468.10011101,55928453,0.06,0.05,0.02,0.01,352.8,352.8,0.0,0.0
1630620468.20007110,56028413,0.08,0.07,0.02,0.01,352.8,352.8,0.0,0.0
1630620468.30003095,56128373,0.09,0.08,0.02,0.01,352.8,352.8,0.0,0.0
1630620468.39999104,56228333,0.09,0.08,0.0,0.01,352.8,352.81,0.0,0.0
1630620468.49995112,56328293,0.08,0.08,0.0,0.0,352.8,352.81,0.0,0.0
1630620468.59991097,56428253,0.07,0.06,0.01,0.0,352.8,352.81,0.0,0.0
1630620468.69987106,56528213,0.07,0.05,0.01,0.01,352.8,352.81,0.0,0.0
1630620468.79983115,56628173,0.1,0.07,0.02,0.01,352.8,352.81,0.0,0.0
1630620468.90062404,56728966,0.12,0.09,0.01,0.02,352.8,352.81,0.0,0.0
1630620469.00058413,56828926,0.12,0.11,0.01,0.02,352.8,352.81,0.0,0.0
1630620469.10054398,56928886,0.1,0.11,0.03,0.03,352.8,352.81,0.0,0.0
1630620469.20050406,57028846,0.09,0.09,0.05,0.04,352.8,352.81,0.0,0.0
1630620469.30046415,57128806,0.07,0.07,0.08,0.06,352.8,352.81,0.0,0.0
1630620469.40042400,57228766,0.07,0.06,0.09,0.07,352.8,352.81,0.0,0.0
1630620469.50038409,57328726,0.07,0.06,0.12,0.1,352.8,352.81,0.0,0.0
1630620469.60034394,57428686,0.07,0.06,0.15,0.13,352.8,352.81,0.0,0.0
1630620469.70030403,57528646,0.05,0.05,0.17,0.17,352.8,352.81,0.0,0.0
1630620469.80026412,57628606,0.04,0.03,0.15,0.18,352.8,352.81,0.0,0.0
1630620469.90022397,57728566,0.08,0.05,0.16,0.17,352.8,352.81,0.0,0.0
1630620470.00018406,57828526,0.1,0.09,0.16,0.18,352.8,352.81,0.0,0.0
1630620470.10014415,57928486,0.11,0.1,0.15,0.16,352.8,352.81,0.0,0.0
1630620470.20010400,58028446,0.09,0.11,0.12,0.13,352.8,352.81,0.0,0.0
1630620470.30006409,58128406,0.06,0.08,0.09,0.09,352.8,352.81,0.0,0.0
1630620470.40002394,58228366,0.04,0.05,0.07,0.05,352.8,352.81,0.0,0.0
1630620470.49998403,58328326,0.01,0.01,0.08,0.05,352.8,352.81,0.0,0.0
1630620470.59994411,58428286,0.03,0.0,0.1,0.07,352.8,352.81,0.0,0.0
1630620470.69990396,58528246,0.04,0.02,0.12,0.09,352.8,352.81,0.0,0.0
1630620470.79986405,58628206,0.04,0.03,0.12,0.11,352.8,352.81,0.0,0.0
1630620470.89982414,58728166,0.06,0.04,0.15,0.13,352.8,352.81,0.0,0.0
1630620471.00061703,58828959,0.05,0.06,0.14,0.15,352.8,352.81,0.0,0.0
1630620471.10057712,58928919,0.06,0.07,0.11,0.14,352.8,352.81,0.0,0.0
1630620471.20053697,59028879,0.09,0.08,0.07,0.11,352.8,352.81,0.0,0.0
1630620471.30049706,59128839,0.11,0.09,0.04,0.07,352.8,352.8,0.0,0.0
1630620471.40045714,59228799,0.12,0.1,0.02,0.03,352.8,352.81,0.0,0.0
1630620471.50041699,59328759,0.14,0.12,0.05,0.02,352.8,352.8,0.0,0.0
1630620471.60037708,59428719,0.15,0.14,0.08,0.04,352.8,352.8,0.0,0.0
1630620471.70033693,59528679,0.14,0.14,0.08,0.06,352.8,352.8,0.0,0.0
1630620471.80029702,59628639,0.13,0.14,0.08,0.06,352.8,352.8,0.0,0.0
1630620471.90025711,59728599,0.09,0.11,0.07,0.06,352.8,352.8,0.0,0.0
1630620472.00021696,59828559,0.07,0.07,0.05,0.04,352.8,352.8,0.0,0.0
1630620472.10017705,59928519,0.07,0.05,0.03,0.03,352.8,352.8,0.0,0.0
1630620472.20013714,60028479,0.1,0.06,0.01,0.02,352.8,352.81,0.0,0.0
1630620472.30009699,60128439,0.1,0.08,-0.01,0.0,352.8,352.81,0.0,0.0
1630620472.40005708,60228399,0.1,0.08,0.0,0.0,352.8,352.81,0.0,0.0
1630620472.50001693,60328359,0.09,0.08,0.03,0.0,352.8,352.82,0.0,0.0
1630620472.59997702,60428319,0.09,0.08,0.06,0.04,352.8,352.82,0.0,0.0
1630620472.69993711,60528279,0.08,0.09,0.07,0.06,352.8,352.82,0.0,0.0
1630620472.79989696,60628239,0.07,0.09,0.05,0.07,352.8,352.82,0.0,0.0
1630620472.89985704,60728199,0.09,0.08,0.02,0.04,352.8,352.81,0.0,0.0
1630620472.99981713,60828159,0.12,0.1,0.03,0.03,352.8,352.81,0.0,0.0
1630620473.10061002,60928952,0.12,0.12,0.0,0.02,352.8,352.81,0.0,0.0
1630620473.20057011,61028912,0.09,0.11,0.0,0.0,352.8,352.81,0.0,0.0
1630620473.30052996,61128872,0.06,0.08,0.0,0.0,352.8,352.81,0.0,0.0
1630620473.40049005,61228832,0.08,0.07,0.02,0.01,352.8,352.8,0.0,0.0
1630620473.50045013,61328792,0.11,0.09,0.03,0.02,352.8,352.8,0.0,0.0
1630620473.60040998,61428752,0.13,0.11,0.05,0.03,352.8,352.8,0.0,0.0
1630620473.70037007,61528712,0.12,0.12,0.06,0.04,352.8,352.8,0.0,0.0
1630620473.80032992,61628672,0.11,0.12,0.07,0.06,352.8,352.8,0.0,0.0
1630620473.90029001,61728632,0.12,0.12,0.1,0.08,352.8,352.8,0.0,0.0
1630620474.00025010,61828592,0.12,0.12,0.14,0.12,352.8,352.8,0.0,0.0
1630620474.10020995,61928552,0.14,0.13,0.13,0.14,352.8,352.81,0.0,0.0
1630620474.20017004,62028512,0.13,0.14,0.08,0.11,352.8,352.81,0.0,0.0
1630620474.30013013,62128472,0.1,0.13,0.06,0.07,352.8,352.8,0.0,0.0
1630620474.40008998,62228432,0.09,0.1,0.07,0.05,352.8,352.8,0.0,0.0
1630620474.50005007,62328392,0.12,0.1,0.1,0.07,352.8,352.8,0.0,0.0
1630620474.60001016,62428352,0.14,0.12,0.12,0.09,352.8,352.8,0.0,0.0
1630620474.69997001,62528312,0.14,0.14,0.14,0.12,352.8,352.8,0.0,0.0
1630620474.79993010,62628272,0.12,0.14,0.12,0.14,352.8,352.81,0.0,0.0
1630620474.89988995,62728232,0.08,0.11,0.1,0.12,352.8,352.81,0.0,0.0
1630620474.99985003,62828192,0.07,0.07,0.08,0.09,352.8,352.81,0.0,0.0
1630620475.10064316,62928985,0.08,0.07,0.08,0.08,352.8,352.81,0.0,0.0
1630620475.20060301,63028945,0.08,0.06,0.09,0.07,352.8,352.82,0.0,0.0
1630620475.30056310,63128905,0.07,0.06,0.11,0.08,352.8,352.82,0.0,0.0
1630620475.40052295,63228865,0.06,0.06,0.12,0.1,352.8,352.82,0.0,0.0
1630620475.50048304,63328825,0.04,0.04,0.17,0.14,352.8,352.82,0.0,0.0
1630620475.60044312,63428785,0.05,0.04,0.21,0.19,352.8,352.82,0.0,0.0
1630620475.70040298,63528745,0.07,0.06,0.21,0.23,352.8,352.81,0.0,0.0
1630620475.80036306,63628705,0.09,0.06,0.19,0.22,352.8,352.81,0.0,0.0
1630620475.90032315,63728665,0.11,0.09,0.18,0.2,352.8,352.81,0.0,0.0
1630620476.00028300,63828625,0.11,0.1,0.16,0.18,352.8,352.81,0.0,0.0
1630620476.10024309,63928585,0.12,0.12,0.14,0.15,352.8,352.81,0.0,0.0
1630620476.20020294,64028545,0.1,0.11,0.13,0.12,352.8,352.81,0.0,0.0
1630620476.30016303,64128505,0.09,0.09,0.14,0.11,352.8,352.81,0.0,0.0
1630620476.40012312,64228465,0.08,0.08,0.14,0.12,352.8,352.8,0.0,0.0
1630620476.50008297,64328425,0.08,0.07,0.11,0.1,352.8,352.8,0.0,0.0
1630620476.60004306,64428385,0.08,0.07,0.09,0.08,352.8,352.8,0.0,0.0
1630620476.70000315,64528345,0.08,0.07,0.09,0.07,352.8,352.81,0.0,0.0
1630620476.79996300,64628305,0.11,0.09,0.09,0.07,352.8,352.81,0.0,0.0
1630620476.89992309,64728265,0.13,0.12,0.09,0.08,352.8,352.81,0.0,0.0
1630620476.99988294,64828225,0.13,0.13,0.08,0.08,352.8,352.81,0.0,0.0
1630620477.09984303,64928185,0.14,0.13,0.07,0.07,352.8,352.81,0.0,0.0
1630620477.20063615,65028978,0.15,0.13,0.08,0.07,352.8,352.81,0.0,0.0
1630620477.30059600,65128938,0.15,0.13,0.08,0.07,352.8,352.81,0.0,0.0
1630620477.40055609,65228898,0.18,0.15,0.08,0.08,352.8,352.81,0.0,0.0
1630620477.50051594,65328858,0.16,0.16,0.09,0.08,352.8,352.81,0.0,0.0
1630620477.60047603,65428818,0.1,0.12,0.12,0.1,352.8,352.81,0.0,0.0
1630620477.70043612,65528778,0.07,0.08,0.15,0.13,352.8,352.81,0.0,0.0
1630620477.80039597,65628738,0.06,0.05,0.15,0.14,352.8,352.81,0.0,0.0
1630620477.90035605,65728698,0.07,0.05,0.11,0.13,352.8,352.81,0.0,0.0
1630620478.00031614,65828658,0.07,0.05,0.1,0.1,352.8,352.81,0.0,0.0
1630620478.10027599,65928618,0.07,0.05,0.08,0.09,352.8,352.81,0.0,0.0
1630620478.20023608,66028578,0.07,0.06,0.05,0.06,352.8,352.8,0.0,0.0
1630620478.30019593,66128538,0.07,0.06,0.02,0.03,352.8,352.8,0.0,0.0
1630620478.40015602,66228498,0.05,0.04,0.02,0.01,352.8,352.8,0.0,0.0
1630620478.50011611,66328458,0.04,0.02,0.04,0.01,352.8,352.8,0.0,0.0
1630620478.60007596,66428418,0.06,0.02,0.07,0.03,352.8,352.81,0.0,0.0
1630620478.70003605,66528378,0.06,0.04,0.09,0.06,352.8,352.81,0.0,0.0
1630620478.79999614,66628338,0.07,0.05,0.1,0.09,352.8,352.81,0.0,0.0
1630620478.89995599,66728298,0.07,0.06,0.1,0.1,352.8,352.81,0.0,0.0
1630620478.99991608,66828258,0.07,0.07,0.1,0.1,352.8,352.81,0.0,0.0
1630620479.09987593,66928218,0.08,0.08,0.07,0.08,352.8,352.81,0.0,0.0
1630620479.19983602,67028178,0.06,0.07,0.05,0.06,352.8,352.81,0.0,0.0
1630620479.30062914,67128971,0.04,0.06,0.04,0.04,352.8,352.81,0.0,0.0
1630620479.40058899,67228931,0.05,0.04,0.08,0.04,352.8,352.81,0.0,0.0
1630620479.50054908,67328891,0.12,0.08,0.11,0.07,352.8,352.81,0.0,0.0
1630620479.60050893,67428851,0.17,0.14,0.13,0.12,352.8,352.81,0.0,0.0
1630620479.70046902,67528811,0.21,0.2,0.12,0.14,352.8,352.82,0.0,0.0
1630620479.80042911,67628771,0.19,0.22,0.12,0.13,352.8,352.82,0.0,0.0
1630620479.90038896,67728731,0.18,0.2,0.12,0.13,352.8,352.82,0.0,0.0
1630620480.00034904,67828691,0.18,0.19,0.1,0.11,352.8,352.82,0.0,0.0
1630620480.10030913,67928651,0.16,0.17,0.08,0.09,352.8,352.81,0.0,0.0
1630620480.20026898,68028611,0.13,0.15,0.11,0.08,352.8,352.81,0.0,0.0
1630620480.30022907,68128571,0.1,0.12,0.12,0.09,352.8,352.81,0.0,0.0
1630620480.40018892,68228531,0.1,0.09,0.13,0.11,352.8,352.82,0.0,0.0
1630620480.50014901,68328491,0.12,0.09,0.15,0.14,352.8,352.82,0.0,0.0
1630620480.60010910,68428451,0.16,0.12,0.15,0.15,352.8,352.82,0.0,0.0
1630620480.70006895,68528411,0.19,0.15,0.15,0.16,352.8,352.82,0.0,0.0
1630620480.80002904,68628371,0.18,0.17,0.13,0.15,352.8,352.82,0.0,0.0
1630620480.89998913,68728331,0.17,0.17,0.1,0.12,352.8,352.82,0.0,0.0
1630620480.99994898,68828291,0.13,0.15,0.06,0.07,352.8,352.81,0.0,0.0
1630620481.09990907,68928251,0.13,0.13,0.06,0.05,352.8,352.81,0.0,0.0
1630620481.19986916,69028211,0.13,0.13,0.09,0.06,352.8,352.81,0.0,0.0
1630620481.29982901,69128171,0.13,0.13,0.11,0.09,352.8,352.81,0.0,0.0
1630620481.40062213,69228964,0.14,0.13,0.12,0.1,352.8,352.81,0.0,0.0
1630620481.50058198,69328924,0.14,0.14,0.15,0.13,352.8,352.81,0.0,0.0
1630620481.60054207,69428884,0.09,0.12,0.16,0.16,352.8,352.81,0.0,0.0
1630620481.70050216,69528844,0.08,0.09,0.14,0.17,352.8,352.81,0.0,0.0
1630620481.80046201,69628804,0.1,0.08,0.13,0.15,352.8,352.81,0.0,0.0
1630620481.90042210,69728764,0.13,0.09,0.11,0.13,352.8,352.81,0.0,0.0
1630620482.00038195,69828724,0.14,0.11,0.1,0.11,352.8,352.81,0.0,0.0
1630620482.10034204,69928684,0.13,0.11,0.12,0.11,352.8,352.81,0.0,0.0
1630620482.20030212,70028644,0.1,0.09,0.13,0.12,352.8,352.81,0.0,0.0
1630620482.30026197,70128604,0.09,0.08,0.09,0.1,352.8,352.81,0.0,0.0
1630620482.40022206,70228564,0.12,0.09,0.07,0.07,352.8,352.81,0.0,0.0
1630620482.50018215,70328524,0.17,0.13,0.07,0.05,352.8,352.8,0.0,0.0
1630620482.60014200,70428484,0.18,0.17,0.06,0.04,352.8,352.81,0.0,0.0
1630620482.70010209,70528444,0.16,0.17,0.06,0.04,352.8,352.81,0.0,0.0
1630620482.80006194,70628404,0.15,0.16,0.09,0.06,352.8,352.81,0.0,0.0
1630620482.90002203,70728364,0.13,0.15,0.07,0.07,352.8,352.81,0.0,0.0
1630620482.99998212,70828324,0.12,0.12,0.05,0.05,352.8,352.81,0.0,0.0
1630620483.09994197,70928284,0.12,0.11,0.07,0.05,352.8,352.81,0.0,0.0
1630620483.19990206,71028244,0.11,0.1,0.08,0.06,352.8,352.81,0.0,0.0
1630620483.29986215,71128204,0.08,0.09,0.11,0.09,352.8,352.81,0.0,0.0
1630620483.39982200,71228164,0.05,0.06,0.11,0.11,352.8,352.81,0.0,0.0
1630620483.50061512,71328957,0.04,0.04,0.09,0.11,352.8,352.81,0.0,0.0
1630620483.60057497,71428917,0.05,0.03,0.08,0.09,352.8,352.8,0.0,0.0
1630620483.70053506,71528877,0.08,0.05,0.07,0.06,352.8,352.8,0.0,0.0
1630620483.80049515,71628837,0.09,0.07,0.08,0.06,352.8,352.8,0.0,0.0
1630620483.90045500,71728797,0.12,0.1,0.1,0.07,352.8,352.8,0.0,0.0
1630620484.00041509,71828757,0.14,0.13,0.13,0.1,352.8,352.8,0.0,0.0
1630620484.10037494,71928717,0.12,0.14,0.14,0.13,352.8,352.8,0.0,0.0
1630620484.20033503,72028677,0.07,0.11,0.1,0.12,352.8,352.8,0.0,0.0
1630620484.30029511,72128637,0.04,0.06,0.07,0.08,352.8,352.8,0.0,0.0
1630620484.40025496,72228597,0.03,0.03,0.07,0.06,352.8,352.8,0.0,0.0
1630620484.50021505,72328557,0.03,0.0,0.08,0.06,352.8,352.81,0.0,0.0
1630620484.60017514,72428517,0.05,0.02,0.08,0.06,352.8,352.81,0.0,0.0
1630620484.70013499,72528477,0.07,0.05,0.08,0.08,352.8,352.81,0.0,0.0
1630620484.80009508,72628437,0.06,0.07,0.08,0.08,352.8,352.81,0.0,0.0
1630620484.90005493,72728397,0.01,0.04,0.1,0.09,352.8,352.81,0.0,0.0
1630620485.00001502,72828357,-0.04,-0.01,0.13,0.11,352.8,352.81,0.0,0.0
1630620485.09997511,72928317,-0.05,-0.06,0.1,0.12,352.8,352.81,0.0,0.0
1630620485.19993496,73028277,0.0,-0.06,0.08,0.09,352.8,352.81,0.0,0.0
1630620485.29989505,73128237,0.03,-0.02,0.08,0.07,352.8,352.81,0.0,0.0
1630620485.39985514,73228197,0.06,0.02,0.06,0.06,352.8,352.82,0.0,0.0
1630620485.49981499,73328157,0.08,0.06,0.05,0.04,352.8,352.82,0.0,0.0
1630620485.60060811,73428950,0.11,0.09,0.07,0.04,352.8,352.82,0.0,0.0
1630620485.70056796,73528910,0.12,0.12,0.1,0.07,352.8,352.82,0.0,0.0
1630620485.80052805,73628870,0.12,0.13,0.09,0.09,352.8,352.81,0.0,0.0
1630620485.90048814,73728830,0.16,0.16,0.07,0.09,352.8,352.81,0.0,0.0
1630620486.00044799,73828790,0.18,0.19,0.04,0.06,352.8,352.81,0.0,0.0
1630620486.10040808,73928750,0.17,0.2,0.04,0.04,352.8,352.81,0.0,0.0
1630620486.20036793,74028710,0.15,0.18,0.05,0.04,352.8,352.8,0.0,0.0
1630620486.30032802,74128670,0.15,0.15,0.07,0.04,352.8,352.8,0.0,0.0
1630620486.40028811,74228630,0.18,0.16,0.12,0.08,352.8,352.8,0.0,0.0
1630620486.50024796,74328590,0.19,0.18,0.12,0.1,352.8,352.8,0.0,0.0
1630620486.60020804,74428550,0.19,0.19,0.11,0.11,352.8,352.8,0.0,0.0
1630620486.70016813,74528510,0.2,0.2,0.08,0.1,352.8,352.8,0.0,0.0
1630620486.80012798,74628470,0.2,0.21,0.03,0.06,352.8,352.8,0.0,0.0
1630620486.90008807,74728430,0.21,0.21,0.01,0.02,352.8,352.8,0.0,0.0
1630620487.00004792,74828390,0.21,0.21,0.0,0.0,352.8,352.8,0.0,0.0
1630620487.10000801,74928350,0.17,0.19,-0.01,-0.01,352.8,352.8,0.0,0.0
1630620487.19996810,75028310,0.12,0.14,0.01,-0.01,352.8,352.8,0.0,0.0
1630620487.29992795,75128270,0.12,0.12,0.03,0.01,352.8,352.8,0.0,0.0
1630620487.39988804,75228230,0.16,0.12,0.03,0.02,352.8,352.8,0.0,0.0
1630620487.49984813,75328190,0.17,0.14,0.05,0.04,352.8,352.8,0.0,0.0
1630620487.60064101,75428983,0.21,0.17,0.08,0.06,352.8,352.8,0.0,0.0
1630620487.70060110,75528943,0.25,0.21,0.08,0.08,352.8,352.8,0.0,0.0
1630620487.80056095,75628903,0.24,0.23,0.04,0.06,352.8,352.8,0.0,0.0
1630620487.90052104,75728863,0.19,0.21,0.05,0.05,352.8,352.8,0.0,0.0
1630620488.00048113,75828823,0.16,0.18,0.07,0.05,352.8,352.8,0.0,0.0
1630620488.10044098,75928783,0.16,0.16,0.07,0.05,352.8,352.8,0.0,0.0
1630620488.20040107,76028743,0.18,0.16,0.09,0.06,352.8,352.8,0.0,0.0
1630620488.30036116,76128703,0.15,0.16,0.11,0.08,352.8,352.8,0.0,0.0
1630620488.40032101,76228663,0.14,0.14,0.13,0.11,352.8,352.8,0.0,0.0
1630620488.50028110,76328623,0.15,0.14,0.11,0.11,352.8,352.8,0.0,0.0
1630620488.60024095,76428583,0.18,0.15,0.1,0.09,352.8,352.8,0.0,0.0
1630620488.70020103,76528543,0.19,0.17,0.13,0.1,352.8,352.81,0.0,0.0
1630620488.80016112,76628503,0.19,0.18,0.14,0.12,352.8,352.81,0.0,0.0
1630620488.90012097,76728463,0.17,0.17,0.13,0.13,352.8,352.81,0.0,0.0
1630620489.00008106,76828423,0.14,0.15,0.13,0.13,352.8,352.81,0.0,0.0
1630620489.10004115,76928383,0.11,0.12,0.14,0.12,352.8,352.81,0.0,0.0
1630620489.20000100,77028343,0.1,0.09,0.13,0.12,352.8,352.81,0.0,0.0
1630620489.29996109,77128303,0.12,0.09,0.12,0.11,352.8,352.81,0.0,0.0
1630620489.39992094,77228263,0.16,0.12,0.14,0.12,352.8,352.81,0.0,0.0
1630620489.49988103,77328223,0.2,0.17,0.13,0.12,352.8,352.81,0.0,0.0
1630620489.59984112,77428183,0.19,0.2,0.11,0.1,352.8,352.81,0.0,0.0
1630620489.70063400,77528976,0.16,0.18,0.12,0.1,352.8,352.8,0.0,0.0
1630620489.80059409,77628936,0.12,0.14,0.11,0.1,352.8,352.8,0.0,0.0
1630620489.90055394,77728896,0.11,0.11,0.08,0.08,352.8,352.8,0.0,0.0
1630620490.00051403,77828856,0.13,0.11,0.09,0.07,352.8,352.81,0.0,0.0
1630620490.10047412,77928816,0.14,0.12,0.12,0.1,352.8,352.81,0.0,0.0
1630620490.20043397,78028776,0.16,0.14,0.14,0.13,352.8,352.81,0.0,0.0
1630620490.30039406,78128736,0.17,0.15,0.11,0.14,352.8,352.81,0.0,0.0
1630620490.40035415,78228696,0.15,0.15,0.04,0.1,352.8,352.81,0.0,0.0
1630620490.50031400,78328656,0.12,0.15,0.0,0.04,352.8,352.81,0.0,0.0
1630620490.60027409,78428616,0.12,0.13,0.02,0.01,352.8,352.81,0.0,0.0
1630620490.70023394,78528576,0.12,0.11,0.08,0.04,352.8,352.81,0.0,0.0
1630620490.80019403,78628536,0.12,0.1,0.13,0.1,352.8,352.81,0.0,0.0
1630620490.90015411,78728496,0.11,0.09,0.16,0.14,352.8,352.81,0.0,0.0
1630620491.00011396,78828456,0.09,0.08,0.16,0.17,352.8,352.81,0.0,0.0
1630620491.10007405,78928416,0.09,0.08,0.14,0.16,352.8,352.81,0.0,0.0
1630620491.20003414,79028376,0.09,0.08,0.12,0.13,352.8,352.8,0.0,0.0
1630620491.29999399,79128336,0.11,0.1,0.11,0.1,352.8,352.8,0.0,0.0
1630620491.39995408,79228296,0.13,0.12,0.08,0.08,352.8,352.8,0.0,0.0
1630620491.49991393,79328256,0.1,0.11,0.08,0.06,352.8,352.8,0.0,0.0
1630620491.59987402,79428216,0.08,0.08,0.13,0.08,352.8,352.8,0.0,0.0
1630620491.69983411,79528176,0.07,0.06,0.16,0.13,352.8,352.8,0.0,0.0
1630620491.80062699,79628969,0.09,0.07,0.18,0.16,352.8,352.8,0.0,0.0
1630620491.90058708,79728929,0.12,0.1,0.17,0.18,352.8,352.8,0.0,0.0
1630620492.00054693,79828889,0.12,0.13,0.16,0.18,352.8,352.8,0.0,0.0
1630620492.10050702,79928849,0.08,0.12,0.12,0.16,352.8,352.8,0.0,0.0
1630620492.20046711,80028809,0.04,0.06,0.09,0.11,352.8,352.8,0.0,0.0
1630620492.30042696,80128769,0.02,0.02,0.07,0.07,352.8,352.8,0.0,0.0
1630620492.40038705,80228729,0.05,0.01,0.08,0.05,352.8,352.8,0.0,0.0
1630620492.50034714,80328689,0.08,0.03,0.11,0.06,352.8,352.8,0.0,0.0
1630620492.60030699,80428649,0.11,0.06,0.13,0.09,352.8,352.8,0.0,0.0
1630620492.70026708,80528609,0.13,0.1,0.12,0.1,352.8,352.8,0.0,0.0
1630620492.80022693,80628569,0.15,0.14,0.12,0.1,352.8,352.8,0.0,0.0
1630620492.90018702,80728529,0.17,0.16,0.13,0.12,352.8,352.81,0.0,0.0
1630620493.00014710,80828489,0.16,0.17,0.14,0.13,352.8,352.81,0.0,0.0
1630620493.10010695,80928449,0.13,0.15,0.14,0.14,352.8,352.81,0.0,0.0
1630620493.20006704,81028409,0.12,0.13,0.14,0.15,352.8,352.81,0.0,0.0
1630620493.30002713,81128369,0.12,0.12,0.12,0.14,352.8,352.81,0.0,0.0
1630620493.39998698,81228329,0.12,0.11,0.1,0.12,352.8,352.81,0.0,0.0
1630620493.49994707,81328289,0.11,0.11,0.07,0.09,352.8,352.81,0.0,0.0
1630620493.59990692,81428249,0.11,0.11,0.07,0.07,352.8,352.81,0.0,0.0
1630620493.69986701,81528209,0.13,0.11,0.09,0.07,352.8,352.81,0.0,0.0
1630620493.79982710,81628169,0.14,0.12,0.11,0.08,352.8,352.81,0.0,0.0
1630620493.90061998,81728962,0.15,0.13,0.14,0.12,352.8,352.81,0.0,0.0
1630620494.00058007,81828922,0.15,0.14,0.18,0.16,352.8,352.81,0.0,0.0
1630620494.10053992,81928882,0.15,0.14,0.21,0.21,352.8,352.81,0.0,0.0
1630620494.20050001,82028842,0.16,0.14,0.21,0.24,352.8,352.81,0.0,0.0
1630620494.30046010,82128802,0.13,0.13,0.19,0.24,352.8,352.81,0.0,0.0
1630620494.40041995,82228762,0.07,0.09,0.14,0.19,352.8,352.8,0.0,0.0
1630620494.50038004,82328722,0.07,0.06,0.09,0.13,352.8,352.8,0.0,0.0
1630620494.60034013,82428682,0.07,0.05,0.1,0.09,352.8,352.8,0.0,0.0
1630620494.70029998,82528642,0.08,0.04,0.14,0.1,352.8,352.8,0.0,0.0
1630620494.80026007,82628602,0.11,0.06,0.15,0.12,352.8,352.8,0.0,0.0
1630620494.90022016,82728562,0.14,0.11,0.17,0.15,352.8,352.8,0.0,0.0
1630620495.00018001,82828522,0.15,0.14,0.15,0.15,352.8,352.8,0.0,0.0
1630620495.10014009,82928482,0.16,0.17,0.12,0.14,352.8,352.8,0.0,0.0
1630620495.20009995,83028442,0.15,0.18,0.11,0.12,352.8,352.8,0.0,0.0
1630620495.30006003,83128402,0.1,0.14,0.1,0.1,352.8,352.8,0.0,0.0
1630620495.40002012,83228362,0.06,0.09,0.1,0.08,352.8,352.8,0.0,0.0
1630620495.49997997,83328322,0.06,0.06,0.11,0.08,352.8,352.8,0.0,0.0
1630620495.59994006,83428282,0.07,0.06,0.12,0.09,352.8,352.81,0.0,0.0
1630620495.69990015,83528242,0.06,0.05,0.15,0.11,352.8,352.81,0.0,0.0
1630620495.79986000,83628202,0.07,0.06,0.16,0.14,352.8,352.81,0.0,0.0
1630620495.89982009,83728162,0.08,0.06,0.18,0.16,352.8,352.81,0.0,0.0
1630620496.00061297,83828955,0.11,0.08,0.18,0.17,352.8,352.81,0.0,0.0
1630620496.10057306,83928915,0.14,0.11,0.15,0.17,352.8,352.81,0.0,0.0
1630620496.20053315,84028875,0.16,0.13,0.14,0.15,352.8,352.81,0.0,0.0
1630620496.30049300,84128835,0.19,0.16,0.13,0.12,352.8,352.81,0.0,0.0
1630620496.40045309,84228795,0.2,0.2,0.09,0.09,352.8,352.81,0.0,0.0
1630620496.50041294,84328755,0.17,0.2,0.09,0.08,352.8,352.81,0.0,0.0
1630620496.60037303,84428715,0.16,0.18,0.11,0.09,352.8,352.8,0.0,0.0
1630620496.70033312,84528675,0.13,0.15,0.11,0.1,352.8,352.8,0.0,0.0
1630620496.80029297,84628635,0.13,0.13,0.09,0.09,352.8,352.8,0.0,0.0
1630620496.90025306,84728595,0.13,0.12,0.07,0.07,352.8,352.8,0.0,0.0
1630620497.00021315,84828555,0.15,0.13,0.07,0.06,352.8,352.8,0.0,0.0
1630620497.10017300,84928515,0.16,0.14,0.1,0.06,352.8,352.8,0.0,0.0
1630620497.20013309,85028475,0.14,0.14,0.12,0.08,352.8,352.8,0.0,0.0
1630620497.30009294,85128435,0.13,0.13,0.16,0.12,352.8,352.8,0.0,0.0
1630620497.40005302,85228395,0.11,0.11,0.2,0.17,352.8,352.8,0.0,0.0
1630620497.50001311,85328355,0.12,0.1,0.22,0.21,352.8,352.81,0.0,0.0
1630620497.59997296,85428315,0.14,0.11,0.23,0.24,352.8,352.81,0.0,0.0
1630620497.69993305,85528275,0.17,0.14,0.17,0.22,352.8,352.81,0.0,0.0
1630620497.79989314,85628235,0.16,0.16,0.1,0.15,352.8,352.81,0.0,0.0
1630620497.89985299,85728195,0.14,0.15,0.06,0.08,352.8,352.81,0.0,0.0
1630620497.99981308,85828155,0.14,0.14,0.05,0.03,352.8,352.81,0.0,0.0
1630620498.10060596,85928948,0.14,0.14,0.06,0.03,352.8,352.81,0.0,0.0
1630620498.20056605,86028908,0.15,0.14,0.09,0.05,352.8,352.81,0.0,0.0
1630620498.30052614,86128868,0.14,0.14,0.12,0.08,352.8,352.81,0.0,0.0
1630620498.40048599,86228828,0.15,0.14,0.12,0.11,352.8,352.81,0.0,0.0
1630620498.50044608,86328788,0.16,0.14,0.1,0.11,352.8,352.81,0.0,0.0
1630620498.60040593,86428748,0.17,0.16,0.1,0.1,352.8,352.81,0.0,0.0
1630620498.70036602,86528708,0.19,0.17,0.08,0.09,352.8,352.81,0.0,0.0
1630620498.80032611,86628668,0.17,0.17,0.08,0.07,352.8,352.8,0.0,0.0
1630620498.90028596,86728628,0.13,0.14,0.12,0.09,352.8,352.8,0.0,0.0
1630620499.00024605,86828588,0.1,0.1,0.15,0.13,352.8,352.81,0.0,0.0
1630620499.10020614,86928548,0.08,0.07,0.16,0.15,352.8,352.8,0.0,0.0
1630620499.20016599,87028508,0.1,0.07,0.15,0.15,352.8,352.8,0.0,0.0
1630620499.30012608,87128468,0.14,0.1,0.15,0.15,352.8,352.8,0.0,0.0
1630620499.40008593,87228428,0.17,0.15,0.16,0.16,352.8,352.8,0.0,0.0
1630620499.50004601,87328388,0.15,0.15,0.15,0.15,352.8,352.8,0.0,0.0
1630620499.60000610,87428348,0.14,0.15,0.12,0.12,352.8,352.8,0.0,0.0
1630620499.69996595,87528308,0.13,0.14,0.09,0.1,352.8,352.8,0.0,0.0
1630620499.79992604,87628268,0.12,0.13,0.08,0.08,352.8,352.8,0.0,0.0
1630620499.89988613,87728228,0.13,0.13,0.09,0.07,352.8,352.8,0.0,0.0
1630620499.99984598,87828188,0.13,0.13,0.11,0.09,352.8,352.81,0.0,0.0
1630620500.10063910,87928981,0.09,0.11,0.12,0.11,352.8,352.81,0.0,0.0
1630620500.20059896,88028941,0.05,0.07,0.12,0.13,352.8,352.81,0.0,0.0
1630620500.30055904,88128901,0.05,0.05,0.13,0.13,352.8,352.81,0.0,0.0
1630620500.40051913,88228861,0.06,0.04,0.13,0.13,352.8,352.81,0.0,0.0
1630620500.50047898,88328821,0.07,0.06,0.12,0.13,352.8,352.81,0.0,0.0
1630620500.60043907,88428781,0.07,0.05,0.1,0.11,352.8,352.81,0.0,0.0
1630620500.70039892,88528741,0.06,0.05,0.09,0.09,352.8,352.81,0.0,0.0
1630620500.80035901,88628701,0.05,0.03,0.09,0.08,352.8,352.81,0.0,0.0
1630620500.90031910,88728661,0.06,0.03,0.07,0.06,352.8,352.81,0.0,0.0
1630620501.00027895,88828621,0.08,0.05,0.07,0.06,352.8,352.81,0.0,0.0
1630620501.10023904,88928581,0.1,0.08,0.1,0.07,352.8,352.8,0.0,0.0
1630620501.20019913,89028541,0.14,0.11,0.13,0.1,352.8,352.8,0.0,0.0
1630620501.30015898,89128501,0.17,0.15,0.14,0.12,352.8,352.8,0.0,0.0
1630620501.40011907,89228461,0.18,0.17,0.14,0.13,352.8,352.8,0.0,0.0
1630620501.50007915,89328421,0.18,0.18,0.14,0.13,352.8,352.81,0.0,0.0
1630620501.60003901,89428381,0.17,0.17,0.13,0.13,352.8,352.81,0.0,0.0
1630620501.69999909,89528341,0.18,0.17,0.14,0.13,352.8,352.81,0.0,0.0
1630620501.79995894,89628301,0.2,0.19,0.13,0.12,352.8,352.81,0.0,0.0
1630620501.89991903,89728261,0.19,0.19,0.15,0.13,352.8,352.81,0.0,0.0
1630620501.99987912,89828221,0.17,0.18,0.16,0.15,352.8,352.81,0.0,0.0
1630620502.09983897,89928181,0.18,0.16,0.17,0.16,352.8,352.81,0.0,0.0
1630620502.20063210,90028974,0.2,0.17,0.17,0.17,352.8,352.81,0.0,0.0
1630620502.30059195,90128934,0.21,0.18,0.17,0.17,352.8,352.81,0.0,0.0
1630620502.40055203,90228894,0.23,0.2,0.18,0.18,352.8,352.81,0.0,0.0
1630620502.50051212,90328854,0.25,0.23,0.19,0.18,352.8,352.81,0.0,0.0
1630620502.60047197,90428814,0.23,0.23,0.2,0.19,352.8,352.81,0.0,0.0
1630620502.70043206,90528774,0.22,0.23,0.2,0.19,352.8,352.81,0.0,0.0
1630620502.80039215,90628734,0.21,0.22,0.18,0.18,352.8,352.81,0.0,0.0
1630620502.90035200,90728694,0.19,0.2,0.16,0.16,352.8,352.81,0.0,0.0
1630620503.00031209,90828654,0.21,0.2,0.14,0.13,352.8,352.81,0.0,0.0
1630620503.10027194,90928614,0.23,0.21,0.15,0.12,352.8,352.8,0.0,0.0
1630620503.20023203,91028574,0.21,0.21,0.17,0.13,352.8,352.8,0.0,0.0
1630620503.30019212,91128534,0.16,0.17,0.18,0.15,352.8,352.8,0.0,0.0
1630620503.40015197,91228494,0.12,0.12,0.2,0.17,352.8,352.81,0.0,0.0
1630620503.50011206,91328454,0.12,0.11,0.19,0.19,352.8,352.81,0.0,0.0
1630620503.60007215,91428414,0.12,0.1,0.17,0.19,352.8,352.81,0.0,0.0
1630620503.70003200,91528374,0.12,0.1,0.15,0.16,352.8,352.81,0.0,0.0
1630620503.79999208,91628334,0.12,0.1,0.13,0.13,352.8,352.81,0.0,0.0
1630620503.89995193,91728294,0.1,0.1,0.15,0.13,352.8,352.81,0.0,0.0
1630620503.99991202,91828254,0.16,0.11,0.14,0.13,352.8,352.81,0.0,0.0
1630620504.09987211,91928214,0.48,0.3,0.17,0.14,352.8,352.81,0.0,0.0
1630620504.19983196,92028174,1.06,0.77,0.23,0.19,352.8,352.81,0.0,0.0
1630620504.30062509,92128967,1.83,1.5,0.34,0.29,352.8,352.81,0.0,0.0
1630620504.40058494,92228927,2.74,2.43,0.47,0.42,352.8,352.81,0.0,0.0
1630620504.50054502,92328887,3.7,3.49,0.62,0.58,352.8,352.82,0.0,0.01
1630620504.60050511,92428847,4.57,4.52,0.73,0.73,352.8,352.82,0.0,0.01
1630620504.70046496,92528807,5.23,5.37,0.8,0.83,352.8,352.82,0.0,0.01
1630620504.80042505,92628767,5.75,6.0,0.88,0.9,352.8,352.82,0.0,0.01
1630620504.90038514,92728727,6.18,6.46,0.94,0.97,352.8,352.82,0.0,0.01
1630620505.00034499,92828687,6.58,6.81,0.95,1.0,352.8,352.82,0.0,0.01
1630620505.10030508,92928647,7.02,7.15,0.98,1.01,352.8,352.82,0.0,0.01
1630620505.20026493,93028607,7.45,7.51,1.03,1.03,352.8,352.82,0.0,0.01
1630620505.30022502,93128567,7.78,7.84,1.06,1.05,352.8,352.82,0.0,0.01
1630620505.40018511,93228527,8.02,8.11,1.11,1.09,352.8,352.82,0.0,0.01
1630620505.50014496,93328487,8.22,8.31,1.14,1.13,352.8,352.82,0.0,0.0
1630620505.60010505,93428447,8.42,8.47,1.15,1.16,352.8,352.82,0.0,0.0
1630620505.70006514,93528407,8.62,8.63,1.16,1.17,352.8,352.82,0.0,0.0
1630620505.80002499,93628367,8.83,8.8,1.18,1.25,354.07,352.85,0.0,0.0
1630620505.89998507,93728327,9.14,9.0,1.19,1.61,358.06,353.25,0.0,0.0
1630620505.99994493,93828287,9.55,9.31,1.1,2.2,3.99,354.74,0.0,0.0
1630620506.09990501,93928247,10.04,9.79,0.68,2.52,9.99,357.82,0.0,0.01
1630620506.19986510,94028207,10.51,10.37,-0.19,2.18,15.99,2.52,0.0,0.01
1630620506.29982495,94128167,10.83,10.91,-1.54,1.08,21.99,8.6,0.0,0.02
1630620506.40061808,94228960,10.93,11.23,-3.26,-0.7,27.99,15.76,0.0,0.03
1630620506.50057793,94328920,10.73,11.2,-5.18,-2.99,33.99,23.7,0.0,0.04
1630620506.60053802,94428880,10.15,10.72,-7.1,-5.51,39.99,32.19,0.0,0.04
1630620506.70049810,94528840,9.23,9.72,-8.9,-7.98,45.99,40.98,0.0,0.05
1630620506.80045795,94628800,8.03,8.24,-10.47,-10.18,51.99,49.82,0.0,0.05
1630620506.90041804,94728760,6.66,6.45,-11.8,-11.95,57.99,58.41,0.0,0.06
1630620507.00037813,94828720,5.19,4.53,-12.85,-13.25,63.99,66.51,0.0,0.06
1630620507.10033798,94928680,3.69,2.65,-13.66,-14.09,69.99,73.94,0.0,0.06
1630620507.20029807,95028640,2.24,0.97,-14.25,-14.58,75.99,80.61,0.0,0.05
1630620507.30025792,95128600,0.87,-0.46,-14.65,-14.82,81.69,86.57,0.0,0.05
1630620507.40021801,95228560,-0.41,-1.93,-14.9,-14.91,85.17,91.82,0.0,0.05
1630620507.50017810,95328520,-1.52,-3.52,-15.02,-14.89,86.98,96.04,0.0,0.04
1630620507.60013795,95428480,-2.32,-4.9,-15.07,-14.76,87.94,98.9,0.0,0.04
1630620507.70009804,95528440,-2.73,-5.76,-15.13,-14.64,88.48,100.31,0.0,0.03
1630620507.80005813,95628400,-2.68,-5.91,-15.23,-14.59,88.82,100.39,0.0,0.02
1630620507.90001798,95728360,-2.21,-5.31,-15.42,-14.68,89.08,99.4,0.0,0.02
1630620507.99997807,95828320,-1.5,-4.11,-15.64,-14.91,89.31,97.61,0.0,0.02
1630620508.09993815,95928280,-0.67,-2.54,-15.89,-15.25,89.52,95.34,0.0,0.02
1630620508.19989800,96028240,0.12,-0.85,-16.11,-15.63,89.73,92.89,0.0,0.02
1630620508.29985809,96128200,0.78,0.71,-16.24,-15.94,89.93,90.55,0.0,0.02
1630620508.39981794,96228160,1.22,1.92,-16.28,-16.12,90.11,88.59,0.0,0.01
1630620508.50061107,96328953,1.46,2.7,-16.27,-16.19,90.26,87.2,0.0,0.01
1630620508.60057116,96428913,1.5,3.03,-16.25,-16.18,90.39,86.44,0.0,0.01
1630620508.70053101,96528873,1.38,2.96,-16.24,-16.14,90.49,86.3,0.0,0.01
1630620508.80049109,96628833,1.16,2.56,-16.29,-16.14,90.57,86.7,0.0,0.01
1630620508.90045094,96728793,0.84,1.95,-16.37,-16.21,90.62,87.49,0.0,0.01
1630620509.00041103,96828753,0.5,1.22,-16.46,-16.32,90.65,88.53,0.0,0.01
1630620509.10037112,96928713,0.18,0.48,-16.53,-16.43,90.66,89.64,0.0,0.01
1630620509.20033097,97028673,-0.1,-0.17,-16.6,-16.54,90.67,90.7,0.0,0.01
1630620509.30029106,97128633,-0.3,-0.7,-16.65,-16.62,90.66,91.58,0.0,0.0
1630620509.40025115,97228593,-0.39,-1.03,-16.7,-16.68,90.66,92.23,0.0,0.0
1630620509.50021100,97328553,-0.4,-1.16,-16.71,-16.71,90.67,92.59,0.0,0.0
1630620509.60017109,97428513,-0.37,-1.13,-16.73,-16.73,90.67,92.69,0.0,0.0
1630620509.70013094,97528473,-0.29,-0.98,-16.77,-16.75,90.68,92.56,0.0,0.0
1630620509.80009103,97628433,-0.16,-0.73,-16.81,-16.78,90.69,92.25,0.0,0.0
1630620509.90005112,97728393,-0.02,-0.42,-16.84,-16.81,90.71,91.84,0.0,0.0
1630620510.00001097,97828353,0.09,-0.11,-16.88,-16.86,90.72,91.38,0.0,0.0
1630620510.09997106,97928313,0.2,0.15,-16.94,-16.91,90.74,90.95,0.0,0.01
1630620510.19993114,98028273,0.29,0.37,-17.01,-16.98,90.75,90.58,0.0,0.01
1630620510.29989100,98128233,0.35,0.52,-17.04,-17.04,90.76,90.31,0.0,0.01
1630620510.39985108,98228193,0.34,0.58,-17.05,-17.06,90.76,90.16,0.0,0.01
1630620510.50064397,98328986,0.32,0.57,-17.06,-17.07,90.76,90.11,0.0,0.01
1630620510.60060406,98428946,0.28,0.5,-17.06,-17.07,90.76,90.16,0.0,0.01
1630620510.70056415,98528906,0.22,0.39,-17.07,-17.06,90.76,90.28,0.0,0.01
1630620510.80052400,98628866,0.17,0.26,-17.11,-17.07,90.75,90.45,0.0,0.01
1630620510.90048409,98728826,0.12,0.14,-17.16,-17.12,90.74,90.63,0.0,0.01
1630620511.00044394,98828786,0.06,0.03,-17.2,-17.18,90.73,90.8,0.0,0.01
1630620511.10040402,98928746,0.04,-0.05,-17.24,-17.23,90.72,90.94,0.0,0.0
1630620511.20036411,99028706,0.03,-0.09,-17.27,-17.28,90.71,91.04,0.0,0.0
1630620511.30032396,99128666,0.02,-0.11,-17.3,-17.31,90.7,91.1,0.0,0.0
1630620511.40028405,99228626,0.03,-0.1,-17.32,-17.33,90.69,91.11,0.0,0.0
1630620511.50024414,99328586,0.05,-0.08,-17.32,-17.34,90.68,91.08,0.0,0.0
1630620511.60020399,99428546,0.06,-0.05,-17.33,-17.34,90.67,91.02,0.0,0.0
1630620511.70016408,99528506,0.1,0.0,-17.38,-17.37,90.66,90.95,0.0,0.0
1630620511.80012393,99628466,0.13,0.05,-17.41,-17.41,90.65,90.86,0.0,0.0
1630620511.90008402,99728426,0.16,0.11,-17.43,-17.44,90.64,90.77,0.0,0.0
1630620512.00004411,99828386,0.19,0.17,-17.43,-17.46,90.64,90.69,0.0,0.0
1630620512.10000396,99928346,0.2,0.21,-17.45,-17.47,90.63,90.63,0.0,0.0
1630620512.19996405,100028306,0.17,0.2,-17.48,-17.49,90.62,90.59,0.0,0.0
1630620512.29992414,100128266,0.15,0.18,-17.5,-17.51,90.61,90.57,0.0,0.0
1630620512.39988399,100228226,0.14,0.15,-17.53,-17.53,90.6,90.56,0.0,0.0
1630620512.49984407,100328186,0.14,0.14,-17.56,-17.55,90.58,90.57,0.0,0.0
1630620512.60063696,100428979,0.13,0.13,-17.57,-17.57,90.57,90.58,0.0,0.0
1630620512.70059705,100528939,0.12,0.11,-17.55,-17.57,90.56,90.6,0.0,0.0
1630620512.80055714,100628899,0.1,0.08,-17.54,-17.56,90.55,90.63,0.0,0.0
1630620512.90051699,100728859,0.08,0.05,-17.58,-17.56,90.54,90.64,0.0,0.0
1630620513.00047708,100828819,0.09,0.04,-17.63,-17.59,90.53,90.65,0.0,0.0
1630620513.10043693,100928779,0.11,0.05,-17.66,-17.64,90.51,90.66,0.0,0.0
1630620513.20039701,101028739,0.11,0.06,-17.67,-17.68,90.51,90.65,0.0,0.0
1630620513.30035710,101128699,0.09,0.05,-17.68,-17.71,90.5,90.64,0.0,0.0
1630620513.40031695,101228659,0.11,0.06,-17.68,-17.72,90.49,90.62,0.0,0.0
1630620513.50027704,101328619,0.14,0.09,-17.7,-17.73,90.48,90.59,0.0,0.0
1630620513.60023713,101428579,0.15,0.11,-17.72,-17.74,90.47,90.57,0.0,0.0
1630620513.70019698,101528539,0.14,0.12,-17.74,-17.75,90.47,90.55,0.0,0.0
1630620513.80015707,101628499,0.11,0.1,-17.77,-17.78,90.46,90.53,0.0,0.0
1630620513.90011692,101728459,0.11,0.09,-17.77,-17.8,90.45,90.51,0.0,0.0
1630620514.00007701,101828419,0.13,0.1,-17.75,-17.79,90.44,90.5,0.0,0.0
1630620514.10003710,101928379,0.16,0.12,-17.72,-17.75,90.44,90.49,0.0,0.0
1630620514.19999695,102028339,0.19,0.15,-17.73,-17.72,90.43,90.49,0.0,0.0
1630620514.29995704,102128299,0.2,0.18,-17.77,-17.74,90.43,90.48,0.0,0.0
1630620514.39991713,102228259,0.2,0.19,-17.82,-17.79,90.42,90.48,0.0,0.0
1630620514.49987698,102328219,0.19,0.18,-17.87,-17.85,90.42,90.48,0.0,0.0
1630620514.59983706,102428179,0.16,0.16,-17.9,-17.9,90.42,90.48,0.0,0.0
1630620514.70062995,102528972,0.13,0.12,-17.9,-17.93,90.41,90.48,0.0,0.0
1630620514.80059004,102628932,0.12,0.09,-17.87,-17.92,90.41,90.48,0.0,0.0
1630620514.90055013,102728892,0.13,0.08,-17.86,-17.9,90.4,90.48,0.0,0.0
1630620515.00050998,102828852,0.14,0.09,-17.86,-17.88,90.4,90.48,0.0,0.0
1630620515.10047007,102928812,0.18,0.13,-17.87,-17.88,90.4,90.47,0.0,0.0
1630620515.20043015,103028772,0.21,0.17,-17.91,-17.91,90.4,90.47,0.0,0.0
1630620515.30039001,103128732,0.22,0.2,-17.93,-17.94,90.4,90.46,0.0,0.0
1630620515.40035009,103228692,0.23,0.21,-17.95,-17.96,90.4,90.46,0.0,0.0
1630620515.50030994,103328652,0.23,0.22,-17.94,-17.97,90.4,90.46,0.0,0.0
1630620515.60027003,103428612,0.24,0.23,-17.93,-17.96,90.4,90.45,0.0,0.0
1630620515.70023012,103528572,0.27,0.24,-17.92,-17.94,90.4,90.45,0.0,0.0
1630620515.80018997,103628532,0.26,0.24,-17.94,-17.94,90.4,90.45,0.0,0.0
1630620515.90015006,103728492,0.24,0.22,-17.94,-17.94,90.4,90.46,0.0,0.0
1630620516.00011015,103828452,0.23,0.21,-17.93,-17.94,90.4,90.46,0.0,0.0
1630620516.10007000,103928412,0.24,0.2,-17.93,-17.93,90.4,90.46,0.0,0.0
1630620516.20003009,104028372,0.25,0.2,-17.95,-17.94,90.4,90.47,0.0,0.0
1630620516.29998994,104128332,0.25,0.21,-17.97,-17.96,90.4,90.47,0.0,0.0
1630620516.39995003,104228292,0.26,0.23,-17.98,-17.97,90.4,90.47,0.0,0.0
1630620516.49991012,104328252,0.27,0.24,-17.99,-17.99,90.4,90.47,0.0,0.0
1630620516.59986997,104428212,0.27,0.24,-18.01,-18.01,90.4,90.47,0.0,0.0
1630620516.69983006,104528172,0.27,0.25,-18.0,-18.02,90.4,90.47,0.0,0.0
1630620516.80062294,104628965,0.25,0.24,-17.98,-18.02,90.4,90.47,0.0,0.0
1630620516.90058303,104728925,0.24,0.23,-17.97,-18.0,90.4,90.47,0.0,0.0
1630620517.00054312,104828885,0.23,0.21,-17.97,-17.98,90.4,90.47,0.0,0.0
1630620517.10050297,104928845,0.23,0.2,-17.99,-17.98,90.4,90.46,0.0,0.0
1630620517.20046306,105028805,0.27,0.22,-18.01,-18.01,90.4,90.46,0.0,0.0
1630620517.30042315,105128765,0.32,0.26,-18.03,-18.03,90.4,90.46,0.0,0.0
1630620517.40038300,105228725,0.34,0.3,-18.05,-18.05,90.4,90.45,0.0,0.0
1630620517.50034308,105328685,0.34,0.33,-18.06,-18.07,90.4,90.45,0.0,0.0
1630620517.60030293,105428645,0.32,0.32,-18.07,-18.09,90.4,90.45,0.0,0.0
1630620517.70026302,105528605,0.3,0.31,-18.09,-18.1,90.4,90.45,0.0,0.0
1630620517.80022311,105628565,0.3,0.29,-18.1,-18.12,90.4,90.45,0.0,0.0
1630620517.90018296,105728525,0.32,0.29,-18.08,-18.11,90.4,90.45,0.0,0.0
1630620518.00014305,105828485,0.35,0.31,-18.05,-18.08,90.4,90.45,0.0,0.0
1630620518.10010314,105928445,0.36,0.34,-18.05,-18.06,90.4,90.45,0.0,0.0
1630620518.20006299,106028405,0.33,0.33,-18.06,-18.06,90.4,90.45,0.0,0.0
1630620518.30002308,106128365,0.33,0.32,-18.09,-18.07,90.4,90.46,0.0,0.0
1630620518.39998293,106228325,0.32,0.31,-18.13,-18.11,90.4,90.46,0.0,0.0
1630620518.49994302,106328285,0.32,0.3,-18.15,-18.15,90.4,90.46,0.0,0.0
1630620518.59990311,106428245,0.32,0.3,-18.15,-18.17,90.4,90.46,0.0,0.0
1630620518.69986296,106528205,0.32,0.31,-18.13,-18.18,90.4,90.46,0.0,0.0
1630620518.79982305,106628165,0.32,0.31,-18.1,-18.16,90.4,90.46,0.0,0.0
1630620518.90061593,106728958,0.33,0.3,-18.05,-18.11,90.4,90.46,0.0,0.0
1630620519.00057602,106828918,0.33,0.31,-18.03,-18.06,90.4,90.46,0.0,0.0
1630620519.10053611,106928878,0.33,0.31,-18.04,-18.04,90.39,90.46,0.0,0.0
1630620519.20049596,107028838,0.32,0.3,-18.09,-18.05,90.39,90.45,0.0,0.0
1630620519.30045605,107128798,0.31,0.29,-18.12,-18.09,90.39,90.45,0.0,0.0
1630620519.40041614,107228758,0.3,0.28,-18.15,-18.14,90.39,90.44,0.0,0.0
1630620519.50037599,107328718,0.3,0.28,-18.16,-18.16,90.39,90.44,0.0,0.0
1630620519.60033607,107428678,0.27,0.26,-18.16,-18.18,90.39,90.43,0.0,0.0
1630620519.70029593,107528638,0.28,0.26,-18.15,-18.17,90.38,90.43,0.0,0.0
1630620519.80025601,107628598,0.31,0.27,-18.14,-18.15,90.38,90.42,0.0,0.0
1630620519.90021610,107728558,0.3,0.28,-18.12,-18.13,90.38,90.42,0.0,0.0
1630620520.00017595,107828518,0.29,0.27,-18.12,-18.13,90.38,90.42,0.0,0.0
1630620520.10013604,107928478,0.27,0.26,-18.12,-18.12,90.38,90.41,0.0,0.0
1630620520.20009613,108028438,0.26,0.24,-18.14,-18.13,90.37,90.41,0.0,0.0
1630620520.30005598,108128398,0.28,0.24,-18.16,-18.15,90.37,90.41,0.0,0.0
1630620520.40001607,108228358,0.28,0.26,-18.18,-18.18,90.37,90.41,0.0,0.0
1630620520.49997616,108328318,0.27,0.26,-18.18,-18.2,90.37,90.41,0.0,0.0
1630620520.59993601,108428278,0.31,0.28,-18.18,-18.2,90.37,90.41,0.0,0.0
1630620520.69989610,108528238,0.34,0.31,-18.17,-18.2,90.37,90.41,0.0,0.0
1630620520.79985595,108628198,0.35,0.34,-18.16,-18.19,90.37,90.41,0.0,0.0
1630620520.89981604,108728158,0.34,0.34,-18.14,-18.17,90.37,90.41,0.0,0.0
1630620521.00060892,108828951,0.33,0.32,-18.11,-18.14,90.37,90.41,0.0,0.0
1630620521.10056901,108928911,0.31,0.3,-18.09,-18.1,90.38,90.41,0.0,0.0
1630620521.20052910,109028871,0.29,0.27,-18.08,-18.08,90.38,90.41,0.0,0.0
1630620521.30048895,109128831,0.31,0.27,-18.09,-18.08,90.38,90.41,0.0,0.0
1630620521.40044904,109228791,0.34,0.3,-18.11,-18.09,90.38,90.41,0.0,0.0
1630620521.50040913,109328751,0.37,0.33,-18.14,-18.12,90.38,90.42,0.0,0.0
1630620521.60036898,109428711,0.4,0.36,-18.18,-18.16,90.38,90.42,0.0,0.0
1630620521.70032907,109528671,0.41,0.4,-18.19,-18.2,90.38,90.42,0.0,0.0
1630620521.80028915,109628631,0.41,0.42,-18.15,-18.2,90.39,90.42,0.0,0.0
1630620521.90024900,109728591,0.39,0.41,-18.11,-18.16,90.39,90.43,0.0,0.0
1630620522.00020909,109828551,0.38,0.39,-18.11,-18.13,90.39,90.43,0.0,0.0
1630620522.10016894,109928511,0.37,0.37,-18.14,-18.14,90.39,90.43,0.0,0.0
1630620522.20012903,110028471,0.38,0.36,-18.18,-18.17,90.4,90.43,0.0,0.0
1630620522.30008912,110128431,0.39,0.36,-18.21,-18.21,90.4,90.43,0.0,0.0
1630620522.40004897,110228391,0.4,0.38,-18.25,-18.25,90.4,90.43,0.0,0.0
1630620522.50000906,110328351,0.39,0.39,-18.27,-18.29,90.4,90.43,0.0,0.0
1630620522.59996915,110428311,0.38,0.38,-18.26,-18.3,90.4,90.43,0.0,0.0
1630620522.69992900,110528271,0.37,0.36,-18.24,-18.27,90.4,90.44,0.0,0.0
1630620522.79988909,110628231,0.36,0.35,-18.24,-18.25,90.4,90.44,0.0,0.0
1630620522.89984894,110728191,0.35,0.33,-18.24,-18.25,90.4,90.44,0.0,0.0
1630620523.00064206,110828984,0.33,0.31,-18.24,-18.25,90.4,90.44,0.0,0.0
1630620523.10060215,110928944,0.32,0.3,-18.22,-18.24,90.4,90.44,0.0,0.0
1630620523.20056200,111028904,0.32,0.29,-18.19,-18.23,90.39,90.43,0.0,0.0
1630620523.30052209,111128864,0.33,0.3,-18.19,-18.21,90.39,90.43,0.0,0.0
1630620523.40048194,111228824,0.35,0.32,-18.2,-18.22,90.39,90.42,0.0,0.0
1630620523.50044203,111328784,0.36,0.34,-18.21,-18.22,90.39,90.41,0.0,0.0
1630620523.60040212,111428744,0.37,0.35,-18.21,-18.22,90.39,90.41,0.0,0.0
1630620523.70036197,111528704,0.34,0.35,-18.21,-18.21,90.39,90.4,0.0,0.0
1630620523.80032206,111628664,0.32,0.32,-18.2,-18.21,90.39,90.4,0.0,0.0
1630620523.90028214,111728624,0.33,0.31,-18.2,-18.2,90.38,90.4,0.0,0.0
1630620524.00024199,111828584,0.35,0.31,-18.2,-18.19,90.38,90.4,0.0,0.0
1630620524.10020208,111928544,0.36,0.33,-18.21,-18.19,90.38,90.4,0.0,0.0
1630620524.20016193,112028504,0.36,0.35,-18.24,-18.22,90.38,90.4,0.0,0.0
1630620524.30012202,112128464,0.36,0.36,-18.26,-18.24,90.38,90.41,0.0,0.0
1630620524.40008211,112228424,0.38,0.36,-18.26,-18.26,90.38,90.41,0.0,0.0
1630620524.50004196,112328384,0.4,0.37,-18.23,-18.26,90.38,90.41,0.0,0.0
1630620524.60000205,112428344,0.41,0.38,-18.22,-18.24,90.39,90.41,0.0,0.0
1630620524.69996214,112528304,0.41,0.39,-18.23,-18.24,90.39,90.42,0.0,0.0
1630620524.79992199,112628264,0.4,0.38,-18.24,-18.26,90.39,90.42,0.0,0.0
1630620524.89988208,112728224,0.37,0.36,-18.24,-18.26,90.39,90.42,0.0,0.0
1630620524.99984193,112828184,0.36,0.33,-18.23,-18.26,90.39,90.42,0.0,0.0
1630620525.10063505,112928977,0.36,0.31,-18.22,-18.25,90.39,90.42,0.0,0.0
1630620525.20059514,113028937,0.38,0.33,-18.2,-18.23,90.39,90.42,0.0,0.0
1630620525.30055499,113128897,0.4,0.35,-18.21,-18.21,90.39,90.42,0.0,0.0
1630620525.40051508,113228857,0.42,0.39,-18.2,-18.21,90.39,90.42,0.0,0.0
1630620525.50047493,113328817,0.42,0.42,-18.19,-18.2,90.39,90.41,0.0,0.0
1630620525.60043502,113428777,0.4,0.42,-18.19,-18.19,90.39,90.41,0.0,0.0
1630620525.70039511,113528737,0.37,0.39,-18.2,-18.2,90.39,90.41,0.0,0.0
1630620525.80035496,113628697,0.34,0.36,-18.19,-18.2,90.39,90.4,0.0,0.0
1630620525.90031505,113728657,0.33,0.33,-18.16,-18.18,90.39,90.4,0.0,0.0
1630620526.00027514,113828617,0.36,0.33,-18.16,-18.17,90.39,90.4,0.0,0.0
1630620526.10023499,113928577,0.4,0.37,-18.15,-18.16,90.39,90.4,0.0,0.0
1630620526.20019507,114028537,0.43,0.41,-18.15,-18.15,90.39,90.41,0.0,0.0
1630620526.30015492,114128497,0.42,0.42,-18.16,-18.15,90.4,90.41,0.0,0.0
1630620526.40011501,114228457,0.44,0.43,-18.2,-18.18,90.4,90.42,0.0,0.0
1630620526.50007510,114328417,0.45,0.44,-18.22,-18.22,90.4,90.42,0.0,0.0
1630620526.60003495,114428377,0.45,0.45,-18.24,-18.24,90.4,90.43,0.0,0.0
1630620526.69999504,114528337,0.46,0.45,-18.26,-18.27,90.4,90.43,0.0,0.0
1630620526.79995513,114628297,0.46,0.45,-18.27,-18.29,90.41,90.43,0.0,0.0
1630620526.89991498,114728257,0.44,0.43,-18.26,-18.29,90.41,90.43,0.0,0.0
1630620526.99987507,114828217,0.42,0.4,-18.25,-18.28,90.41,90.43,0.0,0.0
1630620527.09983516,114928177,0.39,0.38,-18.22,-18.26,90.41,90.43,0.0,0.0
1630620527.20062804,115028970,0.39,0.36,-18.2,-18.23,90.4,90.43,0.0,0.0
1630620527.30058813,115128930,0.39,0.36,-18.2,-18.21,90.4,90.43,0.0,0.0
1630620527.40054798,115228890,0.41,0.37,-18.21,-18.2,90.4,90.43,0.0,0.0
1630620527.50050807,115328850,0.44,0.39,-18.21,-18.21,90.4,90.43,0.0,0.0
1630620527.60046792,115428810,0.46,0.43,-18.22,-18.22,90.4,90.42,0.0,0.0
1630620527.70042801,115528770,0.47,0.46,-18.23,-18.24,90.4,90.42,0.0,0.0
1630620527.80038810,115628730,0.45,0.46,-18.24,-18.25,90.4,90.42,0.0,0.0
1630620527.90034795,115728690,0.42,0.43,-18.22,-18.25,90.4,90.41,0.0,0.0
1630620528.00030804,115828650,0.42,0.41,-18.21,-18.23,90.4,90.41,0.0,0.0
1630620528.10026813,115928610,0.46,0.43,-18.21,-18.21,90.4,90.41,0.0,0.0
1630620528.20022798,116028570,0.46,0.45,-18.22,-18.21,90.41,90.42,0.0,0.0
1630620528.30018806,116128530,0.44,0.45,-18.25,-18.23,90.41,90.42,0.0,0.0
1630620528.40014815,116228490,0.45,0.45,-18.28,-18.27,90.41,90.42,0.0,0.0
1630620528.50010800,116328450,0.45,0.45,-18.26,-18.29,90.41,90.42,0.0,0.0
1630620528.60006809,116428410,0.43,0.44,-18.24,-18.27,90.41,90.43,0.0,0.0
1630620528.70002794,116528370,0.41,0.41,-18.23,-18.25,90.41,90.43,0.0,0.0
1630620528.79998803,116628330,0.43,0.4,-18.23,-18.24,90.41,90.43,0.0,0.0
1630620528.89994812,116728290,0.45,0.41,-18.21,-18.22,90.42,90.44,0.0,0.0
1630620528.99990797,116828250,0.45,0.42,-18.2,-18.2,90.42,90.44,0.0,0.0
1630620529.09986806,116928210,0.46,0.43,-18.2,-18.2,90.42,90.44,0.0,0.0
1630620529.19982815,117028170,0.46,0.44,-18.23,-18.22,90.42,90.44,0.0,0.0
1630620529.30062103,117128963,0.48,0.47,-18.22,-18.23,90.42,90.44,0.0,0.0
1630620529.40058112,117228923,0.48,0.47,-18.22,-18.23,90.42,90.44,0.0,0.0
1630620529.50054097,117328883,0.49,0.47,-18.24,-18.24,90.42,90.43,0.0,0.0
1630620529.60050106,117428843,0.5,0.49,-18.26,-18.26,90.43,90.43,0.0,0.0
1630620529.70046115,117528803,0.48,0.49,-18.24,-18.27,90.43,90.43,0.0,0.0
1630620529.80042100,117628763,0.47,0.49,-18.22,-18.27,90.43,90.43,0.0,0.0
1630620529.90038109,117728723,0.47,0.47,-18.22,-18.25,90.43,90.43,0.0,0.0
1630620530.00034094,117828683,0.45,0.45,-18.22,-18.24,90.43,90.43,0.0,0.0
1630620530.10030103,117928643,0.43,0.42,-18.23,-18.23,90.43,90.44,0.0,0.0
1630620530.20026112,118028603,0.43,0.4,-18.24,-18.24,90.43,90.44,0.0,0.0
1630620530.30022097,118128563,0.44,0.4,-18.23,-18.24,90.43,90.44,0.0,0.0
1630620530.40018106,118228523,0.45,0.42,-18.21,-18.23,90.43,90.44,0.0,0.0
1630620530.50014114,118328483,0.47,0.45,-18.2,-18.21,90.42,90.44,0.0,0.0
1630620530.60010099,118428443,0.49,0.47,-18.18,-18.2,90.43,90.44,0.0,0.0
1630620530.70006108,118528403,0.48,0.49,-18.19,-18.2,90.43,90.43,0.0,0.0
1630620530.80002093,118628363,0.47,0.48,-18.22,-18.22,90.43,90.43,0.0,0.0
1630620530.89998102,118728323,0.45,0.46,-18.24,-18.24,90.42,90.43,0.0,0.0
1630620530.99994111,118828283,0.42,0.43,-18.23,-18.25,90.42,90.43,0.0,0.0
1630620531.09990096,118928243,0.43,0.42,-18.24,-18.25,90.42,90.43,0.0,0.0
1630620531.19986105,119028203,0.42,0.41,-18.26,-18.26,90.42,90.43,0.0,0.0
1630620531.29982114,119128163,0.38,0.39,-18.27,-18.27,90.42,90.43,0.0,0.0
1630620531.40061402,119228956,0.36,0.36,-18.28,-18.28,90.42,90.43,0.0,0.0
1630620531.50057411,119328916,0.37,0.34,-18.23,-18.27,90.41,90.42,0.0,0.0
1630620531.60053396,119428876,0.43,0.38,-18.19,-18.22,90.41,90.42,0.0,0.0
1630620531.70049405,119528836,0.48,0.44,-18.19,-18.2,90.41,90.42,0.0,0.0
1630620531.80045414,119628796,0.49,0.48,-18.21,-18.21,90.41,90.41,0.0,0.0
1630620531.90041399,119728756,0.48,0.48,-18.21,-18.22,90.41,90.41,0.0,0.0
1630620532.00037408,119828716,0.48,0.48,-18.17,-18.2,90.41,90.41,0.0,0.0
1630620532.10033393,119928676,0.49,0.48,-18.16,-18.18,90.41,90.41,0.0,0.0
1630620532.20029402,120028636,0.5,0.49,-18.16,-18.18,90.41,90.41,0.0,0.0
1630620532.30025411,120128596,0.5,0.49,-18.19,-18.19,90.41,90.41,0.0,0.0
1630620532.40021396,120228556,0.48,0.48,-18.22,-18.22,90.42,90.42,0.0,0.0
1630620532.50017405,120328516,0.47,0.46,-18.24,-18.24,90.42,90.42,0.0,0.0
1630620532.60013413,120428476,0.49,0.46,-18.23,-18.25,90.42,90.43,0.0,0.0
1630620532.70009398,120528436,0.52,0.47,-18.2,-18.24,90.42,90.43,0.0,0.0
1630620532.80005407,120628396,0.55,0.51,-18.19,-18.22,90.42,90.43,0.0,0.0
1630620532.90001392,120728356,0.54,0.52,-18.21,-18.21,90.42,90.43,0.0,0.0
1630620532.99997401,120828316,0.52,0.51,-18.22,-18.22,90.43,90.43,0.0,0.0
1630620533.09993410,120928276,0.51,0.5,-18.21,-18.22,90.43,90.43,0.0,0.0
1630620533.19989395,121028236,0.53,0.5,-18.22,-18.23,90.43,90.43,0.0,0.0
1630620533.29985404,121128196,0.52,0.51,-18.22,-18.23,90.43,90.43,0.0,0.0
1630620533.39981413,121228156,0.49,0.49,-18.2,-18.21,90.43,90.44,0.0,0.0
1630620533.50060701,121328949,0.47,0.47,-18.19,-18.2,90.43,90.44,0.0,0.0
1630620533.60056710,121428909,0.46,0.45,-18.18,-18.19,90.43,90.44,0.0,0.0
1630620533.70052695,121528869,0.48,0.45,-18.18,-18.18,90.43,90.44,0.0,0.0
1630620533.80048704,121628829,0.51,0.47,-18.19,-18.18,90.44,90.44,0.0,0.0
1630620533.90044713,121728789,0.54,0.51,-18.21,-18.2,90.44,90.44,0.0,0.0
1630620534.00040698,121828749,0.55,0.55,-18.21,-18.23,90.44,90.44,0.0,0.0
1630620534.10036707,121928709,0.53,0.56,-18.23,-18.24,90.44,90.44,0.0,0.0
1630620534.20032716,122028669,0.53,0.55,-18.25,-18.26,90.45,90.45,0.0,0.0
1630620534.30028701,122128629,0.5,0.53,-18.26,-18.28,90.45,90.45,0.0,0.0
1630620534.40024710,122228589,0.47,0.48,-18.27,-18.29,90.45,90.45,0.0,0.0
1630620534.50020695,122328549,0.46,0.44,-18.26,-18.29,90.45,90.45,0.0,0.0
1630620534.60016704,122428509,0.49,0.44,-18.23,-18.27,90.45,90.45,0.0,0.0
1630620534.70012712,122528469,0.52,0.47,-18.19,-18.23,90.45,90.45,0.0,0.0
1630620534.80008698,122628429,0.55,0.52,-18.19,-18.2,90.45,90.45,0.0,0.0
1630620534.90004706,122728389,0.55,0.54,-18.21,-18.2,90.45,90.45,0.0,0.0
1630620535.00000715,122828349,0.53,0.54,-18.24,-18.23,90.45,90.45,0.0,0.0
1630620535.09996700,122928309,0.49,0.51,-18.26,-18.25,90.45,90.45,0.0,0.0
1630620535.19992709,123028269,0.44,0.45,-18.27,-18.28,90.45,90.45,0.0,0.0
1630620535.29988694,123128229,0.45,0.43,-18.27,-18.28,90.44,90.45,0.0,0.0
1630620535.39984703,123228189,0.48,0.44,-18.24,-18.28,90.44,90.45,0.0,0.0
1630620535.50064015,123328982,0.5,0.47,-18.25,-18.27,90.44,90.45,0.0,0.0
1630620535.60060000,123428942,0.52,0.5,-18.25,-18.26,90.44,90.44,0.0,0.0
1630620535.70056009,123528902,0.54,0.53,-18.24,-18.25,90.43,90.44,0.0,0.0
1630620535.80051994,123628862,0.59,0.57,-18.25,-18.25,90.43,90.44,0.0,0.0
1630620535.90048003,123728822,0.58,0.6,-18.26,-18.26,90.43,90.43,0.0,0.0
1630620536.00044012,123828782,0.55,0.58,-18.25,-18.26,90.43,90.42,0.0,0.0
1630620536.10039997,123928742,0.51,0.53,-18.23,-18.24,90.43,90.42,0.0,0.0
1630620536.20036006,124028702,0.48,0.49,-18.23,-18.24,90.43,90.42,0.0,0.0
1630620536.30032015,124128662,0.48,0.46,-18.22,-18.24,90.43,90.42,0.0,0.0
1630620536.40028000,124228622,0.5,0.46,-18.23,-18.23,90.43,90.42,0.0,0.0
1630620536.50024009,124328582,0.51,0.47,-18.25,-18.24,90.42,90.42,0.0,0.0
1630620536.60019994,124428542,0.51,0.48,-18.25,-18.26,90.42,90.42,0.0,0.0
1630620536.70016003,124528502,0.53,0.51,-18.23,-18.25,90.42,90.43,0.0,0.0
1630620536.80012012,124628462,0.54,0.52,-18.21,-18.23,90.42,90.43,0.0,0.0
1630620536.90007997,124728422,0.56,0.54,-18.19,-18.21,90.42,90.43,0.0,0.0
1630620537.00004005,124828382,0.6,0.57,-18.19,-18.19,90.42,90.43,0.0,0.0
1630620537.10000014,124928342,0.61,0.61,-18.18,-18.18,90.42,90.43,0.0,0.0
1630620537.19995999,125028302,0.59,0.61,-18.18,-18.18,90.43,90.43,0.0,0.0
1630620537.29992008,125128262,0.58,0.6,-18.19,-18.18,90.43,90.43,0.0,0.0
1630620537.39987993,125228222,0.57,0.59,-18.2,-18.2,90.43,90.43,0.0,0.01
1630620537.49984002,125328182,0.55,0.56,-18.2,-18.21,90.43,90.43,0.0,0.01
1630620537.60063314,125428975,0.52,0.53,-18.19,-18.21,90.43,90.43,0.0,0.01
1630620537.70059299,125528935,0.51,0.5,-18.17,-18.21,90.42,90.43,0.0,0.01
1630620537.80055308,125628895,0.53,0.5,-18.16,-18.19,90.42,90.43,0.0,0.0
1630620537.90051293,125728855,0.56,0.54,-18.15,-18.17,90.42,90.43,0.0,0.0
1630620538.00047302,125828815,0.58,0.57,-18.13,-18.15,90.42,90.42,0.0,0.0
1630620538.10043311,125928775,0.59,0.6,-18.15,-18.14,90.42,90.42,0.0,0.0
