timestamp,TimeUS,DesRoll,Roll,DesPitch,Pitch,DesYaw,Yaw,ErrRP,ErrYaw
1630619428.59999990,45628408,0.0,0.08,0.0,0.07,352.87,352.88,0.0,0.0
1630619428.69995999,45728368,0.0,0.08,0.0,0.07,352.87,352.88,0.0,0.0
1630619428.79991984,45828328,0.0,0.08,0.0,0.07,352.87,352.88,0.0,0.0
1630619428.89987993,45928288,0.0,0.08,0.0,0.07,352.87,352.88,0.0,0.0
1630619428.99984002,46028248,0.0,0.08,0.0,0.07,352.87,352.88,0.0,0.0
1630619429.09979987,46128208,0.0,0.08,0.0,0.07,352.87,352.88,0.0,0.0
1630619429.19975996,46228168,0.0,0.08,0.0,0.07,352.87,352.88,0.0,0.0
1630619429.30055285,46328961,0.0,0.08,0.0,0.07,352.87,352.88,0.0,0.0
1630619429.40051293,46428921,0.0,0.08,0.0,0.07,352.87,352.88,0.0,0.0
1630619429.50047302,46528881,0.0,0.08,0.0,0.07,352.87,352.88,0.0,0.0
1630619429.60043287,46628841,0.0,0.08,0.0,0.07,352.87,352.88,0.0,0.0
1630619429.70039296,46728801,0.0,0.08,0.0,0.06,352.87,352.88,0.0,0.0
1630619429.80035305,46828761,0.0,0.08,0.0,0.06,352.87,352.88,0.0,0.0
1630619429.90031290,46928721,0.0,0.08,0.0,0.06,352.87,352.88,0.0,0.0
1630619430.00027299,47028681,0.0,0.08,0.0,0.06,352.87,352.88,0.0,0.0
1630619430.10023284,47128641,0.0,0.08,0.0,0.06,352.87,352.88,0.0,0.0
1630619430.20019293,47228601,0.0,0.08,0.0,0.06,352.87,352.88,0.0,0.0
1630619430.30015302,47328561,0.0,0.08,0.0,0.06,352.87,352.88,0.0,0.0
1630619430.40011287,47428521,0.0,0.08,0.0,0.06,352.87,352.88,0.0,0.0
1630619430.50007296,47528481,0.0,0.08,0.0,0.06,352.87,352.88,0.0,0.0
1630619430.60003304,47628441,0.0,0.08,0.0,0.06,352.87,352.88,0.0,0.0
1630619430.69999290,47728401,0.0,0.08,0.0,0.06,352.87,352.88,0.0,0.0
1630619430.79995298,47828361,0.0,0.08,0.0,0.06,352.87,352.88,0.0,0.0
1630619430.89991283,47928321,0.0,0.08,0.0,0.06,352.87,352.88,0.0,0.0
1630619430.99987292,48028281,0.0,0.08,0.0,0.06,352.87,352.88,0.0,0.0
1630619431.09983301,48128241,0.0,0.08,0.0,0.06,352.88,352.89,0.0,0.0
1630619431.19979286,48228201,0.0,0.08,0.0,0.06,352.88,352.89,0.0,0.0
1630619431.29975295,48328161,0.0,0.08,0.0,0.06,352.88,352.89,0.0,0.0
1630619431.40054584,48428954,-0.03,0.08,-0.03,0.06,352.88,352.89,0.0,0.0
1630619431.50050592,48528914,-0.06,0.08,-0.06,0.06,352.88,352.89,0.0,0.0
1630619431.60046601,48628874,-0.05,0.08,-0.06,0.06,352.88,352.89,0.0,0.0
1630619431.70042586,48728834,-0.11,0.08,-0.11,0.07,352.88,352.89,0.0,0.0
1630619431.80038595,48828794,-0.17,0.08,-0.17,0.07,352.88,352.89,0.0,0.0
1630619431.90034604,48928754,-0.21,0.08,-0.22,0.07,352.88,352.89,0.0,0.0
1630619432.00030589,49028714,-0.24,0.08,-0.25,0.07,352.88,352.89,0.0,0.0
1630619432.10026598,49128674,-0.27,0.08,-0.27,0.07,352.88,352.89,0.0,0.0
1630619432.20022607,49228634,-0.29,0.08,-0.28,0.07,352.88,352.89,0.0,0.0
1630619432.30018592,49328594,-0.32,0.08,-0.3,0.07,352.88,352.89,0.0,0.0
1630619432.40014601,49428554,-0.36,0.08,-0.33,0.07,352.88,352.89,0.0,0.0
1630619432.50010586,49528514,-0.38,0.08,-0.36,0.07,352.88,352.89,0.0,0.0
1630619432.60006595,49628474,-0.39,0.08,-0.38,0.07,352.88,352.89,0.0,0.0
1630619432.70002604,49728434,-0.42,0.08,-0.38,0.07,352.88,352.89,0.0,0.0
1630619432.79998589,49828394,-0.45,0.08,-0.37,0.07,352.88,352.89,0.0,0.0
1630619432.89994597,49928354,-0.44,0.08,-0.41,0.07,352.88,352.89,0.0,0.0
1630619432.99990606,50028314,-0.43,0.03,-0.46,0.01,352.88,352.89,0.0,0.0
1630619433.09986591,50128274,-0.43,-0.22,-0.5,-0.26,352.88,352.89,0.0,0.0
1630619433.19982600,50228234,-0.42,-0.52,-0.47,-0.56,352.88,352.89,0.0,0.0
1630619433.29978585,50328194,-0.33,-0.69,-0.38,-0.71,352.88,352.89,0.0,0.0
1630619433.39974594,50428154,-0.19,-0.7,-0.25,-0.72,352.88,352.89,0.0,0.0
1630619433.50053906,50528947,0.01,-0.54,-0.09,-0.6,352.88,352.89,0.0,0.0
1630619433.60049891,50628907,0.21,-0.31,0.09,-0.4,352.88,352.88,0.0,0.0
1630619433.70045900,50728867,0.36,-0.06,0.26,-0.16,352.88,352.88,0.0,0.0
1630619433.80041885,50828827,0.44,0.11,0.4,0.05,352.88,352.88,0.0,0.0
1630619433.90037894,50928787,0.5,0.24,0.48,0.22,352.88,352.88,0.0,0.0
1630619434.00033903,51028747,0.5,0.3,0.46,0.29,352.88,352.88,0.0,0.0
1630619434.10029888,51128707,0.47,0.3,0.39,0.26,352.88,352.87,0.0,0.0
1630619434.20025897,51228667,0.46,0.28,0.33,0.18,352.88,352.87,0.0,0.0
1630619434.30021906,51328627,0.48,0.28,0.31,0.13,352.88,352.87,0.0,0.0
1630619434.40017891,51428587,0.47,0.29,0.33,0.11,352.88,352.87,0.0,0.0
1630619434.50013900,51528547,0.43,0.28,0.38,0.15,352.88,352.87,0.0,0.0
1630619434.60009885,51628507,0.4,0.26,0.4,0.21,352.88,352.87,0.0,0.0
1630619434.70005894,51728467,0.37,0.23,0.39,0.25,352.77,352.77,0.0,0.0
1630619434.80001903,51828427,0.34,0.21,0.38,0.27,352.77,352.78,0.0,0.0
1630619434.89997888,51928387,0.32,0.19,0.37,0.27,352.77,352.78,0.0,0.0
1630619434.99993896,52028347,0.29,0.18,0.36,0.27,352.77,352.78,0.0,0.0
1630619435.09989905,52128307,0.27,0.16,0.33,0.26,352.77,352.78,0.0,0.0
1630619435.19985890,52228267,0.23,0.13,0.28,0.22,352.77,352.79,0.0,0.0
1630619435.29981899,52328227,0.23,0.12,0.25,0.18,352.77,352.79,0.0,0.0
1630619435.39977884,52428187,0.23,0.13,0.23,0.16,352.77,352.78,0.0,0.0
1630619435.50057197,52528980,0.23,0.15,0.21,0.15,352.77,352.78,0.0,0.0
1630619435.60053205,52628940,0.2,0.16,0.18,0.13,352.77,352.78,0.0,0.0
1630619435.70049191,52728900,0.16,0.13,0.17,0.11,352.77,352.78,0.0,0.0
1630619435.80045199,52828860,0.15,0.11,0.17,0.11,352.77,352.78,0.0,0.0
1630619435.90041184,52928820,0.13,0.09,0.2,0.14,352.77,352.78,0.0,0.0
1630619436.00037193,53028780,0.1,0.07,0.22,0.17,352.77,352.78,0.0,0.0
1630619436.10033202,53128740,0.09,0.05,0.18,0.16,352.77,352.78,0.0,0.0
1630619436.20029187,53228700,0.07,0.04,0.14,0.14,352.77,352.78,0.0,0.0
1630619436.30025196,53328660,0.05,0.02,0.1,0.09,352.77,352.78,0.0,0.0
1630619436.40021205,53428620,0.04,0.0,0.07,0.05,352.77,352.78,0.0,0.0
1630619436.50017190,53528580,0.05,0.0,0.08,0.02,352.77,352.78,0.0,0.0
1630619436.60013199,53628540,0.05,0.01,0.11,0.04,352.77,352.78,0.0,0.0
1630619436.70009184,53728500,0.09,0.04,0.13,0.08,352.77,352.78,0.0,0.0
1630619436.80005193,53828460,0.12,0.08,0.16,0.12,352.77,352.79,0.0,0.0
1630619436.90001202,53928420,0.13,0.11,0.14,0.14,352.77,352.79,0.0,0.0
1630619436.99997187,54028380,0.13,0.14,0.11,0.14,352.77,352.79,0.0,0.0
1630619437.09993196,54128340,0.08,0.12,0.06,0.09,352.77,352.79,0.0,0.0
1630619437.19989204,54228300,0.02,0.07,0.02,0.03,352.77,352.79,0.0,0.0
1630619437.29985189,54328260,0.0,0.0,0.0,-0.01,352.77,352.78,0.0,0.0
1630619437.39981198,54428220,0.0,-0.03,0.02,-0.02,352.77,352.78,0.0,0.0
1630619437.49977183,54528180,0.03,-0.02,0.07,0.0,352.77,352.78,0.0,0.0
1630619437.60056496,54628973,0.05,0.0,0.09,0.05,352.77,352.78,0.0,0.0
1630619437.70052505,54728933,0.07,0.03,0.06,0.06,352.77,352.78,0.0,0.0
1630619437.80048490,54828893,0.12,0.08,0.04,0.04,352.77,352.78,0.0,0.0
1630619437.90044498,54928853,0.13,0.11,0.02,0.02,352.77,352.78,0.0,0.0
1630619438.00040483,55028813,0.12,0.13,0.0,0.0,352.77,352.78,0.0,0.0
1630619438.10036492,55128773,0.07,0.11,0.0,0.0,352.77,352.78,0.0,0.0
1630619438.20032501,55228733,0.04,0.07,-0.01,0.0,352.77,352.79,0.0,0.0
1630619438.30028486,55328693,0.03,0.04,0.01,-0.01,352.77,352.78,0.0,0.0
1630619438.40024495,55428653,0.05,0.02,0.08,0.03,352.77,352.78,0.0,0.0
1630619438.50020504,55528613,0.09,0.06,0.09,0.08,352.77,352.78,0.0,0.0
1630619438.60016489,55628573,0.11,0.09,0.09,0.1,352.77,352.78,0.0,0.0
1630619438.70012498,55728533,0.1,0.11,0.07,0.1,352.77,352.77,0.0,0.0
1630619438.80008507,55828493,0.09,0.1,0.05,0.08,352.77,352.77,0.0,0.0
1630619438.90004492,55928453,0.1,0.09,0.05,0.05,352.77,352.77,0.0,0.0
1630619439.00000501,56028413,0.11,0.09,0.05,0.04,352.77,352.77,0.0,0.0
1630619439.09996486,56128373,0.12,0.1,0.06,0.03,352.77,352.78,0.0,0.0
1630619439.19992495,56228333,0.13,0.11,0.05,0.03,352.77,352.78,0.0,0.0
1630619439.29988503,56328293,0.13,0.12,0.06,0.04,352.77,352.78,0.0,0.0
1630619439.39984488,56428253,0.11,0.1,0.09,0.07,352.77,352.78,0.0,0.0
1630619439.49980497,56528213,0.12,0.1,0.11,0.1,352.77,352.78,0.0,0.0
1630619439.59976506,56628173,0.14,0.12,0.12,0.11,352.77,352.78,0.0,0.0
1630619439.70055795,56728966,0.16,0.14,0.11,0.12,352.77,352.78,0.0,0.0
1630619439.80051804,56828926,0.16,0.16,0.1,0.12,352.77,352.78,0.0,0.0
1630619439.90047789,56928886,0.14,0.15,0.11,0.12,352.77,352.79,0.0,0.0
1630619440.00043797,57028846,0.12,0.13,0.12,0.12,352.77,352.78,0.0,0.0
1630619440.10039806,57128806,0.1,0.12,0.14,0.12,352.77,352.78,0.0,0.0
1630619440.20035791,57228766,0.1,0.09,0.14,0.13,352.77,352.78,0.0,0.0
1630619440.30031800,57328726,0.1,0.09,0.17,0.15,352.77,352.78,0.0,0.0
1630619440.40027785,57428686,0.1,0.08,0.2,0.18,352.77,352.78,0.0,0.0
1630619440.50023794,57528646,0.07,0.07,0.21,0.21,352.77,352.78,0.0,0.0
1630619440.60019803,57628606,0.07,0.05,0.2,0.21,352.77,352.78,0.0,0.0
1630619440.70015788,57728566,0.1,0.07,0.2,0.2,352.77,352.78,0.0,0.0
1630619440.80011797,57828526,0.11,0.1,0.21,0.21,352.77,352.78,0.0,0.0
1630619440.90007806,57928486,0.11,0.11,0.19,0.19,352.77,352.78,0.0,0.0
1630619441.00003791,58028446,0.1,0.1,0.16,0.17,352.77,352.79,0.0,0.0
1630619441.09999800,58128406,0.06,0.08,0.13,0.13,352.77,352.79,0.0,0.0
1630619441.19995785,58228366,0.04,0.06,0.11,0.09,352.77,352.79,0.0,0.0
1630619441.29991794,58328326,0.02,0.02,0.1,0.08,352.77,352.79,0.0,0.0
1630619441.39987803,58428286,0.02,0.01,0.11,0.08,352.77,352.79,0.0,0.0
1630619441.49983788,58528246,0.03,0.01,0.11,0.1,352.77,352.78,0.0,0.0
1630619441.59979796,58628206,0.03,0.01,0.1,0.1,352.77,352.78,0.0,0.0
1630619441.69975805,58728166,0.04,0.03,0.11,0.1,352.77,352.78,0.0,0.0
1630619441.80055094,58828959,0.04,0.04,0.09,0.09,352.77,352.78,0.0,0.0
1630619441.90051103,58928919,0.06,0.05,0.05,0.07,352.77,352.78,0.0,0.0
1630619442.00047088,59028879,0.09,0.07,0.0,0.02,352.77,352.78,0.0,0.0
1630619442.10043097,59128839,0.11,0.11,-0.02,-0.01,352.77,352.78,0.0,0.0
1630619442.20039105,59228799,0.12,0.12,-0.03,-0.05,352.77,352.78,0.0,0.0
1630619442.30035090,59328759,0.14,0.14,0.0,-0.05,352.77,352.78,0.0,0.0
1630619442.40031099,59428719,0.14,0.15,0.03,-0.02,352.77,352.78,0.0,0.0
1630619442.50027084,59528679,0.13,0.14,0.03,0.01,352.77,352.78,0.0,0.0
1630619442.60023093,59628639,0.12,0.13,0.04,0.02,352.77,352.78,0.0,0.0
1630619442.70019102,59728599,0.09,0.11,0.02,0.03,352.77,352.78,0.0,0.0
1630619442.80015087,59828559,0.07,0.07,0.0,0.02,352.77,352.78,0.0,0.0
1630619442.90011096,59928519,0.07,0.05,0.0,0.0,352.77,352.78,0.0,0.0
1630619443.00007105,60028479,0.1,0.06,-0.02,-0.01,352.77,352.78,0.0,0.0
1630619443.10003090,60128439,0.1,0.08,-0.04,-0.03,352.77,352.78,0.0,0.0
1630619443.19999099,60228399,0.1,0.09,0.0,-0.03,352.77,352.78,0.0,0.0
1630619443.29995084,60328359,0.09,0.09,0.03,0.0,352.77,352.78,0.0,0.0
1630619443.39991093,60428319,0.09,0.08,0.07,0.05,352.77,352.78,0.0,0.0
1630619443.49987102,60528279,0.08,0.08,0.08,0.09,352.77,352.78,0.0,0.0
1630619443.59983087,60628239,0.08,0.07,0.06,0.09,352.77,352.78,0.0,0.0
1630619443.69979095,60728199,0.09,0.07,0.03,0.07,352.77,352.78,0.0,0.0
1630619443.79975104,60828159,0.13,0.09,0.04,0.04,352.77,352.78,0.0,0.0
1630619443.90054393,60928952,0.13,0.12,0.02,0.02,352.77,352.78,0.0,0.0
1630619444.00050402,61028912,0.11,0.12,0.01,0.01,352.77,352.78,0.0,0.0
1630619444.10046387,61128872,0.08,0.1,0.02,0.01,352.77,352.78,0.0,0.0
1630619444.20042396,61228832,0.09,0.09,0.05,0.03,352.77,352.78,0.0,0.0
1630619444.30038404,61328792,0.12,0.1,0.06,0.05,352.77,352.78,0.0,0.0
1630619444.40034389,61428752,0.13,0.12,0.07,0.06,352.77,352.78,0.0,0.0
1630619444.50030398,61528712,0.12,0.12,0.07,0.07,352.77,352.78,0.0,0.0
1630619444.60026383,61628672,0.12,0.11,0.06,0.07,352.77,352.78,0.0,0.0
1630619444.70022392,61728632,0.13,0.13,0.07,0.08,352.77,352.78,0.0,0.0
1630619444.80018401,61828592,0.13,0.14,0.1,0.09,352.77,352.78,0.0,0.0
1630619444.90014386,61928552,0.15,0.15,0.09,0.09,352.77,352.78,0.0,0.0
1630619445.00010395,62028512,0.14,0.15,0.04,0.06,352.77,352.78,0.0,0.0
1630619445.10006404,62128472,0.1,0.11,0.03,0.03,352.77,352.78,0.0,0.0
1630619445.20002389,62228432,0.09,0.07,0.06,0.02,352.77,352.78,0.0,0.0
1630619445.29998398,62328392,0.13,0.08,0.1,0.05,352.77,352.78,0.0,0.0
1630619445.39994407,62428352,0.15,0.12,0.13,0.09,352.77,352.78,0.0,0.0
1630619445.49990392,62528312,0.16,0.15,0.15,0.13,352.77,352.78,0.0,0.0
1630619445.59986401,62628272,0.13,0.15,0.13,0.15,352.77,352.78,0.0,0.0
1630619445.69982386,62728232,0.08,0.12,0.1,0.13,352.77,352.79,0.0,0.0
1630619445.79978395,62828192,0.07,0.08,0.08,0.09,352.77,352.79,0.0,0.0
1630619445.90057707,62928985,0.06,0.05,0.08,0.07,352.77,352.78,0.0,0.0
1630619446.00053692,63028945,0.06,0.05,0.09,0.06,352.77,352.78,0.0,0.0
1630619446.10049701,63128905,0.05,0.04,0.11,0.09,352.77,352.78,0.0,0.0
1630619446.20045686,63228865,0.04,0.03,0.13,0.11,352.77,352.78,0.0,0.0
1630619446.30041695,63328825,0.03,0.03,0.17,0.15,352.77,352.79,0.0,0.0
1630619446.40037704,63428785,0.03,0.03,0.22,0.19,352.77,352.79,0.0,0.0
1630619446.50033689,63528745,0.06,0.05,0.22,0.22,352.77,352.78,0.0,0.0
1630619446.60029697,63628705,0.07,0.05,0.2,0.22,352.77,352.78,0.0,0.0
1630619446.70025706,63728665,0.09,0.06,0.2,0.2,352.77,352.78,0.0,0.0
1630619446.80021691,63828625,0.11,0.08,0.19,0.19,352.77,352.78,0.0,0.0
1630619446.90017700,63928585,0.12,0.11,0.17,0.17,352.77,352.78,0.0,0.0
1630619447.00013685,64028545,0.11,0.11,0.15,0.15,352.77,352.78,0.0,0.0
1630619447.10009694,64128505,0.11,0.11,0.16,0.13,352.77,352.78,0.0,0.0
1630619447.20005703,64228465,0.09,0.1,0.15,0.13,352.77,352.78,0.0,0.0
1630619447.30001688,64328425,0.08,0.09,0.12,0.12,352.77,352.77,0.0,0.0
1630619447.39997697,64428385,0.08,0.08,0.1,0.1,352.77,352.77,0.0,0.0
1630619447.49993706,64528345,0.07,0.07,0.09,0.08,352.77,352.78,0.0,0.0
1630619447.59989691,64628305,0.1,0.08,0.09,0.08,352.77,352.78,0.0,0.0
1630619447.69985700,64728265,0.12,0.11,0.09,0.08,352.77,352.78,0.0,0.0
1630619447.79981685,64828225,0.11,0.12,0.08,0.07,352.77,352.78,0.0,0.0
1630619447.89977694,64928185,0.14,0.13,0.07,0.07,352.77,352.79,0.0,0.0
1630619448.00057006,65028978,0.14,0.14,0.08,0.06,352.77,352.79,0.0,0.0
1630619448.10052991,65128938,0.15,0.14,0.08,0.07,352.77,352.79,0.0,0.0
1630619448.20049000,65228898,0.18,0.15,0.09,0.08,352.77,352.79,0.0,0.0
1630619448.30044985,65328858,0.16,0.17,0.1,0.09,352.77,352.79,0.0,0.0
1630619448.40040994,65428818,0.11,0.14,0.13,0.11,352.77,352.78,0.0,0.0
1630619448.50037003,65528778,0.08,0.09,0.16,0.15,352.77,352.78,0.0,0.0
1630619448.60032988,65628738,0.06,0.05,0.16,0.17,352.77,352.78,0.0,0.0
1630619448.70028996,65728698,0.07,0.04,0.11,0.15,352.77,352.78,0.0,0.0
1630619448.80025005,65828658,0.07,0.04,0.09,0.12,352.77,352.78,0.0,0.0
1630619448.90020990,65928618,0.08,0.06,0.07,0.09,352.77,352.77,0.0,0.0
1630619449.00016999,66028578,0.09,0.07,0.04,0.06,352.77,352.77,0.0,0.0
1630619449.10012984,66128538,0.08,0.08,0.02,0.02,352.77,352.77,0.0,0.0
1630619449.20008993,66228498,0.06,0.06,0.02,0.0,352.77,352.78,0.0,0.0
1630619449.30005002,66328458,0.05,0.04,0.04,0.0,352.77,352.78,0.0,0.0
1630619449.40000987,66428418,0.07,0.03,0.07,0.03,352.77,352.78,0.0,0.0
1630619449.49996996,66528378,0.07,0.04,0.1,0.05,352.77,352.78,0.0,0.0
1630619449.59993005,66628338,0.08,0.05,0.11,0.09,352.77,352.78,0.0,0.0
1630619449.69988990,66728298,0.08,0.06,0.11,0.11,352.77,352.78,0.0,0.0
1630619449.79984999,66828258,0.09,0.07,0.11,0.11,352.77,352.78,0.0,0.0
1630619449.89980984,66928218,0.09,0.09,0.08,0.1,352.77,352.78,0.0,0.0
1630619449.99976993,67028178,0.08,0.09,0.05,0.07,352.77,352.78,0.0,0.0
1630619450.10056305,67128971,0.05,0.07,0.04,0.05,352.77,352.78,0.0,0.0
1630619450.20052290,67228931,0.06,0.06,0.08,0.06,352.77,352.78,0.0,0.0
1630619450.30048299,67328891,0.11,0.08,0.11,0.09,352.77,352.78,0.0,0.0
1630619450.40044284,67428851,0.16,0.12,0.13,0.12,352.77,352.78,0.0,0.0
1630619450.50040293,67528811,0.19,0.17,0.12,0.13,352.77,352.78,0.0,0.0
1630619450.60036302,67628771,0.18,0.19,0.12,0.13,352.77,352.78,0.0,0.0
1630619450.70032287,67728731,0.18,0.19,0.12,0.12,352.77,352.79,0.0,0.0
1630619450.80028296,67828691,0.19,0.19,0.11,0.11,352.77,352.79,0.0,0.0
1630619450.90024304,67928651,0.17,0.18,0.09,0.09,352.77,352.79,0.0,0.0
1630619451.00020289,68028611,0.14,0.17,0.12,0.08,352.77,352.79,0.0,0.0
1630619451.10016298,68128571,0.1,0.14,0.13,0.1,352.77,352.79,0.0,0.0
1630619451.20012283,68228531,0.1,0.1,0.14,0.12,352.77,352.79,0.0,0.0
1630619451.30008292,68328491,0.13,0.1,0.16,0.14,352.77,352.79,0.0,0.0
1630619451.40004301,68428451,0.16,0.12,0.16,0.15,352.77,352.79,0.0,0.0
1630619451.50000286,68528411,0.19,0.15,0.15,0.16,352.77,352.79,0.0,0.0
1630619451.59996295,68628371,0.19,0.18,0.14,0.15,352.77,352.79,0.0,0.0
1630619451.69992304,68728331,0.18,0.18,0.11,0.12,352.77,352.78,0.0,0.0
1630619451.79988289,68828291,0.14,0.16,0.07,0.08,352.77,352.78,0.0,0.0
1630619451.89984298,68928251,0.14,0.14,0.08,0.06,352.77,352.78,0.0,0.0
1630619451.99980307,69028211,0.14,0.13,0.1,0.08,352.77,352.78,0.0,0.0
1630619452.09976292,69128171,0.14,0.14,0.12,0.1,352.77,352.78,0.0,0.0
1630619452.20055604,69228964,0.15,0.14,0.13,0.12,352.77,352.78,0.0,0.0
1630619452.30051589,69328924,0.15,0.15,0.16,0.14,352.77,352.78,0.0,0.0
1630619452.40047598,69428884,0.1,0.12,0.16,0.16,352.77,352.78,0.0,0.0
1630619452.50043607,69528844,0.08,0.09,0.14,0.17,352.77,352.78,0.0,0.0
1630619452.60039592,69628804,0.11,0.09,0.14,0.15,352.77,352.78,0.0,0.0
1630619452.70035601,69728764,0.13,0.11,0.12,0.13,352.77,352.78,0.0,0.0
1630619452.80031586,69828724,0.14,0.13,0.11,0.12,352.77,352.78,0.0,0.0
1630619452.90027595,69928684,0.12,0.13,0.13,0.12,352.77,352.78,0.0,0.0
1630619453.00023603,70028644,0.09,0.11,0.14,0.13,352.77,352.78,0.0,0.0
1630619453.10019588,70128604,0.08,0.08,0.1,0.11,352.77,352.78,0.0,0.0
1630619453.20015597,70228564,0.1,0.08,0.08,0.08,352.77,352.78,0.0,0.0
1630619453.30011606,70328524,0.14,0.12,0.07,0.06,352.77,352.78,0.0,0.0
1630619453.40007591,70428484,0.15,0.14,0.06,0.04,352.77,352.78,0.0,0.0
1630619453.50003600,70528444,0.13,0.14,0.06,0.04,352.77,352.78,0.0,0.0
1630619453.59999585,70628404,0.11,0.13,0.09,0.05,352.77,352.78,0.0,0.0
1630619453.69995594,70728364,0.09,0.1,0.07,0.06,352.77,352.78,0.0,0.0
1630619453.79991603,70828324,0.08,0.07,0.05,0.05,352.77,352.78,0.0,0.0
1630619453.89987588,70928284,0.08,0.07,0.05,0.05,352.77,352.78,0.0,0.0
1630619453.99983597,71028244,0.08,0.06,0.06,0.05,352.77,352.78,0.0,0.0
1630619454.09979606,71128204,0.07,0.06,0.07,0.06,352.77,352.78,0.0,0.0
1630619454.19975591,71228164,0.04,0.04,0.06,0.07,352.77,352.78,0.0,0.0
1630619454.30054903,71328957,0.05,0.03,0.04,0.07,352.77,352.78,0.0,0.0
1630619454.40050888,71428917,0.07,0.03,0.03,0.04,352.77,352.78,0.0,0.0
1630619454.50046897,71528877,0.1,0.06,0.01,0.02,352.77,352.78,0.0,0.0
1630619454.60042906,71628837,0.11,0.09,0.03,0.01,352.77,352.78,0.0,0.0
1630619454.70038891,71728797,0.14,0.12,0.04,0.02,352.77,352.78,0.0,0.0
1630619454.80034900,71828757,0.16,0.15,0.07,0.04,352.77,352.78,0.0,0.0
1630619454.90030885,71928717,0.13,0.16,0.09,0.08,352.77,352.78,0.0,0.0
1630619455.00026894,72028677,0.08,0.11,0.05,0.07,352.77,352.78,0.0,0.0
1630619455.10022902,72128637,0.05,0.07,0.02,0.03,352.77,352.78,0.0,0.0
1630619455.20018888,72228597,0.04,0.04,0.03,0.01,352.77,352.78,0.0,0.0
1630619455.30014896,72328557,0.04,0.02,0.06,0.03,352.77,352.78,0.0,0.0
1630619455.40010905,72428517,0.06,0.03,0.07,0.05,352.77,352.77,0.0,0.0
1630619455.50006890,72528477,0.08,0.07,0.09,0.08,352.77,352.78,0.0,0.0
1630619455.60002899,72628437,0.07,0.08,0.09,0.1,352.77,352.78,0.0,0.0
1630619455.69998884,72728397,0.02,0.06,0.13,0.12,352.77,352.78,0.0,0.0
1630619455.79994893,72828357,-0.03,0.0,0.15,0.14,352.77,352.78,0.0,0.0
1630619455.89990902,72928317,-0.04,-0.06,0.13,0.15,352.77,352.78,0.0,0.0
1630619455.99986887,73028277,0.0,-0.06,0.11,0.12,352.77,352.78,0.0,0.0
1630619456.09982896,73128237,0.05,-0.01,0.11,0.1,352.77,352.79,0.0,0.0
1630619456.19978905,73228197,0.08,0.02,0.09,0.08,352.77,352.79,0.0,0.0
1630619456.29974890,73328157,0.09,0.07,0.08,0.06,352.77,352.79,0.0,0.0
1630619456.40054202,73428950,0.12,0.1,0.11,0.07,352.77,352.79,0.0,0.0
1630619456.50050187,73528910,0.14,0.13,0.13,0.1,352.77,352.79,0.0,0.0
1630619456.60046196,73628870,0.13,0.14,0.12,0.12,352.77,352.79,0.0,0.0
1630619456.70042205,73728830,0.17,0.17,0.1,0.11,352.77,352.78,0.0,0.0
1630619456.80038190,73828790,0.19,0.2,0.07,0.09,352.77,352.78,0.0,0.0
1630619456.90034199,73928750,0.19,0.21,0.08,0.08,352.77,352.78,0.0,0.0
1630619457.00030184,74028710,0.16,0.18,0.09,0.08,352.77,352.78,0.0,0.0
1630619457.10026193,74128670,0.16,0.16,0.11,0.09,352.77,352.77,0.0,0.0
1630619457.20022202,74228630,0.18,0.16,0.16,0.12,352.77,352.77,0.0,0.0
1630619457.30018187,74328590,0.19,0.17,0.15,0.14,352.77,352.77,0.0,0.0
1630619457.40014195,74428550,0.18,0.18,0.14,0.14,352.77,352.77,0.0,0.0
1630619457.50010204,74528510,0.19,0.18,0.11,0.12,352.77,352.77,0.0,0.0
1630619457.60006189,74628470,0.19,0.18,0.06,0.09,352.77,352.77,0.0,0.0
1630619457.70002198,74728430,0.21,0.2,0.04,0.05,352.77,352.77,0.0,0.0
1630619457.79998183,74828390,0.22,0.21,0.03,0.03,352.77,352.77,0.0,0.0
1630619457.89994192,74928350,0.18,0.2,0.02,0.01,352.77,352.77,0.0,0.0
1630619457.99990201,75028310,0.14,0.16,0.05,0.02,352.77,352.77,0.0,0.0
1630619458.09986186,75128270,0.13,0.14,0.06,0.04,352.77,352.77,0.0,0.0
1630619458.19982195,75228230,0.17,0.14,0.05,0.04,352.77,352.77,0.0,0.0
1630619458.29978204,75328190,0.18,0.16,0.06,0.04,352.77,352.77,0.0,0.0
1630619458.40057492,75428983,0.22,0.19,0.07,0.05,352.77,352.77,0.0,0.0
1630619458.50053501,75528943,0.25,0.23,0.06,0.07,352.77,352.77,0.0,0.0
1630619458.60049486,75628903,0.24,0.25,0.02,0.04,352.77,352.77,0.0,0.0
1630619458.70045495,75728863,0.19,0.22,0.02,0.02,352.77,352.77,0.0,0.0
1630619458.80041504,75828823,0.16,0.19,0.04,0.01,352.77,352.77,0.0,0.0
1630619458.90037489,75928783,0.17,0.16,0.05,0.02,352.77,352.77,0.0,0.0
1630619459.00033498,76028743,0.18,0.17,0.06,0.03,352.77,352.77,0.0,0.0
1630619459.10029507,76128703,0.17,0.17,0.08,0.05,352.77,352.77,0.0,0.0
1630619459.20025492,76228663,0.16,0.16,0.1,0.08,352.77,352.77,0.0,0.0
1630619459.30021501,76328623,0.17,0.16,0.08,0.09,352.77,352.77,0.0,0.0
1630619459.40017486,76428583,0.2,0.17,0.07,0.07,352.77,352.77,0.0,0.0
1630619459.50013494,76528543,0.2,0.19,0.11,0.09,352.77,352.77,0.0,0.0
1630619459.60009503,76628503,0.2,0.2,0.12,0.11,352.77,352.78,0.0,0.0
1630619459.70005488,76728463,0.18,0.19,0.12,0.12,352.77,352.78,0.0,0.0
1630619459.80001497,76828423,0.15,0.16,0.12,0.13,352.77,352.78,0.0,0.0
1630619459.89997506,76928383,0.12,0.12,0.15,0.13,352.77,352.78,0.0,0.0
1630619459.99993491,77028343,0.1,0.09,0.13,0.14,352.77,352.78,0.0,0.0
1630619460.09989500,77128303,0.13,0.09,0.13,0.13,352.77,352.78,0.0,0.0
1630619460.19985485,77228263,0.17,0.13,0.14,0.14,352.77,352.78,0.0,0.0
1630619460.29981494,77328223,0.2,0.18,0.14,0.14,352.77,352.78,0.0,0.0
1630619460.39977503,77428183,0.18,0.19,0.11,0.12,352.77,352.78,0.0,0.0
1630619460.50056791,77528976,0.13,0.17,0.12,0.1,352.77,352.78,0.0,0.0
1630619460.60052800,77628936,0.08,0.11,0.11,0.09,352.77,352.78,0.0,0.0
1630619460.70048785,77728896,0.07,0.06,0.09,0.08,352.77,352.78,0.0,0.0
1630619460.80044794,77828856,0.09,0.06,0.09,0.06,352.77,352.78,0.0,0.0
1630619460.90040803,77928816,0.11,0.08,0.13,0.09,352.77,352.78,0.0,0.0
1630619461.00036788,78028776,0.13,0.1,0.16,0.13,352.77,352.78,0.0,0.0
1630619461.10032797,78128736,0.13,0.12,0.12,0.15,352.77,352.78,0.0,0.0
1630619461.20028806,78228696,0.12,0.12,0.05,0.1,352.77,352.78,0.0,0.0
1630619461.30024791,78328656,0.09,0.11,0.0,0.04,352.77,352.78,0.0,0.0
1630619461.40020800,78428616,0.09,0.1,0.01,0.0,352.77,352.78,0.0,0.0
1630619461.50016785,78528576,0.09,0.09,0.07,0.02,352.77,352.78,0.0,0.0
1630619461.60012794,78628536,0.09,0.08,0.12,0.08,352.77,352.78,0.0,0.0
1630619461.70008802,78728496,0.08,0.07,0.15,0.13,352.77,352.78,0.0,0.0
1630619461.80004787,78828456,0.06,0.06,0.15,0.16,352.77,352.78,0.0,0.0
1630619461.90000796,78928416,0.07,0.06,0.14,0.16,352.77,352.78,0.0,0.0
1630619461.99996805,79028376,0.07,0.06,0.13,0.13,352.77,352.77,0.0,0.0
1630619462.09992790,79128336,0.09,0.07,0.11,0.11,352.77,352.77,0.0,0.0
1630619462.19988799,79228296,0.11,0.09,0.09,0.09,352.77,352.77,0.0,0.0
1630619462.29984784,79328256,0.08,0.08,0.09,0.07,352.77,352.77,0.0,0.0
1630619462.39980793,79428216,0.06,0.06,0.13,0.09,352.77,352.77,0.0,0.0
1630619462.49976802,79528176,0.05,0.04,0.17,0.13,352.77,352.77,0.0,0.0
1630619462.60056090,79628969,0.08,0.05,0.18,0.17,352.77,352.77,0.0,0.0
1630619462.70052099,79728929,0.11,0.08,0.18,0.18,352.77,352.77,0.0,0.0
1630619462.80048084,79828889,0.11,0.11,0.16,0.19,352.77,352.78,0.0,0.0
1630619462.90044093,79928849,0.07,0.1,0.13,0.17,352.77,352.77,0.0,0.0
1630619463.00040102,80028809,0.03,0.06,0.1,0.12,352.77,352.77,0.0,0.0
1630619463.10036087,80128769,0.03,0.02,0.08,0.09,352.77,352.77,0.0,0.0
1630619463.20032096,80228729,0.06,0.02,0.1,0.07,352.77,352.77,0.0,0.0
1630619463.30028105,80328689,0.1,0.05,0.13,0.08,352.77,352.77,0.0,0.0
1630619463.40024090,80428649,0.13,0.09,0.14,0.11,352.77,352.77,0.0,0.0
1630619463.50020099,80528609,0.16,0.14,0.12,0.11,352.77,352.77,0.0,0.0
1630619463.60016084,80628569,0.17,0.17,0.12,0.11,352.77,352.77,0.0,0.0
1630619463.70012093,80728529,0.19,0.19,0.14,0.12,352.77,352.77,0.0,0.0
1630619463.80008101,80828489,0.18,0.19,0.15,0.13,352.77,352.77,0.0,0.0
1630619463.90004086,80928449,0.16,0.17,0.15,0.15,352.77,352.77,0.0,0.0
1630619464.00000095,81028409,0.15,0.15,0.15,0.15,352.77,352.78,0.0,0.0
1630619464.09996104,81128369,0.15,0.15,0.13,0.14,352.77,352.78,0.0,0.0
1630619464.19992089,81228329,0.15,0.14,0.11,0.12,352.77,352.78,0.0,0.0
1630619464.29988098,81328289,0.14,0.13,0.08,0.09,352.77,352.78,0.0,0.0
1630619464.39984083,81428249,0.14,0.11,0.07,0.06,352.77,352.78,0.0,0.0
1630619464.49980092,81528209,0.16,0.11,0.09,0.06,352.77,352.78,0.0,0.0
1630619464.59976101,81628169,0.18,0.14,0.1,0.07,352.77,352.78,0.0,0.0
1630619464.70055389,81728962,0.19,0.17,0.13,0.11,352.77,352.78,0.0,0.0
1630619464.80051398,81828922,0.19,0.18,0.17,0.16,352.77,352.78,0.0,0.0
1630619464.90047383,81928882,0.17,0.17,0.2,0.2,352.77,352.78,0.0,0.0
1630619465.00043392,82028842,0.18,0.16,0.2,0.23,352.77,352.78,0.0,0.0
1630619465.10039401,82128802,0.14,0.15,0.17,0.22,352.77,352.78,0.0,0.0
1630619465.20035386,82228762,0.08,0.11,0.12,0.17,352.77,352.77,0.0,0.0
1630619465.30031395,82328722,0.08,0.07,0.08,0.1,352.77,352.77,0.0,0.0
1630619465.40027404,82428682,0.08,0.06,0.09,0.06,352.77,352.77,0.0,0.0
1630619465.50023389,82528642,0.09,0.06,0.13,0.08,352.77,352.77,0.0,0.0
1630619465.60019398,82628602,0.12,0.08,0.15,0.11,352.77,352.77,0.0,0.0
1630619465.70015407,82728562,0.15,0.12,0.17,0.15,352.77,352.77,0.0,0.0
1630619465.80011392,82828522,0.16,0.15,0.15,0.16,352.77,352.77,0.0,0.0
1630619465.90007401,82928482,0.17,0.17,0.13,0.15,352.77,352.77,0.0,0.0
1630619466.00003386,83028442,0.15,0.18,0.12,0.13,352.77,352.77,0.0,0.0
1630619466.09999394,83128402,0.1,0.15,0.1,0.12,352.77,352.77,0.0,0.0
1630619466.19995403,83228362,0.07,0.1,0.11,0.1,352.77,352.77,0.0,0.0
1630619466.29991388,83328322,0.07,0.06,0.12,0.1,352.77,352.77,0.0,0.0
1630619466.39987397,83428282,0.07,0.06,0.13,0.1,352.77,352.77,0.0,0.0
1630619466.49983406,83528242,0.07,0.06,0.16,0.12,352.77,352.78,0.0,0.0
1630619466.59979391,83628202,0.08,0.06,0.18,0.15,352.77,352.78,0.0,0.0
1630619466.69975400,83728162,0.09,0.07,0.19,0.18,352.77,352.78,0.0,0.0
1630619466.80054688,83828955,0.12,0.09,0.19,0.19,352.77,352.78,0.0,0.0
1630619466.90050697,83928915,0.15,0.11,0.17,0.19,352.77,352.78,0.0,0.0
1630619467.00046706,84028875,0.17,0.14,0.16,0.16,352.77,352.78,0.0,0.0
1630619467.10042691,84128835,0.2,0.18,0.13,0.14,352.77,352.78,0.0,0.0
1630619467.20038700,84228795,0.21,0.22,0.09,0.1,352.77,352.78,0.0,0.0
1630619467.30034685,84328755,0.18,0.22,0.09,0.08,352.77,352.78,0.0,0.0
1630619467.40030694,84428715,0.17,0.19,0.1,0.08,352.77,352.77,0.0,0.0
1630619467.50026703,84528675,0.14,0.16,0.1,0.09,352.77,352.77,0.0,0.0
1630619467.60022688,84628635,0.13,0.13,0.07,0.07,352.77,352.77,0.0,0.0
1630619467.70018697,84728595,0.13,0.12,0.05,0.05,352.77,352.77,0.0,0.0
1630619467.80014706,84828555,0.15,0.12,0.05,0.03,352.77,352.77,0.0,0.0
1630619467.90010691,84928515,0.16,0.14,0.08,0.04,352.77,352.77,0.0,0.0
1630619468.00006700,85028475,0.13,0.14,0.1,0.06,352.77,352.77,0.0,0.0
1630619468.10002685,85128435,0.12,0.12,0.14,0.1,352.77,352.77,0.0,0.0
1630619468.19998693,85228395,0.1,0.1,0.19,0.15,352.77,352.77,0.0,0.0
1630619468.29994702,85328355,0.1,0.08,0.22,0.21,352.77,352.77,0.0,0.0
1630619468.39990687,85428315,0.13,0.07,0.22,0.25,352.77,352.77,0.0,0.0
1630619468.49986696,85528275,0.16,0.11,0.17,0.23,352.77,352.77,0.0,0.0
1630619468.59982705,85628235,0.16,0.14,0.09,0.14,352.77,352.77,0.0,0.0
1630619468.69978690,85728195,0.14,0.14,0.05,0.06,352.77,352.77,0.0,0.0
1630619468.79974699,85828155,0.14,0.13,0.04,0.01,352.77,352.78,0.0,0.0
1630619468.90053988,85928948,0.14,0.13,0.05,0.01,352.77,352.77,0.0,0.0
1630619469.00049996,86028908,0.13,0.13,0.08,0.02,352.77,352.77,0.0,0.0
1630619469.10046005,86128868,0.12,0.12,0.11,0.06,352.77,352.77,0.0,0.0
1630619469.20041990,86228828,0.14,0.12,0.13,0.1,352.77,352.77,0.0,0.0
1630619469.30037999,86328788,0.15,0.14,0.11,0.12,352.77,352.78,0.0,0.0
1630619469.40033984,86428748,0.16,0.15,0.11,0.12,352.77,352.77,0.0,0.0
1630619469.50029993,86528708,0.17,0.16,0.06,0.1,352.77,352.77,0.0,0.0
1630619469.60026002,86628668,0.14,0.15,0.05,0.06,352.77,352.77,0.0,0.0
1630619469.70021987,86728628,0.09,0.12,0.1,0.06,352.77,352.77,0.0,0.0
1630619469.80017996,86828588,0.05,0.06,0.13,0.1,352.77,352.77,0.0,0.0
1630619469.90014005,86928548,0.03,0.01,0.13,0.13,352.77,352.77,0.0,0.0
1630619470.00009990,87028508,0.06,0.01,0.12,0.13,352.77,352.77,0.0,0.0
1630619470.10005999,87128468,0.13,0.06,0.12,0.14,352.77,352.77,0.0,0.0
1630619470.20001984,87228428,0.17,0.14,0.13,0.13,352.77,352.77,0.0,0.0
1630619470.29997993,87328388,0.15,0.17,0.1,0.12,352.77,352.77,0.0,0.0
1630619470.39994001,87428348,0.15,0.17,0.07,0.08,352.77,352.77,0.0,0.0
1630619470.49989986,87528308,0.13,0.15,0.04,0.04,352.77,352.77,0.0,0.0
1630619470.59985995,87628268,0.12,0.13,0.05,0.02,352.77,352.78,0.0,0.0
1630619470.69982004,87728228,0.13,0.13,0.06,0.02,352.77,352.78,0.0,0.0
1630619470.79977989,87828188,0.15,0.14,0.1,0.06,352.77,352.78,0.0,0.0
1630619470.90057302,87928981,0.1,0.13,0.13,0.1,352.77,352.78,0.0,0.0
1630619471.00053287,88028941,0.06,0.09,0.14,0.13,352.77,352.78,0.0,0.0
1630619471.10049295,88128901,0.06,0.05,0.14,0.14,352.77,352.79,0.0,0.0
1630619471.20045304,88228861,0.09,0.05,0.14,0.14,352.77,352.79,0.0,0.0
1630619471.30041289,88328821,0.1,0.07,0.14,0.14,352.77,352.79,0.0,0.0
1630619471.40037298,88428781,0.11,0.09,0.12,0.14,352.77,352.79,0.0,0.0
1630619471.50033283,88528741,0.1,0.1,0.1,0.12,352.77,352.79,0.0,0.0
1630619471.60029292,88628701,0.08,0.08,0.1,0.11,352.77,352.78,0.0,0.0
1630619471.70025301,88728661,0.09,0.07,0.08,0.09,352.77,352.78,0.0,0.0
1630619471.80021286,88828621,0.1,0.08,0.08,0.07,352.77,352.78,0.0,0.0
1630619471.90017295,88928581,0.12,0.09,0.12,0.08,352.77,352.78,0.0,0.0
1630619472.00013304,89028541,0.17,0.12,0.16,0.11,352.77,352.77,0.0,0.0
1630619472.10009289,89128501,0.2,0.17,0.18,0.15,352.77,352.77,0.0,0.0
1630619472.20005298,89228461,0.21,0.21,0.19,0.18,352.77,352.77,0.0,0.0
1630619472.30001307,89328421,0.19,0.22,0.19,0.2,352.77,352.77,0.0,0.0
1630619472.39997292,89428381,0.17,0.2,0.18,0.19,352.77,352.77,0.0,0.0
1630619472.49993300,89528341,0.17,0.18,0.18,0.18,352.77,352.77,0.0,0.0
1630619472.59989285,89628301,0.19,0.18,0.16,0.16,352.77,352.77,0.0,0.0
1630619472.69985294,89728261,0.17,0.18,0.17,0.15,352.77,352.77,0.0,0.0
1630619472.79981303,89828221,0.16,0.16,0.18,0.16,352.77,352.78,0.0,0.0
1630619472.89977288,89928181,0.18,0.16,0.19,0.18,352.77,352.78,0.0,0.0
1630619473.00056601,90028974,0.2,0.18,0.19,0.19,352.77,352.78,0.0,0.0
1630619473.10052586,90128934,0.22,0.21,0.19,0.19,352.77,352.78,0.0,0.0
1630619473.20048594,90228894,0.23,0.22,0.2,0.19,352.77,352.78,0.0,0.0
1630619473.30044603,90328854,0.27,0.25,0.22,0.2,352.77,352.78,0.0,0.0
1630619473.40040588,90428814,0.26,0.27,0.24,0.22,352.77,352.78,0.0,0.0
1630619473.50036597,90528774,0.25,0.26,0.24,0.24,352.77,352.78,0.0,0.0
1630619473.60032606,90628734,0.24,0.25,0.22,0.23,352.77,352.78,0.0,0.0
1630619473.70028591,90728694,0.22,0.23,0.2,0.21,352.77,352.78,0.0,0.0
1630619473.80024600,90828654,0.23,0.22,0.17,0.18,352.77,352.78,0.0,0.0
1630619473.90020585,90928614,0.24,0.22,0.17,0.16,352.77,352.78,0.0,0.0
1630619474.00016594,91028574,0.22,0.22,0.17,0.15,352.77,352.78,0.0,0.0
1630619474.10012603,91128534,0.17,0.19,0.18,0.15,352.77,352.77,0.0,0.0
1630619474.20008588,91228494,0.13,0.14,0.2,0.17,352.77,352.77,0.0,0.0
1630619474.30004597,91328454,0.12,0.11,0.2,0.19,352.77,352.77,0.0,0.0
1630619474.40000606,91428414,0.12,0.1,0.18,0.18,352.77,352.77,0.0,0.0
1630619474.49996591,91528374,0.11,0.09,0.15,0.16,352.77,352.77,0.0,0.0
1630619474.59992599,91628334,0.11,0.09,0.13,0.13,352.77,352.78,0.0,0.0
1630619474.69988585,91728294,0.1,0.09,0.14,0.12,352.77,352.78,0.0,0.0
1630619474.79984593,91828254,0.1,0.08,0.13,0.12,352.77,352.78,0.0,0.0
1630619474.89980602,91928214,0.15,0.12,0.11,0.1,352.77,352.78,0.0,0.0
1630619474.99976587,92028174,0.16,0.16,0.09,0.08,352.77,352.78,0.0,0.0
1630619475.10055900,92128967,0.15,0.17,0.1,0.08,352.77,352.78,0.0,0.0
1630619475.20051885,92228927,0.14,0.15,0.12,0.09,352.77,352.78,0.0,0.0
1630619475.30047894,92328887,0.14,0.14,0.15,0.12,352.77,352.78,0.0,0.0
1630619475.40043902,92428847,0.15,0.14,0.15,0.14,352.77,352.77,0.0,0.0
1630619475.50039887,92528807,0.16,0.14,0.13,0.14,352.77,352.77,0.0,0.0
1630619475.60035896,92628767,0.16,0.14,0.14,0.14,352.77,352.77,0.0,0.0
1630619475.70031905,92728727,0.17,0.15,0.15,0.14,352.77,352.77,0.0,0.0
1630619475.80027890,92828687,0.15,0.15,0.11,0.12,352.77,352.77,0.0,0.0
1630619475.90023899,92928647,0.15,0.15,0.08,0.09,352.77,352.77,0.0,0.0
1630619476.00019884,93028607,0.16,0.15,0.08,0.07,352.77,352.78,0.0,0.0
1630619476.10015893,93128567,0.14,0.14,0.07,0.06,352.77,352.78,0.0,0.0
1630619476.20011902,93228527,0.13,0.12,0.09,0.06,352.77,352.78,0.0,0.0
1630619476.30007887,93328487,0.13,0.12,0.1,0.08,352.77,352.78,0.0,0.0
1630619476.40003896,93428447,0.16,0.13,0.1,0.09,352.77,352.78,0.0,0.0
1630619476.49999905,93528407,0.19,0.16,0.09,0.09,352.77,352.78,0.0,0.0
1630619476.59995890,93628367,0.17,0.17,0.09,0.09,352.77,352.78,0.0,0.0
1630619476.69991899,93728327,0.15,0.16,0.07,0.08,352.77,352.78,0.0,0.0
1630619476.79987884,93828287,0.07,0.12,0.11,0.08,352.77,352.78,0.0,0.0
1630619476.89983892,93928247,-0.21,-0.06,0.25,0.16,352.77,352.78,0.0,0.0
1630619476.99979901,94028207,-0.75,-0.51,0.51,0.38,352.77,352.78,0.0,0.0
1630619477.09975886,94128167,-1.46,-1.19,0.85,0.71,352.77,352.78,0.0,0.0
1630619477.20055199,94228960,-2.28,-2.05,1.24,1.12,352.77,352.77,0.0,0.0
1630619477.30051184,94328920,-3.08,-2.97,1.63,1.56,352.77,352.75,0.0,0.0
1630619477.40047193,94428880,-3.77,-3.81,1.96,1.96,352.77,352.73,0.0,0.0
1630619477.50043201,94528840,-4.3,-4.48,2.21,2.28,352.77,352.73,0.0,0.0
1630619477.60039186,94628800,-4.72,-4.97,2.4,2.5,352.77,352.72,0.0,0.0
1630619477.70035195,94728760,-5.08,-5.32,2.54,2.65,352.77,352.73,0.0,0.0
1630619477.80031204,94828720,-5.42,-5.61,2.69,2.76,352.77,352.74,0.0,0.0
1630619477.90027189,94928680,-5.8,-5.9,2.86,2.89,352.77,352.75,0.0,0.0
1630619478.00023198,95028640,-6.23,-6.25,3.05,3.04,352.77,352.75,0.0,0.0
1630619478.10019183,95128600,-6.63,-6.64,3.23,3.22,352.77,352.75,0.0,0.0
1630619478.20015192,95228560,-6.94,-6.98,3.36,3.37,352.77,352.76,0.0,0.0
1630619478.30011201,95328520,-7.14,-7.24,3.45,3.48,352.77,352.76,0.0,0.0
1630619478.40007186,95428480,-7.28,-7.39,3.53,3.56,352.77,352.77,0.0,0.0
1630619478.50003195,95528440,-7.43,-7.5,3.62,3.65,352.77,352.78,0.0,0.0
1630619478.59999204,95628400,-7.59,-7.62,3.72,3.73,352.77,352.79,0.0,0.0
1630619478.69995189,95728360,-7.81,-7.77,3.83,3.84,352.22,352.78,0.0,0.0
1630619478.79991198,95828320,-8.12,-7.91,3.97,4.17,349.12,352.56,0.0,0.0
1630619478.89987206,95928280,-8.52,-8.06,4.03,4.76,343.55,351.53,0.0,0.0
1630619478.99983191,96028240,-9.05,-8.35,3.87,5.29,337.55,349.0,0.0,0.0
1630619479.09979200,96128200,-9.72,-8.9,3.33,5.38,331.55,344.8,0.0,0.0
1630619479.19975185,96228160,-10.46,-9.71,2.32,4.8,325.55,339.1,0.0,0.01
1630619479.30054498,96328953,-11.11,-10.57,0.83,3.47,319.55,332.22,0.0,0.02
1630619479.40050507,96428913,-11.54,-11.28,-0.98,1.46,313.55,324.5,0.0,0.04
1630619479.50046492,96528873,-11.68,-11.68,-2.97,-0.99,307.55,316.21,0.0,0.05
1630619479.60042500,96628833,-11.47,-11.63,-5.0,-3.67,301.55,307.6,0.0,0.06
1630619479.70038486,96728793,-10.94,-11.09,-6.93,-6.31,295.55,298.87,0.0,0.07
1630619479.80034494,96828753,-10.13,-10.1,-8.67,-8.69,289.55,290.29,0.0,0.08
1630619479.90030503,96928713,-9.12,-8.79,-10.16,-10.64,283.55,282.06,0.0,0.08
1630619480.00026488,97028673,-8.0,-7.32,-11.44,-12.14,277.55,274.4,0.0,0.09
1630619480.10022497,97128633,-6.82,-5.85,-12.5,-13.21,271.55,267.4,0.0,0.08
1630619480.20018506,97228593,-5.61,-4.48,-13.36,-13.96,265.55,261.09,0.0,0.08
1630619480.30014491,97328553,-4.4,-3.27,-14.0,-14.44,259.55,255.41,0.0,0.07
1630619480.40010500,97428513,-3.24,-2.25,-14.49,-14.73,253.55,250.21,0.0,0.07
1630619480.50006485,97528473,-2.08,-1.37,-14.86,-14.93,247.6,245.33,0.0,0.06
1630619480.60002494,97628433,-0.86,-0.34,-15.13,-15.11,243.42,240.65,0.0,0.05
1630619480.69998503,97728393,0.35,1.13,-15.29,-15.25,241.25,236.37,0.0,0.05
1630619480.79994488,97828353,1.43,2.81,-15.37,-15.28,240.11,232.93,0.0,0.05
1630619480.89990497,97928313,2.18,4.26,-15.42,-15.21,239.49,230.64,0.0,0.04
1630619480.99986506,98028273,2.49,5.12,-15.49,-15.15,239.13,229.6,0.0,0.03
1630619481.09982491,98128233,2.33,5.22,-15.58,-15.15,238.89,229.67,0.0,0.03
1630619481.19978499,98228193,1.78,4.55,-15.71,-15.23,238.7,230.64,0.0,0.03
1630619481.30057788,98328986,1.04,3.3,-15.87,-15.41,238.52,232.26,0.0,0.03
1630619481.40053797,98428946,0.28,1.77,-16.0,-15.63,238.33,234.24,0.0,0.03
1630619481.50049806,98528906,-0.38,0.24,-16.1,-15.83,238.16,236.29,0.0,0.04
1630619481.60045791,98628866,-0.86,-1.04,-16.19,-16.01,237.99,238.16,0.0,0.04
1630619481.70041800,98728826,-1.15,-1.95,-16.24,-16.13,237.83,239.64,0.0,0.04
1630619481.80037785,98828786,-1.26,-2.44,-16.27,-16.2,237.7,240.62,0.0,0.04
1630619481.90033793,98928746,-1.19,-2.54,-16.29,-16.24,237.6,241.05,0.0,0.04
1630619482.00029802,99028706,-1.01,-2.31,-16.32,-16.26,237.51,240.99,0.0,0.03
1630619482.10025787,99128666,-0.78,-1.87,-16.36,-16.3,237.46,240.51,0.0,0.03
1630619482.20021796,99228626,-0.5,-1.3,-16.41,-16.35,237.42,239.74,0.0,0.02
1630619482.30017805,99328586,-0.24,-0.69,-16.45,-16.4,237.4,238.83,0.0,0.02
1630619482.40013790,99428546,0.0,-0.12,-16.49,-16.46,237.38,237.89,0.0,0.01
1630619482.50009799,99528506,0.2,0.36,-16.57,-16.53,237.38,237.04,0.0,0.01
1630619482.60005784,99628466,0.34,0.74,-16.62,-16.6,237.37,236.37,0.0,0.01
1630619482.70001793,99728426,0.42,0.97,-16.66,-16.65,237.37,235.91,0.0,0.01
1630619482.79997802,99828386,0.44,1.06,-16.67,-16.68,237.37,235.68,0.0,0.01
1630619482.89993787,99928346,0.39,1.01,-16.7,-16.69,237.36,235.68,0.0,0.01
1630619482.99989796,100028306,0.28,0.84,-16.74,-16.73,237.36,235.85,0.0,0.01
1630619483.09985805,100128266,0.15,0.59,-16.77,-16.76,237.35,236.14,0.0,0.01
1630619483.19981790,100228226,0.03,0.32,-16.82,-16.81,237.33,236.51,0.0,0.01
1630619483.29977798,100328186,-0.04,0.07,-16.85,-16.85,237.33,236.89,0.0,0.01
1630619483.40057087,100428979,-0.11,-0.12,-16.87,-16.89,237.32,237.24,0.0,0.01
1630619483.50053096,100528939,-0.16,-0.27,-16.86,-16.89,237.32,237.53,0.0,0.01
1630619483.60049105,100628899,-0.19,-0.36,-16.86,-16.88,237.32,237.73,0.0,0.01
1630619483.70045090,100728859,-0.2,-0.38,-16.91,-16.89,237.32,237.83,0.0,0.01
1630619483.80041099,100828819,-0.16,-0.35,-16.97,-16.95,237.33,237.85,0.0,0.01
1630619483.90037084,100928779,-0.1,-0.26,-17.01,-17.01,237.34,237.8,0.0,0.01
1630619484.00033092,101028739,-0.06,-0.16,-17.04,-17.05,237.36,237.69,0.0,0.01
1630619484.10029101,101128699,-0.03,-0.06,-17.06,-17.08,237.38,237.56,0.0,0.01
1630619484.20025086,101228659,0.02,0.02,-17.07,-17.1,237.4,237.42,0.0,0.01
1630619484.30021095,101328619,0.09,0.13,-17.11,-17.12,237.43,237.29,0.0,0.01
1630619484.40017104,101428579,0.12,0.21,-17.15,-17.15,237.45,237.2,0.0,0.01
1630619484.50013089,101528539,0.12,0.26,-17.19,-17.19,237.48,237.14,0.0,0.01
1630619484.60009098,101628499,0.09,0.26,-17.23,-17.23,237.5,237.12,0.0,0.01
1630619484.70005083,101728459,0.09,0.24,-17.25,-17.26,237.52,237.14,0.0,0.01
1630619484.80001092,101828419,0.08,0.21,-17.25,-17.27,237.55,237.19,0.0,0.01
1630619484.89997101,101928379,0.09,0.18,-17.23,-17.26,237.57,237.27,0.0,0.01
1630619484.99993086,102028339,0.1,0.15,-17.24,-17.25,237.59,237.36,0.0,0.01
1630619485.09989095,102128299,0.08,0.12,-17.29,-17.27,237.61,237.45,0.0,0.01
1630619485.19985104,102228259,0.07,0.09,-17.34,-17.32,237.63,237.54,0.0,0.01
1630619485.29981089,102328219,0.05,0.07,-17.4,-17.38,237.66,237.62,0.0,0.01
1630619485.39977098,102428179,0.03,0.04,-17.44,-17.44,237.68,237.68,0.0,0.01
1630619485.50056386,102528972,0.0,0.0,-17.45,-17.48,237.71,237.73,0.0,0.01
1630619485.60052395,102628932,0.0,-0.01,-17.45,-17.49,237.73,237.76,0.0,0.01
1630619485.70048404,102728892,0.0,-0.01,-17.45,-17.48,237.75,237.77,0.0,0.01
1630619485.80044389,102828852,0.02,0.01,-17.46,-17.48,237.78,237.78,0.0,0.01
1630619485.90040398,102928812,0.07,0.06,-17.47,-17.48,237.8,237.77,0.0,0.01
1630619486.00036407,103028772,0.11,0.11,-17.52,-17.52,237.83,237.77,0.0,0.01
1630619486.10032392,103128732,0.12,0.16,-17.55,-17.56,237.86,237.77,0.0,0.01
1630619486.20028400,103228692,0.14,0.18,-17.58,-17.59,237.89,237.78,0.0,0.0
1630619486.30024385,103328652,0.14,0.2,-17.59,-17.61,237.92,237.79,0.0,0.0
1630619486.40020394,103428612,0.15,0.21,-17.59,-17.62,237.94,237.81,0.0,0.0
1630619486.50016403,103528572,0.17,0.22,-17.59,-17.62,237.97,237.84,0.0,0.0
1630619486.60012388,103628532,0.16,0.22,-17.61,-17.62,238.0,237.87,0.0,0.0
1630619486.70008397,103728492,0.13,0.2,-17.62,-17.63,238.03,237.91,0.0,0.0
1630619486.80004406,103828452,0.12,0.17,-17.63,-17.64,238.05,237.94,0.0,0.0
1630619486.90000391,103928412,0.12,0.16,-17.63,-17.64,238.08,237.98,0.0,0.0
1630619486.99996400,104028372,0.13,0.15,-17.66,-17.66,238.1,238.02,0.0,0.0
1630619487.09992385,104128332,0.13,0.14,-17.69,-17.68,238.13,238.06,0.0,0.0
1630619487.19988394,104228292,0.14,0.15,-17.71,-17.7,238.15,238.09,0.0,0.0
1630619487.29984403,104328252,0.14,0.15,-17.73,-17.73,238.18,238.12,0.0,0.0
1630619487.39980388,104428212,0.15,0.16,-17.75,-17.75,238.2,238.15,0.0,0.0
1630619487.49976397,104528172,0.15,0.16,-17.75,-17.77,238.22,238.17,0.0,0.0
1630619487.60055685,104628965,0.14,0.16,-17.74,-17.77,238.25,238.2,0.0,0.0
1630619487.70051694,104728925,0.13,0.16,-17.73,-17.75,238.27,238.22,0.0,0.0
1630619487.80047703,104828885,0.12,0.14,-17.75,-17.75,238.29,238.23,0.0,0.0
1630619487.90043688,104928845,0.12,0.14,-17.78,-17.76,238.31,238.25,0.0,0.0
1630619488.00039697,105028805,0.16,0.15,-17.81,-17.79,238.33,238.27,0.0,0.0
1630619488.10035706,105128765,0.21,0.2,-17.83,-17.82,238.36,238.29,0.0,0.0
1630619488.20031691,105228725,0.23,0.24,-17.85,-17.85,238.38,238.31,0.0,0.0
1630619488.30027699,105328685,0.22,0.26,-17.88,-17.87,238.4,238.33,0.0,0.0
1630619488.40023685,105428645,0.19,0.24,-17.9,-17.9,238.42,238.35,0.0,0.0
1630619488.50019693,105528605,0.17,0.21,-17.92,-17.92,238.43,238.37,0.0,0.0
1630619488.60015702,105628565,0.17,0.19,-17.95,-17.96,238.45,238.39,0.0,0.0
1630619488.70011687,105728525,0.2,0.19,-17.93,-17.96,238.47,238.41,0.0,0.0
1630619488.80007696,105828485,0.23,0.22,-17.91,-17.94,238.49,238.44,0.0,0.0
1630619488.90003705,105928445,0.23,0.24,-17.9,-17.92,238.51,238.46,0.0,0.0
1630619488.99999690,106028405,0.21,0.24,-17.91,-17.92,238.52,238.47,0.0,0.0
1630619489.09995699,106128365,0.2,0.23,-17.94,-17.94,238.54,238.49,0.0,0.0
1630619489.19991684,106228325,0.2,0.22,-18.0,-17.99,238.55,238.5,0.0,0.0
1630619489.29987693,106328285,0.19,0.21,-18.01,-18.02,238.57,238.51,0.0,0.0
1630619489.39983702,106428245,0.19,0.21,-18.02,-18.04,238.58,238.52,0.0,0.0
1630619489.49979687,106528205,0.2,0.21,-18.01,-18.03,238.59,238.53,0.0,0.0
1630619489.59975696,106628165,0.2,0.21,-17.99,-18.01,238.6,238.55,0.0,0.0
1630619489.70054984,106728958,0.2,0.21,-17.95,-17.97,238.61,238.56,0.0,0.0
1630619489.80050993,106828918,0.2,0.22,-17.94,-17.94,238.62,238.56,0.0,0.0
1630619489.90047002,106928878,0.2,0.22,-17.96,-17.93,238.63,238.57,0.0,0.0
1630619490.00042987,107028838,0.19,0.22,-18.02,-17.98,238.64,238.58,0.0,0.0
1630619490.10038996,107128798,0.17,0.2,-18.05,-18.04,238.65,238.59,0.0,0.0
1630619490.20035005,107228758,0.17,0.18,-18.07,-18.09,238.66,238.6,0.0,0.0
1630619490.30030990,107328718,0.16,0.17,-18.07,-18.11,238.67,238.61,0.0,0.0
1630619490.40026999,107428678,0.13,0.16,-18.07,-18.11,238.68,238.61,0.0,0.0
1630619490.50022984,107528638,0.14,0.14,-18.06,-18.1,238.68,238.63,0.0,0.0
1630619490.60018992,107628598,0.16,0.15,-18.04,-18.08,238.69,238.64,0.0,0.0
1630619490.70015001,107728558,0.15,0.17,-18.04,-18.05,238.7,238.65,0.0,0.0
1630619490.80010986,107828518,0.14,0.17,-18.04,-18.04,238.7,238.66,0.0,0.0
1630619490.90006995,107928478,0.11,0.15,-18.04,-18.03,238.71,238.67,0.0,0.0
1630619491.00003004,108028438,0.1,0.12,-18.07,-18.05,238.71,238.67,0.0,0.0
1630619491.09998989,108128398,0.11,0.11,-18.1,-18.08,238.72,238.68,0.0,0.0
1630619491.19994998,108228358,0.12,0.12,-18.12,-18.12,238.72,238.69,0.0,0.0
1630619491.29991007,108328318,0.11,0.11,-18.13,-18.15,238.73,238.69,0.0,0.0
1630619491.39986992,108428278,0.15,0.13,-18.14,-18.16,238.73,238.69,0.0,0.0
1630619491.49983001,108528238,0.2,0.18,-18.13,-18.16,238.74,238.69,0.0,0.0
1630619491.59978986,108628198,0.21,0.21,-18.12,-18.15,238.75,238.7,0.0,0.0
1630619491.69974995,108728158,0.2,0.22,-18.11,-18.13,238.76,238.7,0.0,0.0
1630619491.80054283,108828951,0.19,0.22,-18.08,-18.1,238.77,238.71,0.0,0.0
1630619491.90050292,108928911,0.17,0.2,-18.06,-18.07,238.77,238.72,0.0,0.0
1630619492.00046301,109028871,0.15,0.18,-18.05,-18.05,238.78,238.73,0.0,0.0
1630619492.10042286,109128831,0.17,0.17,-18.06,-18.05,238.79,238.74,0.0,0.0
1630619492.20038295,109228791,0.19,0.17,-18.08,-18.06,238.79,238.75,0.0,0.0
1630619492.30034304,109328751,0.21,0.19,-18.11,-18.09,238.8,238.76,0.0,0.0
1630619492.40030289,109428711,0.23,0.22,-18.15,-18.14,238.81,238.77,0.0,0.0
1630619492.50026298,109528671,0.25,0.25,-18.17,-18.18,238.81,238.77,0.0,0.0
1630619492.60022306,109628631,0.26,0.27,-18.14,-18.18,238.82,238.78,0.0,0.0
1630619492.70018291,109728591,0.24,0.27,-18.1,-18.14,238.83,238.79,0.0,0.0
1630619492.80014300,109828551,0.23,0.26,-18.1,-18.12,238.84,238.8,0.0,0.0
1630619492.90010285,109928511,0.23,0.24,-18.13,-18.12,238.84,238.81,0.0,0.0
1630619493.00006294,110028471,0.23,0.24,-18.16,-18.15,238.85,238.82,0.0,0.0
1630619493.10002303,110128431,0.24,0.23,-18.2,-18.19,238.85,238.82,0.0,0.0
1630619493.19998288,110228391,0.25,0.24,-18.24,-18.23,238.86,238.82,0.0,0.0
1630619493.29994297,110328351,0.24,0.25,-18.25,-18.27,238.86,238.83,0.0,0.0
1630619493.39990306,110428311,0.23,0.24,-18.25,-18.29,238.87,238.83,0.0,0.0
1630619493.49986291,110528271,0.23,0.24,-18.23,-18.27,238.87,238.83,0.0,0.0
1630619493.59982300,110628231,0.22,0.23,-18.23,-18.26,238.87,238.84,0.0,0.0
1630619493.69978285,110728191,0.2,0.22,-18.23,-18.25,238.88,238.84,0.0,0.0
1630619493.80057597,110828984,0.18,0.19,-18.23,-18.25,238.88,238.84,0.0,0.0
1630619493.90053606,110928944,0.17,0.18,-18.21,-18.24,238.88,238.85,0.0,0.0
1630619494.00049591,111028904,0.17,0.16,-18.18,-18.22,238.88,238.85,0.0,0.0
1630619494.10045600,111128864,0.17,0.17,-18.19,-18.21,238.88,238.85,0.0,0.0
1630619494.20041585,111228824,0.19,0.18,-18.2,-18.21,238.88,238.85,0.0,0.0
1630619494.30037594,111328784,0.2,0.2,-18.22,-18.22,238.88,238.85,0.0,0.0
1630619494.40033603,111428744,0.2,0.21,-18.21,-18.22,238.88,238.85,0.0,0.0
1630619494.50029588,111528704,0.18,0.2,-18.21,-18.22,238.88,238.85,0.0,0.0
1630619494.60025597,111628664,0.16,0.18,-18.21,-18.22,238.88,238.85,0.0,0.0
1630619494.70021605,111728624,0.17,0.17,-18.2,-18.21,238.88,238.85,0.0,0.0
1630619494.80017591,111828584,0.19,0.18,-18.2,-18.2,238.88,238.85,0.0,0.0
1630619494.90013599,111928544,0.2,0.2,-18.21,-18.2,238.88,238.85,0.0,0.0
1630619495.00009584,112028504,0.2,0.2,-18.24,-18.22,238.88,238.85,0.0,0.0
1630619495.10005593,112128464,0.2,0.2,-18.26,-18.24,238.89,238.85,0.0,0.0
1630619495.20001602,112228424,0.22,0.21,-18.26,-18.26,238.89,238.85,0.0,0.0
1630619495.29997587,112328384,0.24,0.24,-18.23,-18.25,238.89,238.86,0.0,0.0
1630619495.39993596,112428344,0.26,0.26,-18.22,-18.24,238.89,238.86,0.0,0.0
1630619495.49989605,112528304,0.26,0.27,-18.24,-18.24,238.89,238.86,0.0,0.0
1630619495.59985590,112628264,0.24,0.26,-18.25,-18.26,238.89,238.87,0.0,0.0
1630619495.69981599,112728224,0.21,0.23,-18.25,-18.26,238.89,238.87,0.0,0.0
1630619495.79977584,112828184,0.19,0.19,-18.24,-18.27,238.89,238.87,0.0,0.0
1630619495.90056896,112928977,0.19,0.17,-18.23,-18.27,238.89,238.87,0.0,0.0
1630619496.00052905,113028937,0.21,0.18,-18.21,-18.25,238.89,238.88,0.0,0.0
1630619496.10048890,113128897,0.23,0.2,-18.21,-18.23,238.89,238.87,0.0,0.0
1630619496.20044899,113228857,0.25,0.23,-18.21,-18.21,238.9,238.87,0.0,0.0
1630619496.30040884,113328817,0.26,0.26,-18.2,-18.2,238.9,238.87,0.0,0.0
1630619496.40036893,113428777,0.24,0.26,-18.21,-18.2,238.9,238.87,0.0,0.0
1630619496.50032902,113528737,0.21,0.23,-18.22,-18.22,238.9,238.87,0.0,0.0
1630619496.60028887,113628697,0.19,0.2,-18.21,-18.23,238.9,238.87,0.0,0.0
1630619496.70024896,113728657,0.18,0.19,-18.19,-18.21,238.9,238.87,0.0,0.0
1630619496.80020905,113828617,0.21,0.2,-18.19,-18.2,238.9,238.87,0.0,0.0
1630619496.90016890,113928577,0.25,0.24,-18.18,-18.19,238.9,238.87,0.0,0.0
1630619497.00012898,114028537,0.27,0.28,-18.17,-18.18,238.91,238.87,0.0,0.0
1630619497.10008883,114128497,0.26,0.29,-18.19,-18.17,238.91,238.88,0.0,0.0
1630619497.20004892,114228457,0.27,0.29,-18.23,-18.21,238.91,238.88,0.0,0.0
1630619497.30000901,114328417,0.29,0.3,-18.25,-18.25,238.91,238.89,0.0,0.0
1630619497.39996886,114428377,0.29,0.3,-18.27,-18.28,238.91,238.89,0.0,0.0
1630619497.49992895,114528337,0.3,0.3,-18.29,-18.31,238.91,238.89,0.0,0.0
1630619497.59988904,114628297,0.3,0.3,-18.3,-18.32,238.92,238.9,0.0,0.0
1630619497.69984889,114728257,0.29,0.28,-18.29,-18.32,238.92,238.9,0.0,0.0
1630619497.79980898,114828217,0.26,0.26,-18.28,-18.3,238.92,238.9,0.0,0.0
1630619497.89976907,114928177,0.24,0.24,-18.25,-18.28,238.92,238.9,0.0,0.0
1630619498.00056195,115028970,0.23,0.23,-18.23,-18.25,238.92,238.9,0.0,0.0
1630619498.10052204,115128930,0.24,0.23,-18.24,-18.23,238.92,238.9,0.0,0.0
1630619498.20048189,115228890,0.25,0.23,-18.25,-18.24,238.92,238.9,0.0,0.0
1630619498.30044198,115328850,0.28,0.26,-18.25,-18.24,238.92,238.9,0.0,0.0
1630619498.40040183,115428810,0.31,0.29,-18.26,-18.26,238.92,238.9,0.0,0.0
1630619498.50036192,115528770,0.32,0.32,-18.27,-18.28,238.92,238.9,0.0,0.0
1630619498.60032201,115628730,0.29,0.31,-18.28,-18.29,238.92,238.9,0.0,0.0
1630619498.70028186,115728690,0.27,0.29,-18.26,-18.29,238.92,238.9,0.0,0.0
1630619498.80024195,115828650,0.27,0.27,-18.25,-18.27,238.92,238.9,0.0,0.0
1630619498.90020204,115928610,0.3,0.28,-18.25,-18.26,238.92,238.9,0.0,0.0
1630619499.00016189,116028570,0.3,0.3,-18.25,-18.26,238.92,238.9,0.0,0.0
1630619499.10012197,116128530,0.28,0.3,-18.28,-18.28,238.92,238.9,0.0,0.0
1630619499.20008206,116228490,0.29,0.3,-18.3,-18.31,238.92,238.91,0.0,0.0
1630619499.30004191,116328450,0.28,0.3,-18.29,-18.32,238.92,238.91,0.0,0.0
1630619499.40000200,116428410,0.26,0.28,-18.27,-18.31,238.92,238.91,0.0,0.0
1630619499.49996185,116528370,0.24,0.25,-18.27,-18.29,238.92,238.91,0.0,0.0
1630619499.59992194,116628330,0.26,0.24,-18.27,-18.28,238.92,238.91,0.0,0.0
1630619499.69988203,116728290,0.28,0.25,-18.25,-18.27,238.92,238.91,0.0,0.0
1630619499.79984188,116828250,0.27,0.26,-18.24,-18.25,238.91,238.9,0.0,0.0
1630619499.89980197,116928210,0.29,0.27,-18.24,-18.24,238.91,238.9,0.0,0.0
1630619499.99976206,117028170,0.3,0.28,-18.26,-18.25,238.91,238.9,0.0,0.0
1630619500.10055494,117128963,0.31,0.31,-18.25,-18.26,238.91,238.9,0.0,0.0
1630619500.20051503,117228923,0.31,0.31,-18.25,-18.26,238.91,238.89,0.0,0.0
1630619500.30047488,117328883,0.32,0.32,-18.27,-18.27,238.91,238.89,0.0,0.0
1630619500.40043497,117428843,0.33,0.33,-18.3,-18.3,238.91,238.89,0.0,0.0
1630619500.50039506,117528803,0.31,0.34,-18.26,-18.3,238.91,238.89,0.0,0.0
1630619500.60035491,117628763,0.31,0.33,-18.24,-18.29,238.91,238.89,0.0,0.0
1630619500.70031500,117728723,0.3,0.32,-18.23,-18.26,238.91,238.89,0.0,0.0
1630619500.80027485,117828683,0.28,0.29,-18.24,-18.25,238.91,238.89,0.0,0.0
1630619500.90023494,117928643,0.26,0.27,-18.25,-18.25,238.91,238.9,0.0,0.0
1630619501.00019503,118028603,0.27,0.25,-18.26,-18.27,238.91,238.9,0.0,0.0
1630619501.10015488,118128563,0.27,0.25,-18.25,-18.27,238.91,238.9,0.0,0.0
1630619501.20011497,118228523,0.29,0.26,-18.24,-18.25,238.91,238.91,0.0,0.0
1630619501.30007505,118328483,0.3,0.29,-18.23,-18.24,238.91,238.91,0.0,0.0
1630619501.40003490,118428443,0.32,0.32,-18.22,-18.23,238.91,238.9,0.0,0.0
1630619501.49999499,118528403,0.32,0.34,-18.24,-18.24,238.91,238.9,0.0,0.0
1630619501.59995484,118628363,0.3,0.33,-18.27,-18.26,238.91,238.9,0.0,0.0
1630619501.69991493,118728323,0.28,0.3,-18.28,-18.28,238.91,238.9,0.0,0.0
1630619501.79987502,118828283,0.25,0.26,-18.27,-18.28,238.91,238.9,0.0,0.0
1630619501.89983487,118928243,0.25,0.24,-18.28,-18.28,238.91,238.9,0.0,0.0
1630619501.99979496,119028203,0.24,0.23,-18.3,-18.29,238.91,238.9,0.0,0.0
1630619502.09975505,119128163,0.22,0.22,-18.32,-18.31,238.9,238.9,0.0,0.0
1630619502.20054793,119228956,0.2,0.2,-18.32,-18.33,238.9,238.9,0.0,0.0
1630619502.30050802,119328916,0.22,0.19,-18.27,-18.32,238.9,238.89,0.0,0.0
1630619502.40046787,119428876,0.27,0.23,-18.23,-18.27,238.9,238.89,0.0,0.0
1630619502.50042796,119528836,0.32,0.3,-18.24,-18.24,238.9,238.89,0.0,0.0
1630619502.60038805,119628796,0.33,0.34,-18.25,-18.25,238.9,238.88,0.0,0.0
1630619502.70034790,119728756,0.32,0.34,-18.25,-18.26,238.9,238.88,0.0,0.0
1630619502.80030799,119828716,0.31,0.34,-18.22,-18.25,238.9,238.88,0.0,0.0
1630619502.90026784,119928676,0.32,0.33,-18.21,-18.23,238.9,238.89,0.0,0.0
1630619503.00022793,120028636,0.33,0.34,-18.21,-18.22,238.91,238.89,0.0,0.0
1630619503.10018802,120128596,0.33,0.33,-18.23,-18.24,238.91,238.89,0.0,0.0
1630619503.20014787,120228556,0.31,0.32,-18.27,-18.26,238.91,238.9,0.0,0.0
1630619503.30010796,120328516,0.3,0.3,-18.28,-18.3,238.91,238.9,0.0,0.0
1630619503.40006804,120428476,0.32,0.29,-18.27,-18.3,238.91,238.9,0.0,0.0
1630619503.50002789,120528436,0.35,0.31,-18.25,-18.29,238.91,238.9,0.0,0.0
1630619503.59998798,120628396,0.38,0.35,-18.23,-18.26,238.91,238.91,0.0,0.0
1630619503.69994783,120728356,0.38,0.37,-18.26,-18.26,238.92,238.91,0.0,0.0
1630619503.79990792,120828316,0.35,0.36,-18.27,-18.28,238.92,238.91,0.0,0.0
1630619503.89986801,120928276,0.22,0.29,-18.21,-18.27,238.74,238.91,0.0,0.0
1630619503.99982786,121028236,-0.6,-0.28,-17.93,-18.1,238.12,238.86,0.0,0.0
1630619504.09978795,121128196,-1.8,-1.54,-17.55,-17.74,237.24,238.65,0.0,0.0
1630619504.19974804,121228156,-2.88,-3.02,-17.24,-17.34,236.19,238.18,0.0,0.0
1630619504.30054092,121328949,-3.57,-4.25,-17.08,-17.03,235.03,237.41,0.0,0.0
1630619504.40050101,121428909,-3.87,-4.97,-17.06,-16.89,233.81,236.34,0.0,0.0
1630619504.50046086,121528869,-3.83,-5.11,-17.14,-16.91,232.57,234.99,0.0,0.0
1630619504.60042095,121628829,-3.59,-4.79,-17.24,-17.05,231.33,233.42,0.0,0.0
1630619504.70038104,121728789,-3.28,-4.19,-17.33,-17.21,230.11,231.69,0.0,0.01
1630619504.80034089,121828749,-3.01,-3.54,-17.39,-17.35,228.93,229.89,0.0,0.01
1630619504.90030098,121928709,-2.84,-2.99,-17.44,-17.46,227.76,228.1,0.0,0.01
1630619505.00026107,122028669,-2.72,-2.59,-17.49,-17.54,226.63,226.4,0.0,0.01
1630619505.10022092,122128629,-2.68,-2.34,-17.54,-17.59,225.53,224.84,0.0,0.02
1630619505.20018101,122228589,-2.67,-2.24,-17.57,-17.63,224.46,223.45,0.0,0.02
1630619505.30014086,122328549,-2.65,-2.22,-17.59,-17.65,223.42,222.25,0.0,0.01
1630619505.40010095,122428509,-2.61,-2.21,-17.59,-17.65,222.41,221.22,0.0,0.01
1630619505.50006104,122528469,-2.56,-2.22,-17.58,-17.63,221.43,220.34,0.0,0.01
1630619505.60002089,122628429,-2.53,-2.25,-17.59,-17.62,220.5,219.58,0.0,0.01
1630619505.69998097,122728389,-2.52,-2.31,-17.64,-17.63,219.59,218.91,0.0,0.01
1630619505.79994106,122828349,-2.52,-2.38,-17.68,-17.66,218.72,218.28,0.0,0.01
1630619505.89990091,122928309,-2.52,-2.45,-17.72,-17.71,217.89,217.67,0.0,0.0
1630619505.99986100,123028269,-2.51,-2.52,-17.75,-17.75,217.09,217.05,0.0,0.0
1630619506.09982085,123128229,-2.43,-2.52,-17.77,-17.78,216.33,216.42,0.0,0.0
1630619506.19978094,123228189,-2.3,-2.43,-17.77,-17.79,215.6,215.75,0.0,0.0
1630619506.30057406,123328982,-2.17,-2.29,-17.79,-17.81,214.92,215.07,0.0,0.0
1630619506.40053391,123428942,-2.03,-2.11,-17.81,-17.83,214.26,214.37,0.0,0.0
1630619506.50049400,123528902,-1.87,-1.92,-17.82,-17.84,213.64,213.68,0.0,0.0
1630619506.60045385,123628862,-1.7,-1.72,-17.85,-17.87,213.06,212.99,0.0,0.0
1630619506.70041394,123728822,-1.58,-1.53,-17.87,-17.89,212.51,212.34,0.0,0.0
1630619506.80037403,123828782,-1.5,-1.39,-17.88,-17.91,211.98,211.73,0.0,0.0
1630619506.90033388,123928742,-1.44,-1.3,-17.88,-17.91,211.49,211.16,0.0,0.0
1630619507.00029397,124028702,-1.37,-1.23,-17.89,-17.92,211.02,210.65,0.0,0.0
1630619507.10025406,124128662,-1.29,-1.15,-17.9,-17.91,210.58,210.19,0.0,0.0
1630619507.20021391,124228622,-1.2,-1.08,-17.92,-17.92,210.16,209.78,0.0,0.0
1630619507.30017400,124328582,-1.12,-1.01,-17.95,-17.95,209.77,209.41,0.0,0.0
1630619507.40013385,124428542,-1.06,-0.96,-17.97,-17.99,209.39,209.08,0.0,0.0
1630619507.50009394,124528502,-0.99,-0.91,-17.95,-17.99,209.04,208.78,0.0,0.0
1630619507.60005403,124628462,-0.92,-0.86,-17.95,-17.98,208.72,208.5,0.0,0.0
1630619507.70001388,124728422,-0.83,-0.79,-17.93,-17.96,208.41,208.23,0.0,0.0
1630619507.79997396,124828382,-0.73,-0.72,-17.93,-17.95,208.12,207.98,0.0,0.0
1630619507.89993405,124928342,-0.66,-0.64,-17.94,-17.95,207.85,207.73,0.0,0.0
1630619507.99989390,125028302,-0.61,-0.58,-17.95,-17.95,207.59,207.5,0.0,0.0
1630619508.09985399,125128262,-0.56,-0.54,-17.96,-17.97,207.35,207.26,0.0,0.0
1630619508.19981384,125228222,-0.51,-0.49,-17.98,-17.99,207.13,207.04,0.0,0.0
1630619508.29977393,125328182,-0.46,-0.44,-18.0,-18.0,206.92,206.82,0.0,0.0
1630619508.40056705,125428975,-0.43,-0.39,-18.0,-18.01,206.73,206.61,0.0,0.0
1630619508.50052691,125528935,-0.39,-0.35,-17.99,-18.01,206.54,206.41,0.0,0.0
1630619508.60048699,125628895,-0.32,-0.29,-17.98,-18.0,206.37,206.23,0.0,0.0
1630619508.70044684,125728855,-0.24,-0.21,-17.97,-17.99,206.21,206.06,0.0,0.0
1630619508.80040693,125828815,-0.19,-0.15,-17.97,-17.98,206.07,205.91,0.0,0.0
1630619508.90036702,125928775,-0.15,-0.09,-17.99,-17.98,205.92,205.78,0.0,0.0
1630619509.00032687,126028735,-0.13,-0.06,-18.02,-18.0,205.79,205.65,0.0,0.0
1630619509.10028696,126128695,-0.09,-0.04,-18.04,-18.03,205.67,205.54,0.0,0.0
1630619509.20024705,126228655,-0.06,-0.01,-18.05,-18.05,205.56,205.43,0.0,0.0
1630619509.30020690,126328615,-0.03,0.0,-18.06,-18.07,205.45,205.34,0.0,0.0
1630619509.40016699,126428575,-0.01,0.01,-18.07,-18.09,205.35,205.26,0.0,0.0
1630619509.50012684,126528535,-0.02,0.02,-18.09,-18.1,205.26,205.18,0.0,0.0
1630619509.60008693,126628495,-0.03,0.0,-18.12,-18.14,205.18,205.1,0.0,0.0
1630619509.70004702,126728455,-0.02,-0.01,-18.14,-18.16,205.1,205.02,0.0,0.0
1630619509.80000687,126828415,0.03,0.01,-18.14,-18.17,205.02,204.95,0.0,0.0
1630619509.89996696,126928375,0.07,0.07,-18.13,-18.17,204.95,204.89,0.0,0.0
1630619509.99992704,127028335,0.11,0.12,-18.14,-18.16,204.89,204.82,0.0,0.0
1630619510.09988689,127128295,0.13,0.15,-18.16,-18.17,204.83,204.76,0.0,0.0
1630619510.19984698,127228255,0.11,0.15,-18.18,-18.19,204.78,204.71,0.0,0.0
1630619510.29980683,127328215,0.1,0.14,-18.18,-18.2,204.72,204.66,0.0,0.0
1630619510.39976692,127428175,0.12,0.14,-18.15,-18.19,204.68,204.61,0.0,0.0
1630619510.50056005,127528968,0.15,0.15,-18.1,-18.15,204.63,204.56,0.0,0.0
1630619510.60051990,127628928,0.16,0.17,-18.07,-18.11,204.59,204.52,0.0,0.0
1630619510.70047998,127728888,0.17,0.18,-18.08,-18.08,204.55,204.48,0.0,0.0
1630619510.80043983,127828848,0.18,0.19,-18.11,-18.1,204.52,204.45,0.0,0.0
