timestamp,TimeUS,DesRoll,Roll,DesPitch,Pitch,DesYaw,Yaw,ErrRP,ErrYaw
1630611363.10003996,41928222,0.0,0.1,0.0,0.08,352.88,352.89,0.0,0.0
1630611363.20000005,42028182,0.0,0.1,0.0,0.08,352.88,352.89,0.0,0.0
1630611363.30079293,42128975,0.0,0.1,0.0,0.08,352.88,352.89,0.0,0.0
1630611363.40075302,42228935,0.0,0.1,0.0,0.08,352.88,352.89,0.0,0.0
1630611363.50071311,42328895,0.0,0.1,0.0,0.09,352.88,352.89,0.0,0.0
1630611363.60067296,42428855,0.0,0.1,0.0,0.09,352.88,352.89,0.0,0.0
1630611363.70063305,42528815,0.0,0.1,0.0,0.09,352.88,352.89,0.0,0.0
1630611363.80059290,42628775,0.0,0.1,0.0,0.08,352.88,352.89,0.0,0.0
1630611363.90055299,42728735,0.0,0.1,0.0,0.09,352.88,352.89,0.0,0.0
1630611364.00051308,42828695,0.0,0.1,0.0,0.08,352.88,352.89,0.0,0.0
1630611364.10047293,42928655,0.0,0.1,0.0,0.08,352.88,352.89,0.0,0.0
1630611364.20043302,43028615,0.0,0.1,0.0,0.08,352.87,352.88,0.0,0.0
1630611364.30039310,43128575,0.0,0.1,0.0,0.08,352.87,352.88,0.0,0.0
1630611364.40035295,43228535,0.0,0.1,0.0,0.08,352.87,352.88,0.0,0.0
1630611364.50031304,43328495,0.0,0.1,0.0,0.08,352.87,352.88,0.0,0.0
1630611364.60027313,43428455,0.0,0.1,0.0,0.08,352.87,352.88,0.0,0.0
1630611364.70023298,43528415,0.0,0.1,0.0,0.08,352.87,352.88,0.0,0.0
1630611364.80019307,43628375,0.0,0.1,0.0,0.08,352.87,352.88,0.0,0.0
1630611364.90015292,43728335,0.0,0.1,0.0,0.08,352.87,352.88,0.0,0.0
1630611365.00011301,43828295,0.0,0.1,0.0,0.08,352.87,352.88,0.0,0.0
1630611365.10007310,43928255,0.0,0.1,0.0,0.08,352.87,352.88,0.0,0.0
1630611365.20003295,44028215,0.0,0.1,0.0,0.08,352.87,352.88,0.0,0.0
1630611365.29999304,44128175,0.0,0.1,0.0,0.08,352.87,352.88,0.0,0.0
1630611365.40078592,44228968,0.0,0.09,0.0,0.08,352.87,352.88,0.0,0.0
1630611365.50074601,44328928,0.0,0.09,0.0,0.08,352.87,352.88,0.0,0.0
1630611365.60070610,44428888,0.0,0.09,0.0,0.07,352.87,352.88,0.0,0.0
1630611365.70066595,44528848,0.0,0.09,0.0,0.07,352.87,352.88,0.0,0.0
1630611365.80062604,44628808,0.0,0.09,0.0,0.07,352.87,352.88,0.0,0.0
1630611365.90058613,44728768,0.0,0.09,0.0,0.07,352.87,352.88,0.0,0.0
1630611366.00054598,44828728,0.0,0.09,0.0,0.07,352.87,352.88,0.0,0.0
1630611366.10050607,44928688,0.0,0.09,0.0,0.07,352.87,352.88,0.0,0.0
1630611366.20046592,45028648,0.0,0.09,0.0,0.07,352.87,352.88,0.0,0.0
1630611366.30042601,45128608,0.0,0.09,0.0,0.07,352.87,352.88,0.0,0.0
1630611366.40038610,45228568,0.0,0.09,0.0,0.07,352.87,352.88,0.0,0.0
1630611366.50034595,45328528,0.0,0.09,0.0,0.07,352.87,352.88,0.0,0.0
1630611366.60030603,45428488,0.0,0.09,0.0,0.07,352.87,352.88,0.0,0.0
1630611366.70026612,45528448,0.0,0.09,0.0,0.07,352.87,352.88,0.0,0.0
1630611366.80022597,45628408,0.0,0.08,0.0,0.07,352.87,352.88,0.0,0.0
1630611366.90018606,45728368,0.0,0.08,0.0,0.07,352.87,352.88,0.0,0.0
1630611367.00014591,45828328,0.0,0.08,0.0,0.07,352.87,352.88,0.0,0.0
1630611367.10010600,45928288,0.0,0.08,0.0,0.07,352.87,352.88,0.0,0.0
1630611367.20006609,46028248,0.0,0.08,0.0,0.07,352.87,352.88,0.0,0.0
1630611367.30002594,46128208,0.0,0.08,0.0,0.07,352.87,352.88,0.0,0.0
1630611367.39998603,46228168,0.0,0.08,0.0,0.07,352.87,352.88,0.0,0.0
1630611367.50077891,46328961,0.0,0.08,0.0,0.07,352.87,352.88,0.0,0.0
1630611367.60073900,46428921,0.0,0.08,0.0,0.07,352.87,352.88,0.0,0.0
1630611367.70069909,46528881,0.0,0.08,0.0,0.07,352.87,352.88,0.0,0.0
1630611367.80065894,46628841,0.0,0.08,0.0,0.07,352.87,352.88,0.0,0.0
1630611367.90061903,46728801,0.0,0.08,0.0,0.06,352.87,352.88,0.0,0.0
1630611368.00057912,46828761,0.0,0.08,0.0,0.06,352.87,352.88,0.0,0.0
1630611368.10053897,46928721,0.0,0.08,0.0,0.06,352.87,352.88,0.0,0.0
1630611368.20049906,47028681,0.0,0.08,0.0,0.06,352.87,352.88,0.0,0.0
1630611368.30045891,47128641,0.0,0.08,0.0,0.06,352.87,352.88,0.0,0.0
1630611368.40041900,47228601,0.0,0.08,0.0,0.06,352.87,352.88,0.0,0.0
1630611368.50037909,47328561,0.0,0.08,0.0,0.06,352.87,352.88,0.0,0.0
1630611368.60033894,47428521,0.0,0.08,0.0,0.06,352.87,352.88,0.0,0.0
1630611368.70029902,47528481,0.0,0.08,0.0,0.06,352.87,352.88,0.0,0.0
1630611368.80025911,47628441,0.0,0.08,0.0,0.06,352.87,352.88,0.0,0.0
1630611368.90021896,47728401,0.0,0.08,0.0,0.06,352.87,352.88,0.0,0.0
1630611369.00017905,47828361,0.0,0.08,0.0,0.06,352.87,352.88,0.0,0.0
1630611369.10013890,47928321,0.0,0.08,0.0,0.06,352.87,352.88,0.0,0.0
1630611369.20009899,48028281,0.0,0.08,0.0,0.06,352.87,352.88,0.0,0.0
1630611369.30005908,48128241,0.0,0.08,0.0,0.06,352.88,352.89,0.0,0.0
1630611369.40001893,48228201,0.0,0.08,0.0,0.06,352.88,352.89,0.0,0.0
1630611369.49997902,48328161,-0.08,0.08,-0.08,0.06,352.88,352.89,0.0,0.0
1630611369.60077190,48428954,-0.05,0.08,-0.05,0.06,352.88,352.89,0.0,0.0
1630611369.70073199,48528914,-0.09,0.08,-0.1,0.06,352.88,352.89,0.0,0.0
1630611369.80069208,48628874,-0.15,0.08,-0.16,0.06,352.88,352.89,0.0,0.0
1630611369.90065193,48728834,-0.2,0.08,-0.2,0.07,352.88,352.89,0.0,0.0
1630611370.00061202,48828794,-0.23,0.08,-0.24,0.07,352.88,352.89,0.0,0.0
1630611370.10057211,48928754,-0.26,0.08,-0.27,0.07,352.88,352.89,0.0,0.0
1630611370.20053196,49028714,-0.28,0.08,-0.3,0.07,352.88,352.89,0.0,0.0
1630611370.30049205,49128674,-0.3,0.08,-0.31,0.07,352.88,352.89,0.0,0.0
1630611370.40045214,49228634,-0.32,0.08,-0.32,0.07,352.88,352.89,0.0,0.0
1630611370.50041199,49328594,-0.36,0.08,-0.34,0.07,352.88,352.89,0.0,0.0
1630611370.60037208,49428554,-0.4,0.08,-0.37,0.07,352.88,352.89,0.0,0.0
1630611370.70033193,49528514,-0.42,0.08,-0.4,0.07,352.88,352.89,0.0,0.0
1630611370.80029202,49628474,-0.44,0.08,-0.42,0.07,352.88,352.89,0.0,0.0
1630611370.90025210,49728434,-0.46,0.08,-0.41,0.07,352.88,352.89,0.0,0.0
1630611371.00021195,49828394,-0.5,0.05,-0.4,0.04,352.88,352.89,0.0,0.0
1630611371.10017204,49928354,-0.47,-0.19,-0.43,-0.19,352.88,352.89,0.0,0.0
1630611371.20013213,50028314,-0.43,-0.48,-0.45,-0.49,352.88,352.89,0.0,0.0
1630611371.30009198,50128274,-0.34,-0.66,-0.38,-0.69,352.88,352.89,0.0,0.0
1630611371.40005207,50228234,-0.21,-0.69,-0.23,-0.71,352.88,352.89,0.0,0.0
1630611371.50001192,50328194,-0.02,-0.57,-0.04,-0.58,352.88,352.88,0.0,0.0
1630611371.59997201,50428154,0.16,-0.36,0.11,-0.37,352.88,352.88,0.0,0.0
1630611371.70076513,50528947,0.33,-0.11,0.22,-0.16,352.88,352.88,0.0,0.0
1630611371.80072498,50628907,0.43,0.09,0.3,0.0,352.88,352.87,0.0,0.0
1630611371.90068507,50728867,0.45,0.21,0.35,0.1,352.88,352.87,0.0,0.0
1630611372.00064492,50828827,0.44,0.26,0.39,0.17,352.88,352.87,0.0,0.0
1630611372.10060501,50928787,0.44,0.26,0.42,0.22,352.88,352.88,0.0,0.0
1630611372.20056510,51028747,0.44,0.24,0.39,0.22,352.88,352.88,0.0,0.0
1630611372.30052495,51128707,0.42,0.23,0.35,0.19,352.88,352.88,0.0,0.0
1630611372.40048504,51228667,0.45,0.23,0.32,0.16,352.88,352.88,0.0,0.0
1630611372.50044513,51328627,0.49,0.28,0.32,0.15,352.88,352.88,0.0,0.0
1630611372.60040498,51428587,0.49,0.33,0.35,0.16,352.88,352.88,0.0,0.0
1630611372.70036507,51528547,0.45,0.34,0.4,0.22,352.88,352.88,0.0,0.0
1630611372.80032492,51628507,0.41,0.3,0.41,0.26,352.77,352.78,0.0,0.0
1630611372.90028501,51728467,0.35,0.25,0.38,0.28,352.77,352.78,0.0,0.0
1630611373.00024509,51828427,0.31,0.2,0.35,0.27,352.77,352.78,0.0,0.0
1630611373.10020494,51928387,0.28,0.16,0.33,0.26,352.77,352.78,0.0,0.0
1630611373.20016503,52028347,0.25,0.14,0.32,0.25,352.77,352.78,0.0,0.0
1630611373.30012512,52128307,0.23,0.13,0.29,0.24,352.77,352.79,0.0,0.0
1630611373.40008497,52228267,0.2,0.11,0.24,0.2,352.77,352.79,0.0,0.0
1630611373.50004506,52328227,0.2,0.1,0.21,0.15,352.77,352.78,0.0,0.0
1630611373.60000491,52428187,0.2,0.12,0.2,0.14,352.77,352.78,0.0,0.0
1630611373.70079803,52528980,0.2,0.14,0.17,0.12,352.77,352.78,0.0,0.0
1630611373.80075812,52628940,0.17,0.14,0.14,0.1,352.77,352.78,0.0,0.0
1630611373.90071797,52728900,0.13,0.11,0.14,0.08,352.77,352.78,0.0,0.0
1630611374.00067806,52828860,0.13,0.09,0.14,0.08,352.77,352.78,0.0,0.0
1630611374.10063791,52928820,0.11,0.07,0.18,0.12,352.77,352.78,0.0,0.0
1630611374.20059800,53028780,0.08,0.04,0.19,0.15,352.77,352.78,0.0,0.0
1630611374.30055809,53128740,0.08,0.04,0.15,0.15,352.77,352.78,0.0,0.0
1630611374.40051794,53228700,0.06,0.03,0.11,0.12,352.77,352.78,0.0,0.0
1630611374.50047803,53328660,0.04,0.02,0.07,0.08,352.77,352.78,0.0,0.0
1630611374.60043812,53428620,0.04,0.01,0.05,0.04,352.77,352.78,0.0,0.0
1630611374.70039797,53528580,0.05,0.01,0.06,0.02,352.77,352.78,0.0,0.0
1630611374.80035806,53628540,0.05,0.01,0.1,0.03,352.77,352.78,0.0,0.0
1630611374.90031791,53728500,0.08,0.04,0.11,0.07,352.77,352.78,0.0,0.0
1630611375.00027800,53828460,0.11,0.08,0.15,0.11,352.77,352.78,0.0,0.0
1630611375.10023808,53928420,0.12,0.11,0.14,0.13,352.77,352.78,0.0,0.0
1630611375.20019794,54028380,0.11,0.12,0.11,0.12,352.77,352.78,0.0,0.0
1630611375.30015802,54128340,0.06,0.09,0.06,0.09,352.77,352.78,0.0,0.0
1630611375.40011811,54228300,0.01,0.03,0.02,0.04,352.77,352.78,0.0,0.0
1630611375.50007796,54328260,-0.01,-0.01,0.0,0.0,352.77,352.78,0.0,0.0
1630611375.60003805,54428220,0.0,-0.03,0.02,-0.01,352.77,352.78,0.0,0.0
1630611375.69999790,54528180,0.04,-0.01,0.06,0.0,352.77,352.78,0.0,0.0
1630611375.80079103,54628973,0.06,0.02,0.07,0.04,352.77,352.78,0.0,0.0
1630611375.90075111,54728933,0.08,0.05,0.04,0.04,352.77,352.78,0.0,0.0
1630611376.00071096,54828893,0.12,0.09,0.02,0.02,352.77,352.78,0.0,0.0
1630611376.10067105,54928853,0.13,0.12,0.01,0.01,352.77,352.78,0.0,0.0
1630611376.20063090,55028813,0.12,0.13,0.0,0.0,352.77,352.79,0.0,0.0
1630611376.30059099,55128773,0.07,0.11,0.01,0.0,352.77,352.79,0.0,0.0
1630611376.40055108,55228733,0.04,0.07,0.0,0.0,352.77,352.79,0.0,0.0
1630611376.50051093,55328693,0.03,0.03,0.02,0.0,352.77,352.79,0.0,0.0
1630611376.60047102,55428653,0.05,0.03,0.09,0.06,352.77,352.78,0.0,0.0
1630611376.70043111,55528613,0.1,0.07,0.09,0.1,352.77,352.78,0.0,0.0
1630611376.80039096,55628573,0.12,0.11,0.08,0.1,352.77,352.77,0.0,0.0
1630611376.90035105,55728533,0.12,0.13,0.06,0.1,352.77,352.77,0.0,0.0
1630611377.00031114,55828493,0.09,0.12,0.05,0.07,352.77,352.77,0.0,0.0
1630611377.10027099,55928453,0.1,0.1,0.06,0.05,352.77,352.76,0.0,0.0
1630611377.20023108,56028413,0.12,0.1,0.06,0.03,352.77,352.76,0.0,0.0
1630611377.30019093,56128373,0.12,0.11,0.08,0.04,352.77,352.77,0.0,0.0
1630611377.40015101,56228333,0.13,0.11,0.08,0.05,352.77,352.77,0.0,0.0
1630611377.50011110,56328293,0.13,0.11,0.09,0.07,352.77,352.77,0.0,0.0
1630611377.60007095,56428253,0.11,0.1,0.12,0.1,352.77,352.78,0.0,0.0
1630611377.70003104,56528213,0.12,0.1,0.14,0.13,352.77,352.78,0.0,0.0
1630611377.79999113,56628173,0.14,0.11,0.13,0.14,352.77,352.78,0.0,0.0
1630611377.90078402,56728966,0.16,0.13,0.12,0.13,352.77,352.79,0.0,0.0
1630611378.00074410,56828926,0.16,0.16,0.1,0.13,352.77,352.79,0.0,0.0
1630611378.10070395,56928886,0.14,0.16,0.11,0.12,352.77,352.79,0.0,0.0
1630611378.20066404,57028846,0.12,0.13,0.11,0.11,352.77,352.79,0.0,0.0
1630611378.30062413,57128806,0.1,0.12,0.14,0.12,352.77,352.79,0.0,0.0
1630611378.40058398,57228766,0.09,0.09,0.14,0.13,352.77,352.79,0.0,0.0
1630611378.50054407,57328726,0.09,0.08,0.17,0.15,352.77,352.78,0.0,0.0
1630611378.60050392,57428686,0.09,0.08,0.2,0.18,352.77,352.78,0.0,0.0
1630611378.70046401,57528646,0.06,0.05,0.21,0.21,352.77,352.78,0.0,0.0
1630611378.80042410,57628606,0.05,0.04,0.19,0.21,352.77,352.78,0.0,0.0
1630611378.90038395,57728566,0.09,0.06,0.2,0.21,352.77,352.78,0.0,0.0
1630611379.00034404,57828526,0.11,0.09,0.2,0.21,352.77,352.78,0.0,0.0
1630611379.10030413,57928486,0.11,0.1,0.19,0.19,352.77,352.78,0.0,0.0
1630611379.20026398,58028446,0.1,0.1,0.16,0.17,352.77,352.78,0.0,0.0
1630611379.30022407,58128406,0.06,0.08,0.13,0.12,352.77,352.78,0.0,0.0
1630611379.40018392,58228366,0.05,0.05,0.1,0.09,352.77,352.78,0.0,0.0
1630611379.50014400,58328326,0.02,0.02,0.1,0.07,352.77,352.78,0.0,0.0
1630611379.60010409,58428286,0.03,0.01,0.1,0.08,352.77,352.78,0.0,0.0
1630611379.70006394,58528246,0.04,0.02,0.1,0.09,352.77,352.78,0.0,0.0
1630611379.80002403,58628206,0.04,0.02,0.08,0.08,352.77,352.78,0.0,0.0
1630611379.89998412,58728166,0.05,0.04,0.09,0.08,352.77,352.78,0.0,0.0
1630611380.00077701,58828959,0.05,0.05,0.07,0.07,352.77,352.78,0.0,0.0
1630611380.10073709,58928919,0.06,0.06,0.03,0.05,352.77,352.78,0.0,0.0
1630611380.20069695,59028879,0.09,0.07,0.0,0.01,352.77,352.78,0.0,0.0
1630611380.30065703,59128839,0.11,0.1,-0.03,-0.02,352.77,352.78,0.0,0.0
1630611380.40061712,59228799,0.12,0.12,-0.04,-0.06,352.77,352.78,0.0,0.0
1630611380.50057697,59328759,0.14,0.14,-0.01,-0.06,352.77,352.78,0.0,0.0
1630611380.60053706,59428719,0.15,0.15,0.02,-0.03,352.77,352.78,0.0,0.0
1630611380.70049691,59528679,0.13,0.15,0.03,0.0,352.77,352.78,0.0,0.0
1630611380.80045700,59628639,0.12,0.13,0.04,0.02,352.77,352.78,0.0,0.0
1630611380.90041709,59728599,0.09,0.11,0.02,0.03,352.77,352.78,0.0,0.0
1630611381.00037694,59828559,0.06,0.07,0.01,0.03,352.77,352.78,0.0,0.0
1630611381.10033703,59928519,0.07,0.05,0.0,0.01,352.77,352.78,0.0,0.0
1630611381.20029712,60028479,0.1,0.06,-0.02,0.0,352.77,352.78,0.0,0.0
1630611381.30025697,60128439,0.1,0.08,-0.05,-0.03,352.77,352.78,0.0,0.0
1630611381.40021706,60228399,0.1,0.09,-0.02,-0.04,352.77,352.78,0.0,0.0
1630611381.50017691,60328359,0.09,0.09,0.02,-0.01,352.77,352.78,0.0,0.0
1630611381.60013700,60428319,0.09,0.09,0.06,0.04,352.77,352.78,0.0,0.0
1630611381.70009708,60528279,0.08,0.08,0.07,0.08,352.77,352.78,0.0,0.0
1630611381.80005693,60628239,0.07,0.07,0.06,0.09,352.77,352.78,0.0,0.0
1630611381.90001702,60728199,0.09,0.07,0.03,0.06,352.77,352.78,0.0,0.0
1630611381.99997711,60828159,0.13,0.08,0.04,0.04,352.77,352.78,0.0,0.0
1630611382.10077000,60928952,0.13,0.11,0.02,0.03,352.77,352.78,0.0,0.0
1630611382.20073009,61028912,0.11,0.12,0.01,0.01,352.77,352.78,0.0,0.0
1630611382.30068994,61128872,0.08,0.1,0.03,0.01,352.77,352.78,0.0,0.0
1630611382.40065002,61228832,0.09,0.09,0.05,0.03,352.77,352.78,0.0,0.0
1630611382.50061011,61328792,0.12,0.11,0.06,0.05,352.77,352.78,0.0,0.0
1630611382.60056996,61428752,0.13,0.12,0.07,0.06,352.77,352.78,0.0,0.0
1630611382.70053005,61528712,0.12,0.12,0.07,0.07,352.77,352.78,0.0,0.0
1630611382.80048990,61628672,0.12,0.11,0.07,0.08,352.77,352.78,0.0,0.0
1630611382.90044999,61728632,0.13,0.12,0.09,0.08,352.77,352.78,0.0,0.0
1630611383.00041008,61828592,0.13,0.13,0.12,0.1,352.77,352.78,0.0,0.0
1630611383.10036993,61928552,0.15,0.14,0.12,0.11,352.77,352.78,0.0,0.0
1630611383.20033002,62028512,0.14,0.14,0.07,0.09,352.77,352.78,0.0,0.0
1630611383.30029011,62128472,0.1,0.1,0.06,0.06,352.77,352.78,0.0,0.0
1630611383.40024996,62228432,0.1,0.08,0.08,0.04,352.77,352.78,0.0,0.0
1630611383.50021005,62328392,0.14,0.1,0.11,0.07,352.77,352.78,0.0,0.0
1630611383.60017014,62428352,0.16,0.14,0.14,0.1,352.77,352.79,0.0,0.0
1630611383.70012999,62528312,0.16,0.16,0.15,0.14,352.77,352.79,0.0,0.0
1630611383.80009007,62628272,0.13,0.15,0.13,0.15,352.77,352.79,0.0,0.0
1630611383.90004992,62728232,0.08,0.11,0.1,0.12,352.77,352.79,0.0,0.0
1630611384.00001001,62828192,0.06,0.07,0.08,0.08,352.77,352.79,0.0,0.0
1630611384.10080314,62928985,0.06,0.05,0.08,0.06,352.77,352.79,0.0,0.0
1630611384.20076299,63028945,0.06,0.04,0.09,0.06,352.77,352.78,0.0,0.0
1630611384.30072308,63128905,0.05,0.03,0.11,0.09,352.77,352.78,0.0,0.0
1630611384.40068293,63228865,0.05,0.03,0.13,0.11,352.77,352.78,0.0,0.0
1630611384.50064301,63328825,0.03,0.03,0.17,0.15,352.77,352.78,0.0,0.0
1630611384.60060310,63428785,0.04,0.03,0.22,0.19,352.77,352.78,0.0,0.0
1630611384.70056295,63528745,0.06,0.05,0.22,0.22,352.77,352.78,0.0,0.0
1630611384.80052304,63628705,0.07,0.06,0.2,0.21,352.77,352.78,0.0,0.0
1630611384.90048313,63728665,0.09,0.07,0.19,0.2,352.77,352.78,0.0,0.0
1630611385.00044298,63828625,0.1,0.08,0.18,0.19,352.77,352.78,0.0,0.0
1630611385.10040307,63928585,0.11,0.1,0.16,0.17,352.77,352.78,0.0,0.0
1630611385.20036292,64028545,0.1,0.1,0.14,0.14,352.77,352.78,0.0,0.0
1630611385.30032301,64128505,0.1,0.1,0.16,0.13,352.77,352.77,0.0,0.0
1630611385.40028310,64228465,0.09,0.09,0.15,0.13,352.77,352.77,0.0,0.0
1630611385.50024295,64328425,0.08,0.09,0.11,0.12,352.77,352.77,0.0,0.0
1630611385.60020304,64428385,0.08,0.08,0.1,0.1,352.77,352.77,0.0,0.0
1630611385.70016313,64528345,0.07,0.07,0.09,0.08,352.77,352.77,0.0,0.0
1630611385.80012298,64628305,0.1,0.08,0.08,0.07,352.77,352.78,0.0,0.0
1630611385.90008307,64728265,0.12,0.11,0.08,0.07,352.77,352.78,0.0,0.0
1630611386.00004292,64828225,0.11,0.12,0.07,0.07,352.77,352.78,0.0,0.0
1630611386.10000300,64928185,0.13,0.12,0.06,0.06,352.77,352.78,0.0,0.0
1630611386.20079613,65028978,0.13,0.13,0.07,0.05,352.77,352.78,0.0,0.0
1630611386.30075598,65128938,0.14,0.14,0.07,0.06,352.77,352.79,0.0,0.0
1630611386.40071607,65228898,0.17,0.15,0.08,0.06,352.77,352.79,0.0,0.0
1630611386.50067592,65328858,0.15,0.16,0.09,0.07,352.77,352.78,0.0,0.0
1630611386.60063601,65428818,0.09,0.12,0.13,0.1,352.77,352.78,0.0,0.0
1630611386.70059609,65528778,0.07,0.08,0.16,0.14,352.77,352.78,0.0,0.0
1630611386.80055594,65628738,0.06,0.04,0.17,0.17,352.77,352.78,0.0,0.0
1630611386.90051603,65728698,0.07,0.04,0.12,0.16,352.77,352.78,0.0,0.0
1630611387.00047612,65828658,0.08,0.05,0.1,0.13,352.77,352.77,0.0,0.0
1630611387.10043597,65928618,0.08,0.06,0.08,0.1,352.77,352.77,0.0,0.0
1630611387.20039606,66028578,0.09,0.08,0.05,0.07,352.77,352.77,0.0,0.0
1630611387.30035591,66128538,0.08,0.08,0.02,0.03,352.77,352.77,0.0,0.0
1630611387.40031600,66228498,0.06,0.06,0.02,0.0,352.77,352.77,0.0,0.0
1630611387.50027609,66328458,0.05,0.03,0.04,0.0,352.77,352.77,0.0,0.0
1630611387.60023594,66428418,0.07,0.03,0.07,0.02,352.77,352.77,0.0,0.0
1630611387.70019603,66528378,0.07,0.04,0.1,0.05,352.77,352.77,0.0,0.0
1630611387.80015612,66628338,0.09,0.05,0.12,0.09,352.77,352.77,0.0,0.0
1630611387.90011597,66728298,0.09,0.07,0.12,0.11,352.77,352.77,0.0,0.0
1630611388.00007606,66828258,0.09,0.08,0.12,0.12,352.77,352.78,0.0,0.0
1630611388.10003591,66928218,0.09,0.1,0.09,0.11,352.77,352.78,0.0,0.0
1630611388.19999599,67028178,0.08,0.1,0.05,0.07,352.77,352.78,0.0,0.0
1630611388.30078912,67128971,0.05,0.07,0.04,0.05,352.77,352.78,0.0,0.0
1630611388.40074897,67228931,0.06,0.05,0.08,0.06,352.77,352.78,0.0,0.0
1630611388.50070906,67328891,0.12,0.09,0.11,0.09,352.77,352.78,0.0,0.0
1630611388.60066891,67428851,0.17,0.14,0.13,0.12,352.77,352.78,0.0,0.0
1630611388.70062900,67528811,0.21,0.19,0.12,0.14,352.77,352.78,0.0,0.0
1630611388.80058908,67628771,0.2,0.21,0.12,0.13,352.77,352.79,0.0,0.0
1630611388.90054893,67728731,0.19,0.2,0.12,0.13,352.77,352.79,0.0,0.0
1630611389.00050902,67828691,0.19,0.2,0.11,0.12,352.77,352.79,0.0,0.0
1630611389.10046911,67928651,0.17,0.19,0.09,0.09,352.77,352.79,0.0,0.0
1630611389.20042896,68028611,0.14,0.16,0.11,0.08,352.77,352.79,0.0,0.0
1630611389.30038905,68128571,0.1,0.13,0.12,0.1,352.77,352.79,0.0,0.0
1630611389.40034890,68228531,0.1,0.09,0.14,0.11,352.77,352.79,0.0,0.0
1630611389.50030899,68328491,0.13,0.09,0.16,0.14,352.77,352.79,0.0,0.0
1630611389.60026908,68428451,0.17,0.12,0.16,0.15,352.77,352.79,0.0,0.0
1630611389.70022893,68528411,0.19,0.16,0.15,0.16,352.77,352.79,0.0,0.0
1630611389.80018902,68628371,0.19,0.18,0.14,0.15,352.77,352.78,0.0,0.0
1630611389.90014911,68728331,0.18,0.18,0.11,0.12,352.77,352.78,0.0,0.0
1630611390.00010896,68828291,0.14,0.16,0.07,0.08,352.77,352.78,0.0,0.0
1630611390.10006905,68928251,0.13,0.14,0.07,0.06,352.77,352.78,0.0,0.0
1630611390.20002913,69028211,0.13,0.13,0.1,0.07,352.77,352.78,0.0,0.0
1630611390.29998899,69128171,0.14,0.13,0.12,0.1,352.77,352.77,0.0,0.0
1630611390.40078211,69228964,0.15,0.14,0.13,0.11,352.77,352.77,0.0,0.0
1630611390.50074196,69328924,0.14,0.14,0.16,0.14,352.77,352.77,0.0,0.0
1630611390.60070205,69428884,0.1,0.12,0.16,0.16,352.77,352.77,0.0,0.0
1630611390.70066214,69528844,0.08,0.09,0.15,0.16,352.77,352.77,0.0,0.0
1630611390.80062199,69628804,0.1,0.08,0.14,0.15,352.77,352.78,0.0,0.0
1630611390.90058208,69728764,0.13,0.11,0.12,0.13,352.77,352.78,0.0,0.0
1630611391.00054193,69828724,0.14,0.13,0.11,0.12,352.77,352.78,0.0,0.0
1630611391.10050201,69928684,0.13,0.14,0.14,0.12,352.77,352.78,0.0,0.0
1630611391.20046210,70028644,0.09,0.11,0.14,0.13,352.77,352.78,0.0,0.0
1630611391.30042195,70128604,0.07,0.07,0.1,0.12,352.77,352.78,0.0,0.0
1630611391.40038204,70228564,0.08,0.07,0.07,0.08,352.77,352.78,0.0,0.0
1630611391.50034213,70328524,0.13,0.1,0.06,0.05,352.77,352.78,0.0,0.0
1630611391.60030198,70428484,0.14,0.13,0.05,0.04,352.77,352.78,0.0,0.0
1630611391.70026207,70528444,0.12,0.13,0.06,0.03,352.77,352.78,0.0,0.0
1630611391.80022192,70628404,0.11,0.12,0.08,0.05,352.77,352.78,0.0,0.0
1630611391.90018201,70728364,0.09,0.1,0.07,0.06,352.77,352.78,0.0,0.0
1630611392.00014210,70828324,0.08,0.08,0.05,0.05,352.77,352.78,0.0,0.0
1630611392.10010195,70928284,0.08,0.08,0.05,0.05,352.77,352.78,0.0,0.0
1630611392.20006204,71028244,0.08,0.08,0.06,0.05,352.77,352.78,0.0,0.0
1630611392.30002213,71128204,0.06,0.08,0.07,0.06,352.77,352.78,0.0,0.0
1630611392.39998198,71228164,0.04,0.05,0.06,0.06,352.77,352.77,0.0,0.0
1630611392.50077510,71328957,0.04,0.04,0.04,0.05,352.77,352.77,0.0,0.0
1630611392.60073495,71428917,0.06,0.04,0.03,0.02,352.77,352.77,0.0,0.0
1630611392.70069504,71528877,0.1,0.05,0.02,0.01,352.77,352.77,0.0,0.0
1630611392.80065513,71628837,0.11,0.07,0.04,0.0,352.77,352.77,0.0,0.0
1630611392.90061498,71728797,0.14,0.11,0.06,0.03,352.77,352.77,0.0,0.0
1630611393.00057507,71828757,0.17,0.15,0.09,0.07,352.77,352.77,0.0,0.0
1630611393.10053492,71928717,0.15,0.16,0.1,0.1,352.77,352.77,0.0,0.0
1630611393.20049500,72028677,0.09,0.12,0.06,0.09,352.77,352.77,0.0,0.0
1630611393.30045509,72128637,0.06,0.08,0.02,0.05,352.77,352.77,0.0,0.0
1630611393.40041494,72228597,0.05,0.04,0.03,0.02,352.77,352.77,0.0,0.0
1630611393.50037503,72328557,0.05,0.02,0.05,0.02,352.77,352.77,0.0,0.0
1630611393.60033512,72428517,0.07,0.04,0.06,0.04,352.77,352.77,0.0,0.0
1630611393.70029497,72528477,0.09,0.07,0.09,0.07,352.77,352.77,0.0,0.0
1630611393.80025506,72628437,0.08,0.09,0.09,0.1,352.77,352.77,0.0,0.0
1630611393.90021491,72728397,0.02,0.06,0.12,0.11,352.77,352.78,0.0,0.0
1630611394.00017500,72828357,-0.02,0.0,0.15,0.14,352.77,352.78,0.0,0.0
1630611394.10013509,72928317,-0.04,-0.05,0.13,0.15,352.77,352.78,0.0,0.0
1630611394.20009494,73028277,0.0,-0.05,0.11,0.12,352.77,352.78,0.0,0.0
1630611394.30005503,73128237,0.05,-0.01,0.11,0.1,352.77,352.78,0.0,0.0
1630611394.40001512,73228197,0.08,0.02,0.09,0.08,352.77,352.79,0.0,0.0
1630611394.49997497,73328157,0.09,0.07,0.07,0.06,352.77,352.79,0.0,0.0
1630611394.60076809,73428950,0.12,0.1,0.1,0.07,352.77,352.79,0.0,0.0
1630611394.70072794,73528910,0.14,0.13,0.13,0.1,352.77,352.79,0.0,0.0
1630611394.80068803,73628870,0.13,0.14,0.12,0.12,352.77,352.79,0.0,0.0
1630611394.90064812,73728830,0.17,0.16,0.1,0.12,352.77,352.78,0.0,0.0
1630611395.00060797,73828790,0.2,0.19,0.07,0.09,352.77,352.78,0.0,0.0
1630611395.10056806,73928750,0.19,0.21,0.07,0.08,352.77,352.78,0.0,0.0
1630611395.20052791,74028710,0.16,0.18,0.08,0.07,352.77,352.77,0.0,0.0
1630611395.30048800,74128670,0.16,0.16,0.11,0.08,352.77,352.77,0.0,0.0
1630611395.40044808,74228630,0.18,0.16,0.15,0.11,352.77,352.77,0.0,0.0
1630611395.50040793,74328590,0.19,0.18,0.15,0.14,352.77,352.77,0.0,0.0
1630611395.60036802,74428550,0.18,0.18,0.14,0.14,352.77,352.77,0.0,0.0
1630611395.70032811,74528510,0.19,0.18,0.1,0.13,352.77,352.77,0.0,0.0
1630611395.80028796,74628470,0.19,0.19,0.05,0.08,352.77,352.77,0.0,0.0
1630611395.90024805,74728430,0.2,0.2,0.03,0.04,352.77,352.77,0.0,0.0
1630611396.00020790,74828390,0.21,0.21,0.02,0.02,352.77,352.77,0.0,0.0
1630611396.10016799,74928350,0.17,0.2,0.01,0.0,352.77,352.77,0.0,0.0
1630611396.20012808,75028310,0.13,0.16,0.04,0.0,352.77,352.77,0.0,0.0
1630611396.30008793,75128270,0.13,0.13,0.05,0.02,352.77,352.77,0.0,0.0
1630611396.40004802,75228230,0.16,0.14,0.04,0.03,352.77,352.77,0.0,0.0
1630611396.50000811,75328190,0.18,0.16,0.05,0.03,352.77,352.77,0.0,0.0
1630611396.60080099,75428983,0.22,0.19,0.06,0.05,352.77,352.77,0.0,0.0
1630611396.70076108,75528943,0.25,0.23,0.06,0.06,352.77,352.77,0.0,0.0
1630611396.80072093,75628903,0.24,0.25,0.02,0.04,352.77,352.77,0.0,0.0
1630611396.90068102,75728863,0.19,0.22,0.03,0.02,352.77,352.77,0.0,0.0
1630611397.00064111,75828823,0.16,0.19,0.04,0.02,352.77,352.77,0.0,0.0
1630611397.10060096,75928783,0.17,0.16,0.05,0.02,352.77,352.77,0.0,0.0
1630611397.20056105,76028743,0.18,0.17,0.06,0.03,352.77,352.77,0.0,0.0
1630611397.30052114,76128703,0.16,0.17,0.08,0.05,352.77,352.77,0.0,0.0
1630611397.40048099,76228663,0.15,0.15,0.1,0.08,352.77,352.77,0.0,0.0
1630611397.50044107,76328623,0.17,0.15,0.09,0.09,352.77,352.77,0.0,0.0
1630611397.60040092,76428583,0.19,0.17,0.09,0.08,352.77,352.77,0.0,0.0
1630611397.70036101,76528543,0.2,0.18,0.12,0.1,352.77,352.77,0.0,0.0
1630611397.80032110,76628503,0.2,0.19,0.13,0.13,352.77,352.78,0.0,0.0
1630611397.90028095,76728463,0.18,0.18,0.13,0.14,352.77,352.78,0.0,0.0
1630611398.00024104,76828423,0.15,0.16,0.13,0.14,352.77,352.78,0.0,0.0
1630611398.10020113,76928383,0.12,0.12,0.15,0.14,352.77,352.78,0.0,0.0
1630611398.20016098,77028343,0.11,0.09,0.13,0.14,352.77,352.78,0.0,0.0
1630611398.30012107,77128303,0.13,0.09,0.13,0.13,352.77,352.78,0.0,0.0
1630611398.40008092,77228263,0.17,0.13,0.14,0.14,352.77,352.78,0.0,0.0
1630611398.50004101,77328223,0.21,0.18,0.14,0.14,352.77,352.78,0.0,0.0
1630611398.60000110,77428183,0.18,0.2,0.11,0.12,352.77,352.77,0.0,0.0
1630611398.70079398,77528976,0.14,0.17,0.12,0.11,352.77,352.77,0.0,0.0
1630611398.80075407,77628936,0.09,0.12,0.11,0.1,352.77,352.77,0.0,0.0
1630611398.90071392,77728896,0.08,0.07,0.08,0.08,352.77,352.77,0.0,0.0
1630611399.00067401,77828856,0.1,0.07,0.09,0.07,352.77,352.77,0.0,0.0
1630611399.10063410,77928816,0.11,0.08,0.12,0.09,352.77,352.77,0.0,0.0
1630611399.20059395,78028776,0.13,0.1,0.14,0.13,352.77,352.77,0.0,0.0
1630611399.30055404,78128736,0.13,0.12,0.11,0.13,352.77,352.78,0.0,0.0
1630611399.40051413,78228696,0.12,0.12,0.04,0.09,352.77,352.78,0.0,0.0
1630611399.50047398,78328656,0.09,0.11,0.0,0.03,352.77,352.78,0.0,0.0
1630611399.60043406,78428616,0.09,0.1,0.01,0.0,352.77,352.78,0.0,0.0
1630611399.70039392,78528576,0.09,0.09,0.07,0.03,352.77,352.78,0.0,0.0
1630611399.80035400,78628536,0.09,0.08,0.12,0.08,352.77,352.78,0.0,0.0
1630611399.90031409,78728496,0.08,0.07,0.15,0.13,352.77,352.78,0.0,0.0
1630611400.00027394,78828456,0.06,0.06,0.15,0.16,352.77,352.78,0.0,0.0
1630611400.10023403,78928416,0.07,0.06,0.14,0.15,352.77,352.78,0.0,0.0
1630611400.20019412,79028376,0.07,0.06,0.13,0.13,352.77,352.77,0.0,0.0
1630611400.30015397,79128336,0.09,0.07,0.11,0.11,352.77,352.77,0.0,0.0
1630611400.40011406,79228296,0.11,0.09,0.09,0.09,352.77,352.77,0.0,0.0
1630611400.50007391,79328256,0.08,0.08,0.09,0.07,352.77,352.77,0.0,0.0
1630611400.60003400,79428216,0.06,0.06,0.13,0.09,352.77,352.77,0.0,0.0
1630611400.69999409,79528176,0.05,0.04,0.17,0.14,352.77,352.77,0.0,0.0
1630611400.80078697,79628969,0.08,0.06,0.18,0.17,352.77,352.77,0.0,0.0
1630611400.90074706,79728929,0.11,0.09,0.18,0.18,352.77,352.77,0.0,0.0
1630611401.00070691,79828889,0.11,0.12,0.17,0.19,352.77,352.77,0.0,0.0
1630611401.10066700,79928849,0.07,0.11,0.13,0.17,352.77,352.77,0.0,0.0
1630611401.20062709,80028809,0.03,0.06,0.1,0.12,352.77,352.77,0.0,0.0
1630611401.30058694,80128769,0.02,0.02,0.09,0.09,352.77,352.77,0.0,0.0
1630611401.40054703,80228729,0.06,0.02,0.1,0.07,352.77,352.77,0.0,0.0
1630611401.50050712,80328689,0.1,0.04,0.13,0.08,352.77,352.77,0.0,0.0
1630611401.60046697,80428649,0.13,0.09,0.15,0.11,352.77,352.77,0.0,0.0
1630611401.70042706,80528609,0.16,0.14,0.13,0.11,352.77,352.77,0.0,0.0
1630611401.80038691,80628569,0.18,0.17,0.13,0.11,352.77,352.77,0.0,0.0
1630611401.90034699,80728529,0.2,0.2,0.14,0.13,352.77,352.77,0.0,0.0
1630611402.00030708,80828489,0.18,0.2,0.15,0.13,352.77,352.77,0.0,0.0
1630611402.10026693,80928449,0.16,0.18,0.15,0.15,352.77,352.77,0.0,0.0
1630611402.20022702,81028409,0.15,0.15,0.15,0.15,352.77,352.77,0.0,0.0
1630611402.30018711,81128369,0.15,0.14,0.13,0.15,352.77,352.77,0.0,0.0
1630611402.40014696,81228329,0.15,0.12,0.11,0.13,352.77,352.78,0.0,0.0
1630611402.50010705,81328289,0.15,0.13,0.08,0.1,352.77,352.78,0.0,0.0
1630611402.60006690,81428249,0.15,0.13,0.07,0.08,352.77,352.78,0.0,0.0
1630611402.70002699,81528209,0.17,0.13,0.09,0.07,352.77,352.78,0.0,0.0
1630611402.79998708,81628169,0.19,0.15,0.09,0.07,352.77,352.78,0.0,0.0
1630611402.90077996,81728962,0.19,0.17,0.12,0.1,352.77,352.78,0.0,0.0
1630611403.00074005,81828922,0.19,0.18,0.16,0.14,352.77,352.78,0.0,0.0
1630611403.10069990,81928882,0.17,0.17,0.19,0.19,352.77,352.78,0.0,0.0
1630611403.20065999,82028842,0.17,0.16,0.2,0.22,352.77,352.78,0.0,0.0
1630611403.30062008,82128802,0.14,0.15,0.17,0.22,352.77,352.78,0.0,0.0
1630611403.40057993,82228762,0.08,0.11,0.12,0.17,352.77,352.78,0.0,0.0
1630611403.50054002,82328722,0.08,0.08,0.08,0.11,352.77,352.77,0.0,0.0
1630611403.60050011,82428682,0.08,0.06,0.08,0.07,352.77,352.77,0.0,0.0
1630611403.70045996,82528642,0.09,0.06,0.12,0.09,352.77,352.77,0.0,0.0
1630611403.80042005,82628602,0.12,0.08,0.14,0.11,352.77,352.77,0.0,0.0
1630611403.90038013,82728562,0.14,0.12,0.16,0.14,352.77,352.77,0.0,0.0
1630611404.00033998,82828522,0.15,0.15,0.14,0.15,352.77,352.77,0.0,0.0
1630611404.10030007,82928482,0.16,0.18,0.12,0.14,352.77,352.77,0.0,0.0
1630611404.20025992,83028442,0.15,0.18,0.11,0.12,352.77,352.77,0.0,0.0
1630611404.30022001,83128402,0.1,0.14,0.11,0.1,352.77,352.77,0.0,0.0
1630611404.40018010,83228362,0.06,0.08,0.11,0.09,352.77,352.77,0.0,0.0
1630611404.50013995,83328322,0.07,0.05,0.13,0.1,352.77,352.77,0.0,0.0
1630611404.60010004,83428282,0.07,0.05,0.14,0.11,352.77,352.78,0.0,0.0
1630611404.70006013,83528242,0.08,0.05,0.17,0.13,352.77,352.78,0.0,0.0
1630611404.80001998,83628202,0.09,0.07,0.18,0.15,352.77,352.78,0.0,0.0
1630611404.89998007,83728162,0.1,0.08,0.2,0.17,352.77,352.78,0.0,0.0
1630611405.00077295,83828955,0.13,0.1,0.2,0.18,352.77,352.78,0.0,0.0
1630611405.10073304,83928915,0.15,0.12,0.18,0.19,352.77,352.78,0.0,0.0
1630611405.20069313,84028875,0.17,0.15,0.17,0.17,352.77,352.78,0.0,0.0
1630611405.30065298,84128835,0.2,0.18,0.15,0.15,352.77,352.78,0.0,0.0
1630611405.40061307,84228795,0.2,0.21,0.1,0.11,352.77,352.78,0.0,0.0
1630611405.50057292,84328755,0.18,0.21,0.09,0.09,352.77,352.77,0.0,0.0
1630611405.60053301,84428715,0.16,0.19,0.1,0.09,352.77,352.77,0.0,0.0
1630611405.70049310,84528675,0.14,0.16,0.09,0.09,352.77,352.77,0.0,0.0
1630611405.80045295,84628635,0.13,0.14,0.07,0.07,352.77,352.77,0.0,0.0
1630611405.90041304,84728595,0.13,0.13,0.05,0.05,352.77,352.77,0.0,0.0
1630611406.00037313,84828555,0.15,0.13,0.05,0.03,352.77,352.77,0.0,0.0
1630611406.10033298,84928515,0.16,0.14,0.08,0.04,352.77,352.77,0.0,0.0
1630611406.20029306,85028475,0.13,0.14,0.1,0.06,352.77,352.77,0.0,0.0
1630611406.30025291,85128435,0.12,0.12,0.14,0.1,352.77,352.77,0.0,0.0
1630611406.40021300,85228395,0.1,0.1,0.19,0.16,352.77,352.77,0.0,0.0
1630611406.50017309,85328355,0.1,0.08,0.21,0.21,352.77,352.77,0.0,0.0
1630611406.60013294,85428315,0.13,0.08,0.22,0.25,352.77,352.77,0.0,0.0
1630611406.70009303,85528275,0.17,0.12,0.17,0.22,352.77,352.77,0.0,0.0
1630611406.80005312,85628235,0.16,0.15,0.09,0.14,352.77,352.77,0.0,0.0
1630611406.90001297,85728195,0.14,0.14,0.05,0.07,352.77,352.77,0.0,0.0
1630611406.99997306,85828155,0.13,0.14,0.04,0.02,352.77,352.77,0.0,0.0
1630611407.10076594,85928948,0.13,0.14,0.05,0.01,352.77,352.77,0.0,0.0
1630611407.20072603,86028908,0.13,0.13,0.08,0.03,352.77,352.77,0.0,0.0
1630611407.30068612,86128868,0.12,0.12,0.11,0.07,352.77,352.77,0.0,0.0
1630611407.40064597,86228828,0.13,0.12,0.12,0.1,352.77,352.77,0.0,0.0
1630611407.50060606,86328788,0.15,0.13,0.11,0.12,352.77,352.77,0.0,0.0
1630611407.60056591,86428748,0.16,0.15,0.11,0.11,352.77,352.77,0.0,0.0
1630611407.70052600,86528708,0.17,0.16,0.06,0.09,352.77,352.77,0.0,0.0
1630611407.80048609,86628668,0.14,0.16,0.05,0.05,352.77,352.77,0.0,0.0
1630611407.90044594,86728628,0.09,0.12,0.09,0.06,352.77,352.77,0.0,0.0
1630611408.00040603,86828588,0.05,0.07,0.13,0.1,352.77,352.77,0.0,0.0
1630611408.10036612,86928548,0.03,0.02,0.13,0.12,352.77,352.77,0.0,0.0
1630611408.20032597,87028508,0.06,0.01,0.12,0.13,352.77,352.77,0.0,0.0
1630611408.30028605,87128468,0.12,0.06,0.12,0.14,352.77,352.77,0.0,0.0
1630611408.40024590,87228428,0.17,0.13,0.13,0.13,352.77,352.77,0.0,0.0
1630611408.50020599,87328388,0.15,0.16,0.11,0.12,352.77,352.77,0.0,0.0
1630611408.60016608,87428348,0.15,0.17,0.07,0.08,352.77,352.77,0.0,0.0
1630611408.70012593,87528308,0.13,0.15,0.05,0.04,352.77,352.77,0.0,0.0
1630611408.80008602,87628268,0.13,0.13,0.05,0.02,352.77,352.78,0.0,0.0
1630611408.90004611,87728228,0.14,0.13,0.07,0.03,352.77,352.78,0.0,0.0
1630611409.00000596,87828188,0.15,0.14,0.11,0.06,352.77,352.78,0.0,0.0
1630611409.10079908,87928981,0.11,0.13,0.13,0.1,352.77,352.78,0.0,0.0
1630611409.20075893,88028941,0.06,0.09,0.14,0.13,352.77,352.78,0.0,0.0
1630611409.30071902,88128901,0.07,0.05,0.14,0.14,352.77,352.78,0.0,0.0
1630611409.40067911,88228861,0.09,0.05,0.14,0.14,352.77,352.79,0.0,0.0
1630611409.50063896,88328821,0.11,0.07,0.14,0.14,352.77,352.79,0.0,0.0
1630611409.60059905,88428781,0.11,0.09,0.12,0.14,352.77,352.79,0.0,0.0
1630611409.70055890,88528741,0.11,0.1,0.1,0.11,352.77,352.78,0.0,0.0
1630611409.80051899,88628701,0.08,0.08,0.1,0.11,352.77,352.78,0.0,0.0
1630611409.90047908,88728661,0.09,0.07,0.08,0.1,352.77,352.78,0.0,0.0
1630611410.00043893,88828621,0.11,0.09,0.08,0.07,352.77,352.78,0.0,0.0
1630611410.10039902,88928581,0.13,0.11,0.12,0.09,352.77,352.77,0.0,0.0
1630611410.20035911,89028541,0.17,0.14,0.16,0.13,352.77,352.77,0.0,0.0
1630611410.30031896,89128501,0.2,0.18,0.18,0.16,352.77,352.77,0.0,0.0
1630611410.40027905,89228461,0.2,0.2,0.18,0.18,352.77,352.77,0.0,0.0
1630611410.50023913,89328421,0.18,0.2,0.18,0.18,352.77,352.77,0.0,0.0
1630611410.60019898,89428381,0.17,0.18,0.18,0.17,352.77,352.77,0.0,0.0
1630611410.70015907,89528341,0.17,0.17,0.18,0.17,352.77,352.77,0.0,0.0
1630611410.80011892,89628301,0.19,0.18,0.16,0.16,352.77,352.78,0.0,0.0
1630611410.90007901,89728261,0.17,0.18,0.17,0.15,352.77,352.78,0.0,0.0
1630611411.00003910,89828221,0.16,0.16,0.19,0.16,352.77,352.78,0.0,0.0
1630611411.09999895,89928181,0.16,0.15,0.2,0.18,352.77,352.78,0.0,0.0
1630611411.20079207,90028974,0.19,0.16,0.2,0.19,352.77,352.78,0.0,0.0
1630611411.30075192,90128934,0.2,0.18,0.22,0.2,352.77,352.78,0.0,0.0
1630611411.40071201,90228894,0.22,0.21,0.23,0.22,352.77,352.78,0.0,0.0
1630611411.50067210,90328854,0.25,0.24,0.24,0.23,352.77,352.77,0.0,0.0
1630611411.60063195,90428814,0.23,0.24,0.24,0.24,352.77,352.77,0.0,0.0
1630611411.70059204,90528774,0.21,0.22,0.24,0.24,352.77,352.77,0.0,0.0
1630611411.80055213,90628734,0.2,0.21,0.21,0.23,352.77,352.77,0.0,0.0
1630611411.90051198,90728694,0.19,0.19,0.19,0.2,352.77,352.77,0.0,0.0
1630611412.00047207,90828654,0.21,0.18,0.16,0.16,352.77,352.78,0.0,0.0
1630611412.10043192,90928614,0.23,0.21,0.15,0.14,352.77,352.78,0.0,0.0
1630611412.20039201,91028574,0.21,0.22,0.17,0.13,352.77,352.78,0.0,0.0
1630611412.30035210,91128534,0.16,0.19,0.18,0.15,352.77,352.78,0.0,0.0
1630611412.40031195,91228494,0.13,0.14,0.2,0.17,352.77,352.78,0.0,0.0
1630611412.50027204,91328454,0.12,0.11,0.19,0.19,352.77,352.78,0.0,0.0
1630611412.60023212,91428414,0.12,0.1,0.17,0.18,352.77,352.78,0.0,0.0
1630611412.70019197,91528374,0.11,0.09,0.14,0.16,352.77,352.78,0.0,0.0
1630611412.80015206,91628334,0.11,0.09,0.12,0.12,352.77,352.78,0.0,0.0
1630611412.90011191,91728294,0.1,0.09,0.13,0.11,352.77,352.77,0.0,0.0
1630611413.00007200,91828254,0.08,0.07,0.1,0.09,352.77,352.77,0.0,0.0
1630611413.10003209,91928214,0.21,0.12,0.06,0.06,352.77,352.77,0.0,0.0
1630611413.19999194,92028174,0.6,0.39,0.04,0.03,352.77,352.77,0.0,0.0
1630611413.30078506,92128967,1.24,0.93,0.07,0.04,352.77,352.77,0.0,0.0
1630611413.40074492,92228927,2.07,1.74,0.1,0.07,352.77,352.77,0.0,0.0
1630611413.50070500,92328887,3.03,2.75,0.16,0.12,352.77,352.77,0.0,0.0
1630611413.60066509,92428847,4.0,3.84,0.18,0.16,352.77,352.77,0.0,0.01
1630611413.70062494,92528807,4.8,4.83,0.19,0.19,352.77,352.78,0.0,0.01
1630611413.80058503,92628767,5.41,5.61,0.21,0.22,352.77,352.78,0.0,0.01
1630611413.90054512,92728727,5.89,6.16,0.23,0.24,352.77,352.79,0.0,0.01
1630611414.00050497,92828687,6.3,6.55,0.19,0.22,352.77,352.79,0.0,0.01
1630611414.10046506,92928647,6.74,6.89,0.17,0.18,352.77,352.78,0.0,0.01
1630611414.20042491,93028607,7.2,7.26,0.17,0.16,352.77,352.78,0.0,0.01
1630611414.30038500,93128567,7.61,7.65,0.18,0.14,352.77,352.78,0.0,0.01
1630611414.40034509,93228527,7.93,7.98,0.21,0.16,352.77,352.78,0.0,0.01
1630611414.50030494,93328487,8.18,8.25,0.22,0.2,352.77,352.79,0.0,0.0
1630611414.60026503,93428447,8.39,8.46,0.21,0.2,352.77,352.79,0.0,0.0
1630611414.70022511,93528407,8.58,8.63,0.21,0.2,352.77,352.79,0.0,0.0
1630611414.80018497,93628367,8.74,8.77,0.2,0.2,352.8,352.79,0.0,0.0
1630611414.90014505,93728327,8.96,8.93,0.21,0.31,354.54,352.84,0.0,0.0
1630611415.00010490,93828287,9.29,9.19,0.19,0.71,359.01,353.39,0.0,0.0
1630611415.10006499,93928247,9.71,9.59,0.0,1.26,5.01,355.13,0.0,0.0
1630611415.20002508,94028207,10.14,10.12,-0.54,1.42,11.01,358.51,0.0,0.01
1630611415.29998493,94128167,10.47,10.66,-1.56,0.88,17.01,3.46,0.0,0.01
1630611415.40077806,94228960,10.61,11.03,-3.02,-0.4,23.01,9.75,0.0,0.02
1630611415.50073791,94328920,10.47,11.1,-4.79,-2.32,29.01,17.07,0.0,0.03
1630611415.60069799,94428880,9.97,10.73,-6.66,-4.65,35.01,25.15,0.0,0.04
1630611415.70065808,94528840,9.11,9.85,-8.48,-7.08,41.01,33.75,0.0,0.04
1630611415.80061793,94628800,7.94,8.47,-10.12,-9.38,47.01,42.6,0.0,0.05
1630611415.90057802,94728760,6.56,6.69,-11.53,-11.35,53.01,51.45,0.0,0.05
1630611416.00053811,94828720,5.03,4.68,-12.65,-12.84,59.01,59.98,0.0,0.05
1630611416.10049796,94928680,3.44,2.64,-13.48,-13.83,65.01,67.95,0.0,0.05
1630611416.20045805,95028640,1.87,0.71,-14.06,-14.38,71.01,75.2,0.0,0.05
1630611416.30041790,95128600,0.39,-0.98,-14.45,-14.62,76.33,81.68,0.0,0.05
1630611416.40037799,95228560,-0.95,-2.74,-14.69,-14.68,79.3,87.25,0.0,0.05
1630611416.50033808,95328520,-2.05,-4.47,-14.8,-14.59,80.84,91.53,0.0,0.04
1630611416.60029793,95428480,-2.77,-5.81,-14.85,-14.41,81.66,94.23,0.0,0.03
1630611416.70025802,95528440,-3.05,-6.49,-14.93,-14.26,82.13,95.35,0.0,0.03
1630611416.80021811,95628400,-2.85,-6.38,-15.08,-14.23,82.45,95.09,0.0,0.02
1630611416.90017796,95728360,-2.26,-5.53,-15.31,-14.39,82.7,93.75,0.0,0.02
1630611417.00013804,95828320,-1.45,-4.11,-15.59,-14.7,82.93,91.64,0.0,0.02
1630611417.10009813,95928280,-0.56,-2.38,-15.87,-15.13,83.15,89.08,0.0,0.02
1630611417.20005798,96028240,0.26,-0.58,-16.09,-15.57,83.37,86.38,0.0,0.01
1630611417.30001807,96128200,0.93,1.03,-16.22,-15.91,83.58,83.85,0.0,0.01
1630611417.39997792,96228160,1.36,2.25,-16.25,-16.09,83.76,81.79,0.0,0.01
1630611417.50077105,96328953,1.58,3.0,-16.23,-16.13,83.92,80.35,0.0,0.01
1630611417.60073113,96428913,1.6,3.29,-16.2,-16.11,84.05,79.62,0.0,0.01
1630611417.70069098,96528873,1.45,3.15,-16.18,-16.06,84.14,79.56,0.0,0.01
1630611417.80065107,96628833,1.2,2.68,-16.23,-16.06,84.21,80.06,0.0,0.01
1630611417.90061092,96728793,0.85,2.0,-16.32,-16.13,84.25,80.97,0.0,0.01
1630611418.00057101,96828753,0.49,1.21,-16.42,-16.25,84.27,82.11,0.0,0.01
1630611418.10053110,96928713,0.15,0.42,-16.49,-16.38,84.28,83.32,0.0,0.01
1630611418.20049095,97028673,-0.14,-0.28,-16.57,-16.49,84.28,84.45,0.0,0.0
1630611418.30045104,97128633,-0.34,-0.82,-16.62,-16.58,84.28,85.38,0.0,0.0
1630611418.40041113,97228593,-0.43,-1.15,-16.66,-16.63,84.27,86.03,0.0,0.0
1630611418.50037098,97328553,-0.43,-1.26,-16.68,-16.66,84.27,86.39,0.0,0.0
1630611418.60033107,97428513,-0.39,-1.21,-16.7,-16.68,84.28,86.45,0.0,0.0
1630611418.70029092,97528473,-0.29,-1.02,-16.73,-16.7,84.29,86.27,0.0,0.0
1630611418.80025101,97628433,-0.14,-0.73,-16.77,-16.74,84.3,85.92,0.0,0.0
1630611418.90021110,97728393,0.0,-0.39,-16.8,-16.77,84.31,85.45,0.0,0.0
1630611419.00017095,97828353,0.13,-0.06,-16.85,-16.82,84.33,84.96,0.0,0.0
1630611419.10013103,97928313,0.24,0.21,-16.9,-16.87,84.34,84.49,0.0,0.0
1630611419.20009112,98028273,0.33,0.44,-16.97,-16.94,84.36,84.11,0.0,0.0
1630611419.30005097,98128233,0.38,0.6,-17.01,-17.0,84.36,83.83,0.0,0.0
1630611419.40001106,98228193,0.37,0.66,-17.02,-17.03,84.37,83.68,0.0,0.0
1630611419.50080395,98328986,0.34,0.62,-17.04,-17.05,84.37,83.64,0.0,0.0
1630611419.60076404,98428946,0.29,0.55,-17.03,-17.05,84.36,83.71,0.0,0.0
1630611419.70072412,98528906,0.22,0.42,-17.04,-17.03,84.35,83.85,0.0,0.0
1630611419.80068398,98628866,0.17,0.27,-17.08,-17.05,84.34,84.03,0.0,0.0
1630611419.90064406,98728826,0.11,0.14,-17.12,-17.09,84.33,84.23,0.0,0.0
1630611420.00060391,98828786,0.05,0.01,-17.16,-17.14,84.32,84.41,0.0,0.0
1630611420.10056400,98928746,0.02,-0.08,-17.19,-17.18,84.3,84.56,0.0,0.0
1630611420.20052409,99028706,0.02,-0.13,-17.23,-17.22,84.29,84.66,0.0,0.0
1630611420.30048394,99128666,0.01,-0.14,-17.27,-17.27,84.27,84.71,0.0,0.0
1630611420.40044403,99228626,0.03,-0.13,-17.29,-17.31,84.26,84.71,0.0,0.0
1630611420.50040412,99328586,0.06,-0.09,-17.3,-17.32,84.25,84.67,0.0,0.0
1630611420.60036397,99428546,0.08,-0.04,-17.31,-17.32,84.24,84.6,0.0,0.0
1630611420.70032406,99528506,0.12,0.02,-17.35,-17.35,84.23,84.51,0.0,0.0
1630611420.80028391,99628466,0.16,0.09,-17.38,-17.38,84.22,84.41,0.0,0.0
1630611420.90024400,99728426,0.19,0.14,-17.4,-17.41,84.21,84.32,0.0,0.0
1630611421.00020409,99828386,0.22,0.2,-17.4,-17.43,84.21,84.24,0.0,0.0
1630611421.10016394,99928346,0.22,0.24,-17.41,-17.43,84.2,84.18,0.0,0.0
1630611421.20012403,100028306,0.2,0.24,-17.45,-17.45,84.19,84.14,0.0,0.0
1630611421.30008411,100128266,0.17,0.21,-17.46,-17.47,84.17,84.12,0.0,0.0
1630611421.40004396,100228226,0.15,0.18,-17.5,-17.49,84.16,84.11,0.0,0.0
1630611421.50000405,100328186,0.15,0.15,-17.52,-17.51,84.15,84.12,0.0,0.0
1630611421.60079694,100428979,0.15,0.13,-17.53,-17.53,84.13,84.14,0.0,0.0
1630611421.70075703,100528939,0.14,0.11,-17.52,-17.53,84.12,84.16,0.0,0.0
1630611421.80071712,100628899,0.11,0.09,-17.51,-17.52,84.11,84.19,0.0,0.0
1630611421.90067697,100728859,0.1,0.06,-17.54,-17.53,84.09,84.2,0.0,0.0
1630611422.00063705,100828819,0.11,0.05,-17.59,-17.56,84.08,84.21,0.0,0.0
1630611422.10059690,100928779,0.14,0.08,-17.62,-17.61,84.07,84.21,0.0,0.0
1630611422.20055699,101028739,0.13,0.09,-17.63,-17.64,84.06,84.2,0.0,0.0
1630611422.30051708,101128699,0.11,0.09,-17.64,-17.67,84.05,84.18,0.0,0.0
1630611422.40047693,101228659,0.13,0.08,-17.64,-17.68,84.04,84.16,0.0,0.0
1630611422.50043702,101328619,0.16,0.11,-17.67,-17.69,84.03,84.14,0.0,0.0
1630611422.60039711,101428579,0.17,0.13,-17.69,-17.71,84.02,84.11,0.0,0.0
1630611422.70035696,101528539,0.16,0.15,-17.71,-17.72,84.02,84.08,0.0,0.0
1630611422.80031705,101628499,0.13,0.13,-17.73,-17.74,84.01,84.06,0.0,0.0
1630611422.90027690,101728459,0.14,0.12,-17.74,-17.76,84.0,84.05,0.0,0.0
1630611423.00023699,101828419,0.15,0.12,-17.73,-17.76,83.99,84.04,0.0,0.0
1630611423.10019708,101928379,0.19,0.14,-17.7,-17.73,83.99,84.03,0.0,0.0
1630611423.20015693,102028339,0.22,0.18,-17.71,-17.72,83.98,84.03,0.0,0.0
1630611423.30011702,102128299,0.22,0.2,-17.74,-17.73,83.98,84.03,0.0,0.0
1630611423.40007710,102228259,0.21,0.2,-17.79,-17.77,83.97,84.03,0.0,0.0
1630611423.50003695,102328219,0.2,0.19,-17.83,-17.82,83.97,84.04,0.0,0.0
1630611423.59999704,102428179,0.17,0.16,-17.86,-17.86,83.96,84.04,0.0,0.0
1630611423.70078993,102528972,0.14,0.12,-17.86,-17.89,83.95,84.03,0.0,0.0
1630611423.80075002,102628932,0.13,0.09,-17.85,-17.88,83.95,84.03,0.0,0.0
1630611423.90071011,102728892,0.13,0.08,-17.85,-17.86,83.94,84.02,0.0,0.0
1630611424.00066996,102828852,0.15,0.08,-17.85,-17.86,83.93,84.02,0.0,0.0
1630611424.10063004,102928812,0.19,0.13,-17.86,-17.86,83.93,84.01,0.0,0.0
1630611424.20059013,103028772,0.22,0.17,-17.9,-17.89,83.92,84.0,0.0,0.0
1630611424.30054998,103128732,0.23,0.21,-17.92,-17.92,83.92,83.99,0.0,0.0
1630611424.40051007,103228692,0.24,0.22,-17.93,-17.95,83.91,83.98,0.0,0.0
1630611424.50046992,103328652,0.25,0.23,-17.93,-17.95,83.91,83.97,0.0,0.0
1630611424.60043001,103428612,0.26,0.24,-17.92,-17.94,83.91,83.96,0.0,0.0
1630611424.70039010,103528572,0.28,0.26,-17.91,-17.92,83.91,83.96,0.0,0.0
1630611424.80034995,103628532,0.28,0.27,-17.92,-17.92,83.91,83.96,0.0,0.0
1630611424.90031004,103728492,0.25,0.26,-17.92,-17.92,83.91,83.96,0.0,0.0
1630611425.00027013,103828452,0.24,0.24,-17.92,-17.93,83.91,83.96,0.0,0.0
1630611425.10022998,103928412,0.25,0.22,-17.91,-17.92,83.91,83.96,0.0,0.0
1630611425.20019007,104028372,0.25,0.22,-17.93,-17.93,83.91,83.96,0.0,0.0
1630611425.30014992,104128332,0.26,0.22,-17.95,-17.95,83.9,83.96,0.0,0.0
1630611425.40011001,104228292,0.27,0.22,-17.95,-17.96,83.9,83.97,0.0,0.0
1630611425.50007010,104328252,0.28,0.23,-17.97,-17.98,83.9,83.97,0.0,0.0
1630611425.60002995,104428212,0.29,0.25,-17.98,-18.0,83.9,83.97,0.0,0.0
1630611425.69999003,104528172,0.29,0.27,-17.98,-18.0,83.9,83.97,0.0,0.0
1630611425.80078292,104628965,0.28,0.27,-17.96,-18.0,83.9,83.96,0.0,0.0
1630611425.90074301,104728925,0.27,0.26,-17.94,-17.97,83.9,83.96,0.0,0.0
1630611426.00070310,104828885,0.25,0.25,-17.95,-17.96,83.9,83.96,0.0,0.0
1630611426.10066295,104928845,0.25,0.23,-17.97,-17.96,83.9,83.96,0.0,0.0
1630611426.20062304,105028805,0.28,0.24,-18.0,-17.99,83.9,83.95,0.0,0.0
1630611426.30058312,105128765,0.33,0.27,-18.02,-18.02,83.9,83.95,0.0,0.0
1630611426.40054297,105228725,0.35,0.31,-18.03,-18.05,83.9,83.95,0.0,0.0
1630611426.50050306,105328685,0.35,0.34,-18.04,-18.06,83.9,83.94,0.0,0.0
1630611426.60046291,105428645,0.33,0.34,-18.05,-18.07,83.9,83.94,0.0,0.0
1630611426.70042300,105528605,0.32,0.33,-18.07,-18.08,83.9,83.94,0.0,0.0
1630611426.80038309,105628565,0.32,0.31,-18.09,-18.1,83.9,83.94,0.0,0.0
1630611426.90034294,105728525,0.34,0.31,-18.07,-18.09,83.9,83.94,0.0,0.0
1630611427.00030303,105828485,0.37,0.33,-18.05,-18.06,83.9,83.95,0.0,0.0
1630611427.10026312,105928445,0.38,0.35,-18.04,-18.04,83.9,83.95,0.0,0.0
1630611427.20022297,106028405,0.35,0.35,-18.05,-18.04,83.91,83.95,0.0,0.0
1630611427.30018306,106128365,0.35,0.33,-18.08,-18.05,83.91,83.95,0.0,0.0
1630611427.40014291,106228325,0.35,0.32,-18.13,-18.1,83.91,83.96,0.0,0.0
1630611427.50010300,106328285,0.34,0.32,-18.15,-18.15,83.91,83.96,0.0,0.0
1630611427.60006309,106428245,0.35,0.32,-18.15,-18.17,83.91,83.97,0.0,0.0
1630611427.70002294,106528205,0.36,0.32,-18.13,-18.18,83.91,83.97,0.0,0.0
1630611427.79998302,106628165,0.36,0.33,-18.1,-18.15,83.91,83.97,0.0,0.0
1630611427.90077591,106728958,0.36,0.33,-18.05,-18.1,83.91,83.97,0.0,0.0
1630611428.00073600,106828918,0.36,0.34,-18.03,-18.05,83.9,83.96,0.0,0.0
1630611428.10069609,106928878,0.35,0.34,-18.04,-18.04,83.9,83.96,0.0,0.0
1630611428.20065594,107028838,0.34,0.33,-18.09,-18.06,83.9,83.95,0.0,0.0
1630611428.30061603,107128798,0.32,0.32,-18.12,-18.1,83.9,83.95,0.0,0.0
1630611428.40057611,107228758,0.32,0.3,-18.15,-18.14,83.9,83.94,0.0,0.0
1630611428.50053596,107328718,0.31,0.29,-18.15,-18.16,83.89,83.94,0.0,0.0
1630611428.60049605,107428678,0.28,0.27,-18.16,-18.17,83.89,83.93,0.0,0.0
1630611428.70045590,107528638,0.29,0.26,-18.15,-18.17,83.89,83.93,0.0,0.0
1630611428.80041599,107628598,0.31,0.28,-18.14,-18.16,83.88,83.92,0.0,0.0
1630611428.90037608,107728558,0.31,0.29,-18.13,-18.14,83.88,83.92,0.0,0.0
1630611429.00033593,107828518,0.3,0.28,-18.13,-18.13,83.88,83.92,0.0,0.0
1630611429.10029602,107928478,0.28,0.26,-18.12,-18.12,83.87,83.91,0.0,0.0
1630611429.20025611,108028438,0.27,0.25,-18.14,-18.13,83.87,83.91,0.0,0.0
1630611429.30021596,108128398,0.29,0.25,-18.17,-18.15,83.87,83.9,0.0,0.0
1630611429.40017605,108228358,0.3,0.27,-18.18,-18.18,83.87,83.9,0.0,0.0
1630611429.50013614,108328318,0.29,0.28,-18.18,-18.2,83.87,83.9,0.0,0.0
1630611429.60009599,108428278,0.33,0.29,-18.19,-18.21,83.86,83.9,0.0,0.0
1630611429.70005608,108528238,0.36,0.32,-18.18,-18.21,83.86,83.9,0.0,0.0
1630611429.80001593,108628198,0.36,0.35,-18.17,-18.2,83.87,83.9,0.0,0.0
1630611429.89997602,108728158,0.36,0.35,-18.15,-18.17,83.87,83.9,0.0,0.0
1630611430.00076890,108828951,0.35,0.34,-18.12,-18.14,83.87,83.9,0.0,0.0
1630611430.10072899,108928911,0.33,0.32,-18.1,-18.11,83.87,83.9,0.0,0.0
1630611430.20068908,109028871,0.31,0.29,-18.09,-18.09,83.87,83.9,0.0,0.0
1630611430.30064893,109128831,0.33,0.28,-18.1,-18.09,83.87,83.91,0.0,0.0
1630611430.40060902,109228791,0.35,0.3,-18.11,-18.1,83.87,83.91,0.0,0.0
1630611430.50056911,109328751,0.38,0.33,-18.14,-18.12,83.87,83.91,0.0,0.0
1630611430.60052896,109428711,0.41,0.37,-18.18,-18.16,83.87,83.91,0.0,0.0
1630611430.70048904,109528671,0.42,0.41,-18.19,-18.2,83.87,83.91,0.0,0.0
1630611430.80044913,109628631,0.42,0.43,-18.16,-18.2,83.88,83.91,0.0,0.0
1630611430.90040898,109728591,0.41,0.43,-18.12,-18.16,83.88,83.91,0.0,0.0
1630611431.00036907,109828551,0.4,0.41,-18.12,-18.14,83.88,83.91,0.0,0.0
1630611431.10032892,109928511,0.4,0.4,-18.14,-18.14,83.89,83.91,0.0,0.0
1630611431.20028901,110028471,0.4,0.39,-18.18,-18.17,83.89,83.91,0.0,0.0
1630611431.30024910,110128431,0.41,0.39,-18.21,-18.2,83.89,83.92,0.0,0.0
1630611431.40020895,110228391,0.43,0.4,-18.25,-18.24,83.9,83.92,0.0,0.0
1630611431.50016904,110328351,0.42,0.41,-18.27,-18.28,83.9,83.92,0.0,0.0
1630611431.60012913,110428311,0.4,0.4,-18.26,-18.3,83.9,83.92,0.0,0.0
1630611431.70008898,110528271,0.4,0.39,-18.23,-18.27,83.9,83.93,0.0,0.0
1630611431.80004907,110628231,0.39,0.37,-18.23,-18.25,83.9,83.94,0.0,0.0
1630611431.90000892,110728191,0.37,0.35,-18.23,-18.24,83.9,83.94,0.0,0.0
1630611432.00080204,110828984,0.36,0.34,-18.23,-18.23,83.9,83.94,0.0,0.0
1630611432.10076213,110928944,0.35,0.32,-18.21,-18.23,83.9,83.94,0.0,0.0
1630611432.20072198,111028904,0.34,0.32,-18.19,-18.22,83.9,83.94,0.0,0.0
1630611432.30068207,111128864,0.36,0.33,-18.19,-18.21,83.9,83.94,0.0,0.0
1630611432.40064192,111228824,0.38,0.35,-18.2,-18.22,83.9,83.93,0.0,0.0
1630611432.50060201,111328784,0.39,0.37,-18.21,-18.22,83.9,83.93,0.0,0.0
1630611432.60056210,111428744,0.39,0.38,-18.2,-18.22,83.9,83.92,0.0,0.0
1630611432.70052195,111528704,0.37,0.37,-18.2,-18.21,83.9,83.92,0.0,0.0
1630611432.80048203,111628664,0.35,0.34,-18.2,-18.21,83.9,83.92,0.0,0.0
1630611432.90044212,111728624,0.36,0.33,-18.19,-18.19,83.9,83.92,0.0,0.0
1630611433.00040197,111828584,0.0,0.31,-18.19,-18.19,83.9,83.92,0.0,0.0
1630611433.10036206,111928544,-6.37,-3.12,-18.33,-18.26,83.9,83.92,0.0,0.0
1630611433.20032191,112028504,-9.29,-8.16,-18.41,-18.39,83.91,83.92,0.0,0.0
1630611433.30028200,112128464,-8.25,-10.04,-18.42,-18.46,83.95,83.91,0.0,0.01
1630611433.40024209,112228424,-5.79,-8.74,-18.39,-18.47,84.03,83.91,0.0,0.01
1630611433.50020194,112328384,-3.37,-5.78,-18.32,-18.42,84.18,83.92,0.0,0.01
1630611433.60016203,112428344,-1.76,-2.77,-18.27,-18.34,84.37,83.99,0.0,0.01
1630611433.70012212,112528304,-1.13,-0.75,-18.27,-18.3,84.6,84.11,0.0,0.02
1630611433.80008197,112628264,-1.26,-0.03,-18.28,-18.29,84.84,84.31,0.0,0.02
1630611433.90004206,112728224,-1.77,-0.34,-18.29,-18.3,85.08,84.57,0.0,0.01
1630611434.00000191,112828184,-2.28,-1.16,-18.3,-18.3,85.32,84.88,0.0,0.01
1630611434.10079503,112928977,-2.57,-1.99,-18.3,-18.31,85.55,85.23,0.0,0.01
1630611434.20075512,113028937,-2.61,-2.53,-18.29,-18.31,85.78,85.59,0.0,0.01
1630611434.30071497,113128897,-2.46,-2.68,-18.3,-18.31,86.01,85.95,0.0,0.0
1630611434.40067506,113228857,-2.22,-2.55,-18.29,-18.3,86.25,86.3,0.0,0.0
1630611434.50063491,113328817,-2.01,-2.27,-18.28,-18.29,86.49,86.61,0.0,0.0
1630611434.60059500,113428777,-1.89,-2.03,-18.27,-18.28,86.74,86.9,0.0,0.0
1630611434.70055509,113528737,-1.84,-1.88,-18.28,-18.28,86.98,87.17,0.0,0.0
1630611434.80051494,113628697,-1.86,-1.83,-18.27,-18.28,87.22,87.4,0.0,0.0
1630611434.90047503,113728657,-1.88,-1.85,-18.24,-18.26,87.45,87.61,0.0,0.0
1630611435.00043511,113828617,-1.88,-1.87,-18.23,-18.25,87.69,87.81,0.0,0.0
1630611435.10039496,113928577,-2.55,-1.99,-18.06,-18.2,87.71,88.0,0.0,0.0
1630611435.20035505,114028537,-8.5,-5.99,-16.99,-17.42,85.55,88.03,0.0,0.0
1630611435.30031490,114128497,-9.69,-10.36,-16.81,-16.5,83.64,87.48,0.0,0.01
1630611435.40027499,114228457,-6.9,-10.43,-16.99,-16.2,83.4,86.39,0.0,0.02
1630611435.50023508,114328417,-2.83,-6.76,-17.2,-16.33,84.08,85.11,0.0,0.01
1630611435.60019493,114428377,0.84,-1.47,-17.37,-16.66,85.31,83.98,0.0,0.02
1630611435.70015502,114528337,3.36,3.46,-17.45,-16.97,86.86,83.31,0.0,0.02
1630611435.80011511,114628297,4.53,6.82,-17.44,-17.16,88.61,83.36,0.0,0.03
1630611435.90007496,114728257,4.61,8.2,-17.38,-17.22,90.46,84.26,0.0,0.03
1630611436.00003505,114828217,4.03,7.92,-17.3,-17.19,92.34,86.01,0.0,0.03
1630611436.09999514,114928177,3.21,6.58,-17.21,-17.13,94.2,88.46,0.0,0.03
1630611436.20078802,115028970,2.46,4.83,-17.16,-17.07,96.02,91.42,0.0,0.02
1630611436.30074811,115128930,1.94,3.21,-17.2,-17.07,97.79,94.67,0.0,0.02
1630611436.40070796,115228890,1.65,1.96,-17.3,-17.17,99.52,97.97,0.0,0.02
1630611436.50066805,115328850,1.55,1.15,-17.44,-17.33,101.2,101.15,0.0,0.02
1630611436.60062790,115428810,1.51,0.7,-17.59,-17.51,102.83,104.05,0.0,0.02
1630611436.70058799,115528770,1.47,0.49,-17.71,-17.68,104.42,106.57,0.0,0.02
1630611436.80054808,115628730,1.4,0.37,-17.8,-17.81,105.96,108.66,0.0,0.02
1630611436.90050793,115728690,1.35,0.34,-17.83,-17.88,107.45,110.34,0.0,0.02
1630611437.00046802,115828650,1.36,0.41,-17.84,-17.89,108.88,111.63,0.0,0.02
1630611437.10042810,115928610,1.43,0.61,-17.86,-17.88,110.26,112.62,0.0,0.02
1630611437.20038795,116028570,1.51,0.88,-17.88,-17.87,111.58,113.39,0.0,0.02
1630611437.30034804,116128530,1.56,1.17,-17.92,-17.89,112.84,114.03,0.0,0.01
1630611437.40030813,116228490,1.63,1.44,-17.98,-17.93,114.04,114.63,0.0,0.01
1630611437.50026798,116328450,1.65,1.65,-17.99,-17.97,115.18,115.26,0.0,0.01
1630611437.60022807,116428410,1.61,1.76,-17.99,-17.99,116.27,115.95,0.0,0.01
1630611437.70018792,116528370,1.51,1.76,-17.99,-18.01,117.29,116.73,0.0,0.01
1630611437.80014801,116628330,1.4,1.66,-18.0,-18.02,118.26,117.61,0.0,0.01
1630611437.90010810,116728290,1.25,1.49,-17.98,-18.01,119.17,118.56,0.0,0.01
1630611438.00006795,116828250,1.05,1.25,-17.97,-17.99,120.03,119.57,0.0,0.01
1630611438.10002804,116928210,0.86,0.96,-17.97,-17.97,120.83,120.59,0.0,0.01
1630611438.19998813,117028170,0.66,0.66,-17.99,-17.98,121.59,121.59,0.0,0.01
1630611438.30078101,117128963,0.5,0.39,-17.99,-17.99,122.3,122.54,0.0,0.01
1630611438.40074110,117228923,0.34,0.15,-17.99,-17.99,122.97,123.42,0.0,0.01
1630611438.50070095,117328883,0.22,-0.03,-18.01,-18.0,123.6,124.2,0.0,0.01
1630611438.60066104,117428843,0.11,-0.17,-18.04,-18.03,124.19,124.88,0.0,0.01
1630611438.70062113,117528803,0.01,-0.26,-18.0,-18.02,124.75,125.47,0.0,0.01
1630611438.80058098,117628763,-0.06,-0.33,-17.97,-18.0,125.27,125.96,0.0,0.01
1630611438.90054107,117728723,-0.13,-0.38,-17.96,-17.97,125.76,126.38,0.0,0.01
1630611439.00050092,117828683,-0.2,-0.41,-17.96,-17.96,126.22,126.73,0.0,0.01
1630611439.10046101,117928643,-0.28,-0.43,-17.97,-17.96,126.65,127.05,0.0,0.01
1630611439.20042109,118028603,-0.34,-0.46,-17.98,-17.97,127.05,127.33,0.0,0.0
1630611439.30038095,118128563,-0.4,-0.48,-17.96,-17.96,127.42,127.61,0.0,0.0
1630611439.40034103,118228523,-0.45,-0.51,-17.94,-17.95,127.77,127.88,0.0,0.0
1630611439.50030112,118328483,-0.51,-0.55,-17.92,-17.93,128.1,128.16,0.0,0.0
1630611439.60026097,118428443,-0.56,-0.59,-17.91,-17.91,128.4,128.43,0.0,0.0
1630611439.70022106,118528403,-0.65,-0.66,-17.92,-17.91,128.68,128.71,0.0,0.0
1630611439.80018091,118628363,-0.74,-0.75,-17.94,-17.93,128.94,128.98,0.0,0.0
1630611439.90014100,118728323,-0.83,-0.85,-17.95,-17.94,129.18,129.25,0.0,0.0
1630611440.00010109,118828283,-0.93,-0.98,-17.93,-17.94,129.41,129.51,0.0,0.0
1630611440.10006094,118928243,-1.0,-1.08,-17.92,-17.93,129.62,129.75,0.0,0.0
1630611440.20002103,119028203,-1.07,-1.16,-17.87,-17.89,129.82,129.98,0.0,0.0
1630611440.29998112,119128163,-1.16,-1.24,-17.82,-17.84,130.0,130.18,0.0,0.0
1630611440.40077400,119228956,-1.23,-1.31,-17.77,-17.78,130.17,130.36,0.0,0.0
1630611440.50073409,119328916,-1.26,-1.36,-17.68,-17.71,130.33,130.52,0.0,0.0
1630611440.60069394,119428876,-1.26,-1.38,-17.62,-17.63,130.48,130.67,0.0,0.0
1630611440.70065403,119528836,-1.25,-1.36,-17.62,-17.6,130.62,130.79,0.0,0.0
1630611440.80061412,119628796,-1.28,-1.35,-17.63,-17.6,130.75,130.91,0.0,0.0
1630611440.90057397,119728756,-1.32,-1.36,-17.62,-17.61,130.87,131.01,0.0,0.0
1630611441.00053406,119828716,-1.36,-1.39,-17.57,-17.58,130.99,131.11,0.0,0.0
1630611441.10049391,119928676,-1.39,-1.43,-17.55,-17.55,131.09,131.2,0.0,0.0
1630611441.20045400,120028636,-1.42,-1.45,-17.55,-17.53,131.18,131.28,0.0,0.0
1630611441.30041409,120128596,-1.45,-1.48,-17.56,-17.53,131.27,131.37,0.0,0.0
1630611441.40037394,120228556,-1.5,-1.53,-17.58,-17.55,131.35,131.44,0.0,0.0
1630611441.50033402,120328516,-1.54,-1.58,-17.6,-17.58,131.42,131.52,0.0,0.0
1630611441.60029411,120428476,-1.55,-1.6,-17.58,-17.6,131.49,131.58,0.0,0.0
1630611441.70025396,120528436,-1.54,-1.61,-17.54,-17.57,131.55,131.64,0.0,0.0
1630611441.80021405,120628396,-1.53,-1.6,-17.51,-17.53,131.61,131.7,0.0,0.0
1630611441.90017390,120728356,-1.57,-1.61,-17.53,-17.52,131.66,131.75,0.0,0.0
1630611442.00013399,120828316,-1.61,-1.64,-17.53,-17.53,131.71,131.8,0.0,0.0
1630611442.10009408,120928276,-1.64,-1.67,-17.52,-17.53,131.76,131.85,0.0,0.0
1630611442.20005393,121028236,-1.64,-1.69,-17.52,-17.53,131.8,131.89,0.0,0.0
1630611442.30001402,121128196,-1.67,-1.7,-17.52,-17.53,131.83,131.92,0.0,0.0
1630611442.39997411,121228156,-1.72,-1.74,-17.5,-17.52,131.86,131.95,0.0,0.0
1630611442.50076699,121328949,-1.75,-1.79,-17.48,-17.5,131.89,131.98,0.0,0.0
1630611442.60072708,121428909,-1.78,-1.82,-17.47,-17.49,131.92,132.0,0.0,0.0
1630611442.70068693,121528869,-1.77,-1.82,-17.47,-17.47,131.94,132.02,0.0,0.0
1630611442.80064702,121628829,-1.75,-1.8,-17.47,-17.46,131.96,132.04,0.0,0.0
1630611442.90060711,121728789,-1.73,-1.78,-17.49,-17.47,131.97,132.05,0.0,0.0
1630611443.00056696,121828749,-1.73,-1.76,-17.5,-17.5,131.99,132.06,0.0,0.0
1630611443.10052705,121928709,-1.76,-1.76,-17.51,-17.52,132.01,132.07,0.0,0.0
1630611443.20048714,122028669,-1.77,-1.78,-17.54,-17.55,132.02,132.07,0.0,0.0
1630611443.30044699,122128629,-1.8,-1.8,-17.54,-17.56,132.03,132.08,0.0,0.0
1630611443.40040708,122228589,-1.84,-1.85,-17.54,-17.57,132.04,132.09,0.0,0.0
1630611443.50036693,122328549,-1.85,-1.88,-17.53,-17.56,132.05,132.1,0.0,0.0
1630611443.60032701,122428509,-1.83,-1.88,-17.49,-17.54,132.05,132.11,0.0,0.0
1630611443.70028710,122528469,-1.81,-1.86,-17.45,-17.49,132.06,132.11,0.0,0.0
1630611443.80024695,122628429,-1.79,-1.83,-17.44,-17.46,132.06,132.12,0.0,0.0
1630611443.90020704,122728389,-1.8,-1.82,-17.47,-17.45,132.07,132.13,0.0,0.0
1630611444.00016713,122828349,-1.82,-1.84,-17.5,-17.48,132.07,132.13,0.0,0.0
1630611444.10012698,122928309,-1.86,-1.86,-17.53,-17.51,132.07,132.14,0.0,0.0
1630611444.20008707,123028269,-1.91,-1.92,-17.54,-17.54,132.07,132.14,0.0,0.0
1630611444.30004692,123128229,-1.9,-1.94,-17.53,-17.56,132.07,132.14,0.0,0.0
1630611444.40000701,123228189,-1.87,-1.93,-17.51,-17.55,132.07,132.14,0.0,0.0
1630611444.50080013,123328982,-1.85,-1.9,-17.52,-17.54,132.07,132.13,0.0,0.0
1630611444.60075998,123428942,-1.83,-1.87,-17.52,-17.54,132.07,132.13,0.0,0.0
1630611444.70072007,123528902,-1.81,-1.84,-17.52,-17.53,132.07,132.12,0.0,0.0
1630611444.80067992,123628862,-1.77,-1.8,-17.53,-17.53,132.08,132.12,0.0,0.0
1630611444.90064001,123728822,-1.77,-1.77,-17.53,-17.53,132.08,132.11,0.0,0.0
1630611445.00060010,123828782,-1.8,-1.78,-17.51,-17.52,132.08,132.11,0.0,0.0
1630611445.10055995,123928742,-1.84,-1.82,-17.5,-17.51,132.08,132.11,0.0,0.0
1630611445.20052004,124028702,-1.87,-1.87,-17.5,-17.5,132.08,132.11,0.0,0.0
1630611445.30048013,124128662,-1.87,-1.89,-17.49,-17.5,132.08,132.11,0.0,0.0
1630611445.40043998,124228622,-1.86,-1.9,-17.5,-17.5,132.07,132.12,0.0,0.0
1630611445.50040007,124328582,-1.86,-1.89,-17.53,-17.52,132.07,132.12,0.0,0.0
1630611445.60035992,124428542,-1.86,-1.89,-17.53,-17.54,132.07,132.12,0.0,0.0
1630611445.70032001,124528502,-1.85,-1.88,-17.51,-17.53,132.07,132.12,0.0,0.0
1630611445.80028009,124628462,-1.83,-1.87,-17.49,-17.51,132.07,132.12,0.0,0.0
1630611445.90023994,124728422,-1.81,-1.85,-17.47,-17.48,132.07,132.11,0.0,0.0
1630611446.00020003,124828382,-1.77,-1.81,-17.47,-17.47,132.07,132.11,0.0,0.0
1630611446.10016012,124928342,-1.75,-1.77,-17.47,-17.46,132.07,132.11,0.0,0.0
