timestamp,TimeUS,DesRoll,Roll,DesPitch,Pitch,DesYaw,Yaw,ErrRP,ErrYaw
1630622882.40000010,41028582,0.0,0.09,0.0,0.07,352.89,352.9,0.0,0.0
1630622882.49995995,41128542,0.0,0.09,0.0,0.08,352.89,352.9,0.0,0.0
1630622882.59992003,41228502,0.0,0.09,0.0,0.08,352.89,352.9,0.0,0.0
1630622882.69987988,41328462,0.0,0.1,0.0,0.08,352.89,352.9,0.0,0.0
1630622882.79983997,41428422,0.0,0.1,0.0,0.08,352.89,352.9,0.0,0.0
1630622882.89980006,41528382,0.0,0.1,0.0,0.08,352.89,352.9,0.0,0.0
1630622882.99975991,41628342,0.0,0.1,0.0,0.08,352.89,352.9,0.0,0.0
1630622883.09972000,41728302,0.0,0.1,0.0,0.08,352.88,352.89,0.0,0.0
1630622883.19968009,41828262,0.0,0.1,0.0,0.08,352.88,352.89,0.0,0.0
1630622883.29963994,41928222,0.0,0.1,0.0,0.08,352.88,352.89,0.0,0.0
1630622883.39960003,42028182,0.0,0.1,0.0,0.08,352.88,352.89,0.0,0.0
1630622883.50039291,42128975,0.0,0.1,0.0,0.08,352.88,352.89,0.0,0.0
1630622883.60035300,42228935,0.0,0.1,0.0,0.08,352.88,352.89,0.0,0.0
1630622883.70031309,42328895,0.0,0.1,0.0,0.09,352.88,352.89,0.0,0.0
1630622883.80027294,42428855,0.0,0.1,0.0,0.09,352.88,352.89,0.0,0.0
1630622883.90023303,42528815,0.0,0.1,0.0,0.09,352.88,352.89,0.0,0.0
1630622884.00019288,42628775,0.0,0.1,0.0,0.08,352.88,352.89,0.0,0.0
1630622884.10015297,42728735,0.0,0.1,0.0,0.09,352.88,352.89,0.0,0.0
1630622884.20011306,42828695,0.0,0.1,0.0,0.08,352.88,352.89,0.0,0.0
1630622884.30007291,42928655,0.0,0.1,0.0,0.08,352.88,352.89,0.0,0.0
1630622884.40003300,43028615,0.0,0.1,0.0,0.08,352.87,352.88,0.0,0.0
1630622884.49999309,43128575,0.0,0.1,0.0,0.08,352.87,352.88,0.0,0.0
1630622884.59995294,43228535,0.0,0.1,0.0,0.08,352.87,352.88,0.0,0.0
1630622884.69991302,43328495,-0.09,0.1,-0.08,0.08,352.87,352.88,0.0,0.0
1630622884.79987311,43428455,-0.07,0.1,-0.07,0.08,352.87,352.88,0.0,0.0
1630622884.89983296,43528415,-0.11,0.1,-0.11,0.08,352.87,352.88,0.0,0.0
1630622884.99979305,43628375,-0.18,0.1,-0.18,0.08,352.87,352.88,0.0,0.0
1630622885.09975290,43728335,-0.24,0.1,-0.24,0.08,352.87,352.88,0.0,0.0
1630622885.19971299,43828295,-0.28,0.1,-0.29,0.08,352.87,352.88,0.0,0.0
1630622885.29967308,43928255,-0.31,0.1,-0.31,0.08,352.87,352.88,0.0,0.0
1630622885.39963293,44028215,-0.34,0.1,-0.33,0.08,352.87,352.88,0.0,0.0
1630622885.49959302,44128175,-0.37,0.1,-0.33,0.08,352.87,352.88,0.0,0.0
1630622885.60038590,44228968,-0.39,0.1,-0.35,0.08,352.87,352.88,0.0,0.0
1630622885.70034599,44328928,-0.4,0.09,-0.37,0.08,352.87,352.88,0.0,0.0
1630622885.80030608,44428888,-0.42,0.09,-0.4,0.07,352.87,352.88,0.0,0.0
1630622885.90026593,44528848,-0.43,0.09,-0.4,0.07,352.87,352.88,0.0,0.0
1630622886.00022602,44628808,-0.47,0.09,-0.4,0.07,352.87,352.88,0.0,0.0
1630622886.10018611,44728768,-0.5,0.09,-0.43,0.07,352.87,352.88,0.0,0.0
1630622886.20014596,44828728,-0.52,0.09,-0.47,0.07,352.87,352.88,0.0,0.0
1630622886.30010605,44928688,-0.53,-0.04,-0.49,-0.05,352.87,352.88,0.0,0.0
1630622886.40006590,45028648,-0.51,-0.38,-0.49,-0.37,352.87,352.88,0.0,0.0
1630622886.50002599,45128608,-0.43,-0.67,-0.47,-0.66,352.87,352.88,0.0,0.0
1630622886.59998608,45228568,-0.29,-0.78,-0.34,-0.79,352.87,352.88,0.0,0.0
1630622886.69994593,45328528,-0.06,-0.71,-0.11,-0.72,352.87,352.88,0.0,0.0
1630622886.79990602,45428488,0.2,-0.46,0.14,-0.47,352.87,352.88,0.0,0.0
1630622886.89986610,45528448,0.4,-0.16,0.38,-0.16,352.87,352.88,0.0,0.0
1630622886.99982595,45628408,0.54,0.09,0.53,0.12,352.87,352.88,0.0,0.0
1630622887.09978604,45728368,0.58,0.26,0.56,0.3,352.87,352.88,0.0,0.0
1630622887.19974589,45828328,0.56,0.32,0.52,0.34,352.87,352.88,0.0,0.0
1630622887.29970598,45928288,0.51,0.3,0.43,0.29,352.87,352.88,0.0,0.0
1630622887.39966607,46028248,0.45,0.25,0.35,0.18,352.87,352.88,0.0,0.0
1630622887.49962592,46128208,0.45,0.2,0.34,0.1,352.87,352.88,0.0,0.0
1630622887.59958601,46228168,0.46,0.2,0.38,0.1,352.87,352.88,0.0,0.0
1630622887.70037889,46328961,0.45,0.21,0.4,0.14,352.87,352.88,0.0,0.0
1630622887.80033898,46428921,0.44,0.22,0.4,0.19,352.87,352.88,0.0,0.0
1630622887.90029907,46528881,0.45,0.23,0.4,0.22,352.87,352.88,0.0,0.0
1630622888.00025892,46628841,0.48,0.28,0.37,0.24,352.8,352.8,0.0,0.0
1630622888.10021901,46728801,0.5,0.32,0.34,0.24,352.8,352.8,0.0,0.0
1630622888.20017910,46828761,0.45,0.34,0.31,0.23,352.8,352.81,0.0,0.0
1630622888.30013895,46928721,0.39,0.3,0.28,0.21,352.8,352.81,0.0,0.0
1630622888.40009904,47028681,0.37,0.27,0.28,0.19,352.8,352.81,0.0,0.0
1630622888.50005889,47128641,0.34,0.25,0.27,0.19,352.8,352.81,0.0,0.0
1630622888.60001898,47228601,0.33,0.24,0.26,0.17,352.8,352.81,0.0,0.0
1630622888.69997907,47328561,0.32,0.23,0.27,0.18,352.8,352.8,0.0,0.0
1630622888.79993892,47428521,0.33,0.25,0.23,0.18,352.8,352.8,0.0,0.0
1630622888.89989901,47528481,0.36,0.28,0.19,0.14,352.8,352.8,0.0,0.0
1630622888.99985909,47628441,0.31,0.29,0.17,0.11,352.8,352.8,0.0,0.0
1630622889.09981894,47728401,0.24,0.24,0.17,0.1,352.8,352.8,0.0,0.0
1630622889.19977903,47828361,0.17,0.16,0.16,0.1,352.8,352.8,0.0,0.0
1630622889.29973888,47928321,0.15,0.1,0.12,0.09,352.8,352.8,0.0,0.0
1630622889.39969897,48028281,0.16,0.08,0.08,0.05,352.8,352.8,0.0,0.0
1630622889.49965906,48128241,0.15,0.08,0.06,0.02,352.8,352.8,0.0,0.0
1630622889.59961891,48228201,0.13,0.09,0.05,0.0,352.8,352.8,0.0,0.0
1630622889.69957900,48328161,0.09,0.07,0.05,0.0,352.8,352.8,0.0,0.0
1630622889.80037189,48428954,0.05,0.04,0.07,0.0,352.8,352.81,0.0,0.0
1630622889.90033197,48528914,0.02,0.0,0.08,0.03,352.8,352.81,0.0,0.0
1630622890.00029206,48628874,0.0,-0.02,0.06,0.04,352.8,352.81,0.0,0.0
1630622890.10025191,48728834,-0.01,-0.04,0.05,0.04,352.8,352.81,0.0,0.0
1630622890.20021200,48828794,0.0,-0.06,0.01,0.03,352.8,352.81,0.0,0.0
1630622890.30017209,48928754,0.02,-0.04,-0.02,-0.01,352.8,352.81,0.0,0.0
1630622890.40013194,49028714,0.07,0.0,-0.05,-0.05,352.8,352.81,0.0,0.0
1630622890.50009203,49128674,0.11,0.06,-0.05,-0.08,352.8,352.81,0.0,0.0
1630622890.60005212,49228634,0.13,0.11,-0.02,-0.07,352.8,352.81,0.0,0.0
1630622890.70001197,49328594,0.13,0.13,-0.01,-0.05,352.8,352.81,0.0,0.0
1630622890.79997206,49428554,0.09,0.12,-0.02,-0.03,352.8,352.81,0.0,0.0
1630622890.89993191,49528514,0.07,0.09,-0.04,-0.02,352.8,352.81,0.0,0.0
1630622890.99989200,49628474,0.05,0.06,-0.07,-0.05,352.8,352.81,0.0,0.0
1630622891.09985209,49728434,0.04,0.03,-0.05,-0.07,352.8,352.81,0.0,0.0
1630622891.19981194,49828394,0.01,0.01,0.01,-0.04,352.8,352.81,0.0,0.0
1630622891.29977202,49928354,0.02,0.0,0.09,0.03,352.8,352.8,0.0,0.0
1630622891.39973211,50028314,0.05,0.01,0.12,0.1,352.8,352.8,0.0,0.0
1630622891.49969196,50128274,0.08,0.05,0.1,0.11,352.8,352.8,0.0,0.0
1630622891.59965205,50228234,0.09,0.08,0.06,0.09,352.8,352.79,0.0,0.0
1630622891.69961190,50328194,0.1,0.1,0.02,0.05,352.8,352.79,0.0,0.0
1630622891.79957199,50428154,0.1,0.11,-0.02,0.0,352.8,352.79,0.0,0.0
1630622891.90036511,50528947,0.1,0.11,-0.05,-0.05,352.8,352.8,0.0,0.0
1630622892.00032496,50628907,0.09,0.09,-0.03,-0.07,352.8,352.8,0.0,0.0
1630622892.10028505,50728867,0.08,0.08,0.01,-0.04,352.8,352.8,0.0,0.0
1630622892.20024490,50828827,0.09,0.07,0.09,0.03,352.8,352.8,0.0,0.0
1630622892.30020499,50928787,0.13,0.09,0.16,0.13,352.8,352.8,0.0,0.0
1630622892.40016508,51028747,0.16,0.13,0.16,0.19,352.8,352.81,0.0,0.0
1630622892.50012493,51128707,0.17,0.16,0.12,0.18,352.8,352.81,0.0,0.0
1630622892.60008502,51228667,0.19,0.18,0.07,0.12,352.8,352.81,0.0,0.0
1630622892.70004511,51328627,0.22,0.22,0.06,0.07,352.8,352.81,0.0,0.0
1630622892.80000496,51428587,0.21,0.23,0.08,0.04,352.8,352.8,0.0,0.0
1630622892.89996505,51528547,0.15,0.2,0.12,0.07,352.8,352.8,0.0,0.0
1630622892.99992490,51628507,0.11,0.15,0.15,0.11,352.8,352.8,0.0,0.0
1630622893.09988499,51728467,0.07,0.08,0.15,0.14,352.8,352.8,0.0,0.0
1630622893.19984508,51828427,0.04,0.02,0.14,0.15,352.8,352.8,0.0,0.0
1630622893.29980493,51928387,0.04,0.01,0.15,0.15,352.8,352.8,0.0,0.0
1630622893.39976501,52028347,0.04,0.01,0.16,0.16,352.8,352.81,0.0,0.0
1630622893.49972510,52128307,0.04,0.02,0.14,0.15,352.8,352.81,0.0,0.0
1630622893.59968495,52228267,0.02,0.02,0.11,0.13,352.8,352.81,0.0,0.0
1630622893.69964504,52328227,0.04,0.03,0.09,0.1,352.8,352.81,0.0,0.0
1630622893.79960489,52428187,0.07,0.05,0.09,0.09,352.8,352.81,0.0,0.0
1630622893.90039802,52528980,0.08,0.07,0.08,0.08,352.8,352.81,0.0,0.0
1630622894.00035810,52628940,0.07,0.07,0.07,0.06,352.8,352.81,0.0,0.0
1630622894.10031796,52728900,0.05,0.07,0.07,0.04,352.8,352.81,0.0,0.0
1630622894.20027804,52828860,0.07,0.06,0.09,0.06,352.8,352.81,0.0,0.0
1630622894.30023789,52928820,0.06,0.06,0.15,0.11,352.8,352.81,0.0,0.0
1630622894.40019798,53028780,0.05,0.04,0.18,0.16,352.8,352.81,0.0,0.0
1630622894.50015807,53128740,0.06,0.04,0.15,0.17,352.8,352.81,0.0,0.0
1630622894.60011792,53228700,0.05,0.05,0.12,0.15,352.8,352.8,0.0,0.0
1630622894.70007801,53328660,0.05,0.04,0.09,0.12,352.8,352.8,0.0,0.0
1630622894.80003810,53428620,0.05,0.04,0.07,0.07,352.8,352.8,0.0,0.0
1630622894.89999795,53528580,0.06,0.05,0.09,0.06,352.8,352.8,0.0,0.0
1630622894.99995804,53628540,0.06,0.05,0.13,0.09,352.8,352.81,0.0,0.0
1630622895.09991789,53728500,0.09,0.06,0.15,0.14,352.8,352.81,0.0,0.0
1630622895.19987798,53828460,0.12,0.09,0.18,0.17,352.8,352.81,0.0,0.0
1630622895.29983807,53928420,0.14,0.12,0.17,0.18,352.8,352.81,0.0,0.0
1630622895.39979792,54028380,0.14,0.14,0.12,0.15,352.8,352.81,0.0,0.0
1630622895.49975801,54128340,0.1,0.13,0.07,0.11,352.8,352.81,0.0,0.0
1630622895.59971809,54228300,0.05,0.07,0.02,0.04,352.8,352.81,0.0,0.0
1630622895.69967794,54328260,0.01,0.02,-0.01,-0.01,352.8,352.81,0.0,0.0
1630622895.79963803,54428220,0.02,0.0,0.0,-0.03,352.8,352.81,0.0,0.0
1630622895.89959788,54528180,0.05,0.0,0.03,-0.01,352.8,352.81,0.0,0.0
1630622896.00039101,54628973,0.06,0.03,0.04,0.01,352.8,352.81,0.0,0.0
1630622896.10035110,54728933,0.07,0.06,0.01,0.02,352.8,352.81,0.0,0.0
1630622896.20031095,54828893,0.11,0.1,0.0,0.0,352.8,352.81,0.0,0.0
1630622896.30027103,54928853,0.11,0.12,0.0,-0.01,352.8,352.81,0.0,0.0
1630622896.40023088,55028813,0.08,0.12,0.0,-0.02,352.8,352.81,0.0,0.0
1630622896.50019097,55128773,0.03,0.08,0.0,-0.01,352.8,352.81,0.0,0.0
1630622896.60015106,55228733,0.0,0.02,-0.01,-0.01,352.8,352.81,0.0,0.0
1630622896.70011091,55328693,0.0,0.0,0.01,0.0,352.8,352.81,0.0,0.0
1630622896.80007100,55428653,0.01,0.0,0.08,0.05,352.8,352.8,0.0,0.0
1630622896.90003109,55528613,0.05,0.02,0.08,0.08,352.8,352.8,0.0,0.0
1630622896.99999094,55628573,0.08,0.05,0.07,0.08,352.8,352.8,0.0,0.0
1630622897.09995103,55728533,0.07,0.07,0.05,0.07,352.8,352.8,0.0,0.0
1630622897.19991112,55828493,0.05,0.06,0.05,0.05,352.8,352.8,0.0,0.0
1630622897.29987097,55928453,0.06,0.05,0.05,0.05,352.8,352.8,0.0,0.0
1630622897.39983106,56028413,0.07,0.06,0.05,0.05,352.8,352.8,0.0,0.0
1630622897.49979091,56128373,0.08,0.06,0.05,0.05,352.8,352.8,0.0,0.0
1630622897.59975100,56228333,0.08,0.06,0.03,0.04,352.8,352.81,0.0,0.0
1630622897.69971108,56328293,0.08,0.07,0.02,0.02,352.8,352.81,0.0,0.0
1630622897.79967093,56428253,0.06,0.05,0.04,0.03,352.8,352.81,0.0,0.0
1630622897.89963102,56528213,0.07,0.04,0.04,0.04,352.8,352.81,0.0,0.0
1630622897.99959111,56628173,0.09,0.06,0.04,0.04,352.8,352.8,0.0,0.0
1630622898.10038400,56728966,0.12,0.09,0.03,0.04,352.8,352.8,0.0,0.0
1630622898.20034409,56828926,0.12,0.11,0.02,0.03,352.8,352.8,0.0,0.0
1630622898.30030394,56928886,0.1,0.11,0.03,0.04,352.8,352.8,0.0,0.0
1630622898.40026402,57028846,0.09,0.1,0.04,0.04,352.8,352.8,0.0,0.0
1630622898.50022411,57128806,0.07,0.09,0.07,0.05,352.8,352.8,0.0,0.0
1630622898.60018396,57228766,0.06,0.07,0.08,0.06,352.8,352.8,0.0,0.0
1630622898.70014405,57328726,0.06,0.05,0.11,0.08,352.8,352.8,0.0,0.0
1630622898.80010390,57428686,0.06,0.05,0.14,0.11,352.8,352.8,0.0,0.0
1630622898.90006399,57528646,0.04,0.03,0.16,0.15,352.8,352.8,0.0,0.0
1630622899.00002408,57628606,0.04,0.02,0.14,0.16,352.8,352.8,0.0,0.0
1630622899.09998393,57728566,0.08,0.04,0.15,0.16,352.8,352.8,0.0,0.0
1630622899.19994402,57828526,0.1,0.08,0.16,0.16,352.8,352.8,0.0,0.0
1630622899.29990411,57928486,0.1,0.11,0.16,0.16,352.8,352.8,0.0,0.0
1630622899.39986396,58028446,0.09,0.11,0.14,0.15,352.8,352.8,0.0,0.0
1630622899.49982405,58128406,0.05,0.08,0.12,0.12,352.8,352.8,0.0,0.0
1630622899.59978390,58228366,0.03,0.04,0.1,0.09,352.8,352.8,0.0,0.0
1630622899.69974399,58328326,0.0,0.0,0.11,0.09,352.8,352.8,0.0,0.0
1630622899.79970407,58428286,0.02,0.0,0.12,0.09,352.8,352.8,0.0,0.0
1630622899.89966393,58528246,0.03,0.01,0.13,0.11,352.8,352.8,0.0,0.0
1630622899.99962401,58628206,0.04,0.02,0.12,0.12,352.8,352.8,0.0,0.0
1630622900.09958410,58728166,0.06,0.04,0.14,0.13,352.8,352.8,0.0,0.0
1630622900.20037699,58828959,0.05,0.05,0.14,0.13,352.8,352.8,0.0,0.0
1630622900.30033708,58928919,0.06,0.06,0.11,0.12,352.8,352.8,0.0,0.0
1630622900.40029693,59028879,0.09,0.08,0.07,0.09,352.8,352.8,0.0,0.0
1630622900.50025702,59128839,0.11,0.09,0.04,0.06,352.8,352.8,0.0,0.0
1630622900.60021710,59228799,0.12,0.1,0.03,0.03,352.8,352.8,0.0,0.0
1630622900.70017695,59328759,0.14,0.13,0.05,0.03,352.8,352.8,0.0,0.0
1630622900.80013704,59428719,0.15,0.14,0.08,0.06,352.8,352.8,0.0,0.0
1630622900.90009689,59528679,0.14,0.15,0.08,0.07,352.8,352.8,0.0,0.0
1630622901.00005698,59628639,0.13,0.15,0.07,0.06,352.8,352.8,0.0,0.0
1630622901.10001707,59728599,0.1,0.12,0.05,0.04,352.8,352.8,0.0,0.0
1630622901.19997692,59828559,0.08,0.08,0.04,0.02,352.8,352.8,0.0,0.0
1630622901.29993701,59928519,0.09,0.07,0.02,0.02,352.8,352.8,0.0,0.0
1630622901.39989710,60028479,0.12,0.08,0.01,0.01,352.8,352.8,0.0,0.0
1630622901.49985695,60128439,0.12,0.09,-0.01,-0.01,352.8,352.8,0.0,0.0
1630622901.59981704,60228399,0.11,0.09,0.0,-0.01,352.8,352.8,0.0,0.0
1630622901.69977689,60328359,0.11,0.1,0.04,0.0,352.8,352.81,0.0,0.0
1630622901.79973698,60428319,0.11,0.1,0.06,0.03,352.8,352.81,0.0,0.0
1630622901.89969707,60528279,0.1,0.11,0.07,0.06,352.8,352.81,0.0,0.0
1630622901.99965692,60628239,0.09,0.1,0.05,0.07,352.8,352.81,0.0,0.0
1630622902.09961700,60728199,0.11,0.1,0.02,0.04,352.8,352.81,0.0,0.0
1630622902.19957709,60828159,0.14,0.12,0.03,0.03,352.8,352.8,0.0,0.0
1630622902.30036998,60928952,0.14,0.14,0.0,0.02,352.8,352.8,0.0,0.0
1630622902.40033007,61028912,0.11,0.14,0.0,0.0,352.8,352.8,0.0,0.0
1630622902.50028992,61128872,0.08,0.1,0.0,0.0,352.8,352.8,0.0,0.0
1630622902.60025001,61228832,0.09,0.08,0.03,0.01,352.8,352.8,0.0,0.0
1630622902.70021009,61328792,0.12,0.09,0.05,0.03,352.8,352.8,0.0,0.0
1630622902.80016994,61428752,0.14,0.12,0.07,0.05,352.8,352.8,0.0,0.0
1630622902.90013003,61528712,0.13,0.13,0.08,0.07,352.8,352.8,0.0,0.0
1630622903.00008988,61628672,0.13,0.12,0.09,0.08,352.8,352.8,0.0,0.0
1630622903.10004997,61728632,0.14,0.13,0.11,0.09,352.8,352.8,0.0,0.0
1630622903.20001006,61828592,0.14,0.14,0.14,0.12,352.8,352.8,0.0,0.0
1630622903.29996991,61928552,0.15,0.14,0.13,0.13,352.8,352.8,0.0,0.0
1630622903.39993000,62028512,0.15,0.15,0.07,0.11,352.8,352.8,0.0,0.0
1630622903.49989009,62128472,0.11,0.14,0.05,0.07,352.8,352.8,0.0,0.0
1630622903.59984994,62228432,0.1,0.12,0.06,0.05,352.8,352.8,0.0,0.0
1630622903.69981003,62328392,0.13,0.11,0.09,0.07,352.8,352.8,0.0,0.0
1630622903.79977012,62428352,0.15,0.13,0.11,0.09,352.8,352.8,0.0,0.0
1630622903.89972997,62528312,0.15,0.14,0.12,0.11,352.8,352.8,0.0,0.0
1630622903.99969006,62628272,0.12,0.14,0.11,0.13,352.8,352.8,0.0,0.0
1630622904.09964991,62728232,0.08,0.1,0.08,0.1,352.8,352.8,0.0,0.0
1630622904.19960999,62828192,0.06,0.06,0.07,0.07,352.8,352.8,0.0,0.0
1630622904.30040312,62928985,0.07,0.06,0.07,0.06,352.8,352.8,0.0,0.0
1630622904.40036297,63028945,0.07,0.06,0.08,0.06,352.8,352.8,0.0,0.0
1630622904.50032306,63128905,0.05,0.06,0.11,0.07,352.8,352.8,0.0,0.0
1630622904.60028291,63228865,0.05,0.06,0.12,0.09,352.8,352.81,0.0,0.0
1630622904.70024300,63328825,0.02,0.04,0.16,0.13,352.8,352.81,0.0,0.0
1630622904.80020308,63428785,0.03,0.02,0.21,0.19,352.8,352.8,0.0,0.0
1630622904.90016294,63528745,0.05,0.03,0.21,0.23,352.8,352.8,0.0,0.0
1630622905.00012302,63628705,0.07,0.04,0.19,0.22,352.8,352.8,0.0,0.0
1630622905.10008311,63728665,0.09,0.07,0.18,0.2,352.8,352.8,0.0,0.0
1630622905.20004296,63828625,0.1,0.09,0.16,0.18,352.8,352.81,0.0,0.0
1630622905.30000305,63928585,0.11,0.11,0.14,0.15,352.8,352.81,0.0,0.0
1630622905.39996290,64028545,0.1,0.1,0.12,0.12,352.8,352.8,0.0,0.0
1630622905.49992299,64128505,0.09,0.09,0.14,0.11,352.8,352.8,0.0,0.0
1630622905.59988308,64228465,0.07,0.07,0.14,0.12,352.8,352.8,0.0,0.0
1630622905.69984293,64328425,0.07,0.06,0.1,0.1,352.8,352.8,0.0,0.0
1630622905.79980302,64428385,0.08,0.06,0.09,0.08,352.8,352.8,0.0,0.0
1630622905.89976311,64528345,0.08,0.06,0.08,0.06,352.8,352.8,0.0,0.0
1630622905.99972296,64628305,0.11,0.08,0.08,0.06,352.8,352.8,0.0,0.0
1630622906.09968305,64728265,0.13,0.12,0.09,0.07,352.8,352.81,0.0,0.0
1630622906.19964290,64828225,0.13,0.13,0.08,0.07,352.8,352.81,0.0,0.0
1630622906.29960299,64928185,0.15,0.13,0.07,0.07,352.8,352.81,0.0,0.0
1630622906.40039611,65028978,0.15,0.13,0.08,0.07,352.8,352.81,0.0,0.0
1630622906.50035596,65128938,0.15,0.13,0.08,0.08,352.8,352.81,0.0,0.0
1630622906.60031605,65228898,0.18,0.15,0.08,0.09,352.8,352.81,0.0,0.0
1630622906.70027590,65328858,0.16,0.16,0.09,0.09,352.8,352.81,0.0,0.0
1630622906.80023599,65428818,0.1,0.13,0.11,0.1,352.8,352.8,0.0,0.0
1630622906.90019608,65528778,0.07,0.08,0.14,0.12,352.8,352.8,0.0,0.0
1630622907.00015593,65628738,0.05,0.05,0.15,0.14,352.8,352.8,0.0,0.0
1630622907.10011601,65728698,0.06,0.05,0.11,0.12,352.8,352.8,0.0,0.0
1630622907.20007610,65828658,0.06,0.05,0.09,0.1,352.8,352.8,0.0,0.0
1630622907.30003595,65928618,0.06,0.05,0.08,0.08,352.8,352.8,0.0,0.0
1630622907.39999604,66028578,0.07,0.05,0.05,0.06,352.8,352.8,0.0,0.0
1630622907.49995589,66128538,0.06,0.05,0.03,0.02,352.8,352.8,0.0,0.0
1630622907.59991598,66228498,0.04,0.03,0.02,0.01,352.8,352.8,0.0,0.0
1630622907.69987607,66328458,0.04,0.01,0.04,0.01,352.8,352.8,0.0,0.0
1630622907.79983592,66428418,0.06,0.02,0.07,0.03,352.8,352.8,0.0,0.0
1630622907.89979601,66528378,0.07,0.03,0.09,0.05,352.8,352.8,0.0,0.0
1630622907.99975610,66628338,0.08,0.05,0.1,0.08,352.8,352.8,0.0,0.0
1630622908.09971595,66728298,0.07,0.06,0.11,0.1,352.8,352.8,0.0,0.0
1630622908.19967604,66828258,0.08,0.07,0.11,0.11,352.8,352.8,0.0,0.0
1630622908.29963589,66928218,0.09,0.09,0.08,0.1,352.8,352.8,0.0,0.0
1630622908.39959598,67028178,0.09,0.09,0.05,0.07,352.8,352.8,0.0,0.0
1630622908.50038910,67128971,0.07,0.09,0.04,0.04,352.8,352.8,0.0,0.0
1630622908.60034895,67228931,0.08,0.08,0.07,0.05,352.8,352.81,0.0,0.0
1630622908.70030904,67328891,0.14,0.12,0.1,0.08,352.8,352.81,0.0,0.0
1630622908.80026889,67428851,0.18,0.16,0.12,0.11,352.8,352.81,0.0,0.0
1630622908.90022898,67528811,0.21,0.21,0.11,0.13,352.8,352.81,0.0,0.0
1630622909.00018907,67628771,0.19,0.22,0.11,0.12,352.8,352.81,0.0,0.0
1630622909.10014892,67728731,0.18,0.19,0.11,0.12,352.8,352.81,0.0,0.0
1630622909.20010900,67828691,0.17,0.18,0.1,0.11,352.8,352.81,0.0,0.0
1630622909.30006909,67928651,0.15,0.16,0.08,0.08,352.8,352.81,0.0,0.0
1630622909.40002894,68028611,0.13,0.14,0.11,0.08,352.8,352.81,0.0,0.0
1630622909.49998903,68128571,0.09,0.12,0.13,0.1,352.8,352.81,0.0,0.0
1630622909.59994888,68228531,0.1,0.09,0.15,0.12,352.8,352.81,0.0,0.0
1630622909.69990897,68328491,0.13,0.09,0.17,0.16,352.8,352.81,0.0,0.0
1630622909.79986906,68428451,0.17,0.12,0.17,0.18,352.8,352.81,0.0,0.0
1630622909.89982891,68528411,0.19,0.16,0.17,0.19,352.8,352.81,0.0,0.0
1630622909.99978900,68628371,0.19,0.18,0.16,0.17,352.8,352.81,0.0,0.0
1630622910.09974909,68728331,0.18,0.18,0.12,0.14,352.8,352.81,0.0,0.0
1630622910.19970894,68828291,0.14,0.15,0.09,0.09,352.8,352.81,0.0,0.0
1630622910.29966903,68928251,0.14,0.14,0.09,0.07,352.8,352.81,0.0,0.0
1630622910.39962912,69028211,0.15,0.14,0.12,0.08,352.8,352.81,0.0,0.0
1630622910.49958897,69128171,0.15,0.14,0.14,0.11,352.8,352.81,0.0,0.0
1630622910.60038209,69228964,0.15,0.15,0.15,0.13,352.8,352.81,0.0,0.0
1630622910.70034194,69328924,0.15,0.15,0.18,0.16,352.8,352.81,0.0,0.0
1630622910.80030203,69428884,0.1,0.13,0.18,0.19,352.8,352.81,0.0,0.0
1630622910.90026212,69528844,0.07,0.09,0.15,0.19,352.8,352.8,0.0,0.0
1630622911.00022197,69628804,0.09,0.07,0.14,0.16,352.8,352.81,0.0,0.0
1630622911.10018206,69728764,0.12,0.08,0.1,0.13,352.8,352.8,0.0,0.0
1630622911.20014191,69828724,0.13,0.09,0.09,0.1,352.8,352.8,0.0,0.0
1630622911.30010200,69928684,0.12,0.1,0.11,0.09,352.8,352.8,0.0,0.0
1630622911.40006208,70028644,0.09,0.08,0.12,0.1,352.8,352.8,0.0,0.0
1630622911.50002193,70128604,0.08,0.07,0.08,0.09,352.8,352.8,0.0,0.0
1630622911.59998202,70228564,0.11,0.08,0.06,0.05,352.8,352.8,0.0,0.0
1630622911.69994211,70328524,0.16,0.13,0.05,0.04,352.8,352.8,0.0,0.0
1630622911.79990196,70428484,0.17,0.17,0.04,0.02,352.8,352.8,0.0,0.0
1630622911.89986205,70528444,0.15,0.17,0.05,0.02,352.8,352.8,0.0,0.0
1630622911.99982190,70628404,0.13,0.15,0.07,0.04,352.8,352.8,0.0,0.0
1630622912.09978199,70728364,0.11,0.13,0.06,0.05,352.8,352.8,0.0,0.0
1630622912.19974208,70828324,0.09,0.09,0.04,0.04,352.8,352.8,0.0,0.0
1630622912.29970193,70928284,0.08,0.07,0.05,0.03,352.8,352.8,0.0,0.0
1630622912.39966202,71028244,0.07,0.06,0.07,0.05,352.8,352.8,0.0,0.0
1630622912.49962211,71128204,0.05,0.06,0.1,0.08,352.8,352.8,0.0,0.0
1630622912.59958196,71228164,0.02,0.04,0.1,0.1,352.8,352.8,0.0,0.0
1630622912.70037508,71328957,0.02,0.02,0.09,0.1,352.8,352.8,0.0,0.0
1630622912.80033493,71428917,0.04,0.02,0.08,0.08,352.8,352.8,0.0,0.0
1630622912.90029502,71528877,0.07,0.04,0.07,0.06,352.8,352.8,0.0,0.0
1630622913.00025511,71628837,0.09,0.06,0.08,0.05,352.8,352.8,0.0,0.0
1630622913.10021496,71728797,0.12,0.1,0.1,0.07,352.8,352.79,0.0,0.0
1630622913.20017505,71828757,0.15,0.13,0.13,0.1,352.8,352.79,0.0,0.0
1630622913.30013490,71928717,0.13,0.15,0.15,0.14,352.8,352.79,0.0,0.0
1630622913.40009499,72028677,0.08,0.12,0.1,0.13,352.8,352.79,0.0,0.0
1630622913.50005507,72128637,0.05,0.07,0.07,0.09,352.8,352.79,0.0,0.0
1630622913.60001493,72228597,0.04,0.04,0.07,0.06,352.8,352.8,0.0,0.0
1630622913.69997501,72328557,0.04,0.02,0.08,0.06,352.8,352.8,0.0,0.0
1630622913.79993510,72428517,0.06,0.03,0.08,0.06,352.8,352.8,0.0,0.0
1630622913.89989495,72528477,0.09,0.07,0.08,0.08,352.8,352.8,0.0,0.0
1630622913.99985504,72628437,0.08,0.09,0.07,0.09,352.8,352.8,0.0,0.0
1630622914.09981489,72728397,0.03,0.06,0.1,0.09,352.8,352.8,0.0,0.0
1630622914.19977498,72828357,-0.02,0.0,0.12,0.11,352.8,352.8,0.0,0.0
1630622914.29973507,72928317,-0.03,-0.04,0.1,0.12,352.8,352.8,0.0,0.0
1630622914.39969492,73028277,0.01,-0.04,0.08,0.09,352.8,352.8,0.0,0.0
1630622914.49965501,73128237,0.05,0.0,0.08,0.07,352.8,352.81,0.0,0.0
1630622914.59961510,73228197,0.08,0.04,0.06,0.06,352.8,352.81,0.0,0.0
1630622914.69957495,73328157,0.1,0.08,0.05,0.04,352.8,352.81,0.0,0.0
1630622914.80036807,73428950,0.12,0.11,0.08,0.04,352.8,352.81,0.0,0.0
1630622914.90032792,73528910,0.14,0.14,0.1,0.07,352.8,352.81,0.0,0.0
1630622915.00028801,73628870,0.13,0.15,0.09,0.09,352.8,352.81,0.0,0.0
1630622915.10024810,73728830,0.17,0.16,0.07,0.09,352.8,352.8,0.0,0.0
1630622915.20020795,73828790,0.19,0.18,0.04,0.06,352.8,352.8,0.0,0.0
1630622915.30016804,73928750,0.18,0.19,0.04,0.04,352.8,352.8,0.0,0.0
1630622915.40012789,74028710,0.15,0.17,0.04,0.04,352.8,352.8,0.0,0.0
1630622915.50008798,74128670,0.15,0.14,0.07,0.04,352.8,352.79,0.0,0.0
1630622915.60004807,74228630,0.17,0.15,0.11,0.07,352.8,352.79,0.0,0.0
1630622915.70000792,74328590,0.19,0.17,0.11,0.1,352.8,352.79,0.0,0.0
1630622915.79996800,74428550,0.19,0.18,0.1,0.1,352.8,352.79,0.0,0.0
1630622915.89992809,74528510,0.19,0.19,0.08,0.1,352.8,352.79,0.0,0.0
1630622915.99988794,74628470,0.19,0.2,0.03,0.06,352.8,352.8,0.0,0.0
1630622916.09984803,74728430,0.2,0.2,0.01,0.02,352.8,352.8,0.0,0.0
1630622916.19980788,74828390,0.2,0.2,0.0,0.0,352.8,352.8,0.0,0.0
1630622916.29976797,74928350,0.16,0.18,-0.01,-0.01,352.8,352.8,0.0,0.0
1630622916.39972806,75028310,0.12,0.14,0.01,-0.01,352.8,352.8,0.0,0.0
1630622916.49968791,75128270,0.12,0.11,0.02,0.0,352.8,352.8,0.0,0.0
1630622916.59964800,75228230,0.15,0.12,0.02,0.0,352.8,352.8,0.0,0.0
1630622916.69960809,75328190,0.17,0.14,0.03,0.01,352.8,352.79,0.0,0.0
1630622916.80040097,75428983,0.21,0.17,0.05,0.03,352.8,352.79,0.0,0.0
1630622916.90036106,75528943,0.24,0.22,0.06,0.06,352.8,352.79,0.0,0.0
1630622917.00032091,75628903,0.23,0.23,0.03,0.05,352.8,352.79,0.0,0.0
1630622917.10028100,75728863,0.18,0.21,0.04,0.04,352.8,352.79,0.0,0.0
1630622917.20024109,75828823,0.14,0.17,0.06,0.04,352.8,352.79,0.0,0.0
1630622917.30020094,75928783,0.15,0.15,0.07,0.05,352.8,352.79,0.0,0.0
1630622917.40016103,76028743,0.17,0.14,0.09,0.06,352.8,352.8,0.0,0.0
1630622917.50012112,76128703,0.15,0.14,0.1,0.09,352.8,352.8,0.0,0.0
1630622917.60008097,76228663,0.14,0.13,0.12,0.11,352.8,352.8,0.0,0.0
1630622917.70004106,76328623,0.15,0.14,0.1,0.11,352.8,352.8,0.0,0.0
1630622917.80000091,76428583,0.19,0.16,0.09,0.08,352.8,352.8,0.0,0.0
1630622917.89996099,76528543,0.19,0.18,0.12,0.09,352.8,352.8,0.0,0.0
1630622917.99992108,76628503,0.19,0.19,0.13,0.11,352.8,352.81,0.0,0.0
1630622918.09988093,76728463,0.16,0.18,0.13,0.12,352.8,352.81,0.0,0.0
1630622918.19984102,76828423,0.13,0.14,0.13,0.13,352.8,352.81,0.0,0.0
1630622918.29980111,76928383,0.1,0.11,0.15,0.14,352.8,352.81,0.0,0.0
1630622918.39976096,77028343,0.08,0.07,0.13,0.15,352.8,352.81,0.0,0.0
1630622918.49972105,77128303,0.11,0.08,0.11,0.13,352.8,352.81,0.0,0.0
1630622918.59968090,77228263,0.16,0.11,0.13,0.13,352.8,352.8,0.0,0.0
1630622918.69964099,77328223,0.2,0.17,0.12,0.12,352.8,352.8,0.0,0.0
1630622918.79960108,77428183,0.19,0.19,0.09,0.1,352.8,352.8,0.0,0.0
1630622918.90039396,77528976,0.15,0.18,0.1,0.08,352.8,352.8,0.0,0.0
1630622919.00035405,77628936,0.11,0.14,0.1,0.08,352.8,352.8,0.0,0.0
1630622919.10031390,77728896,0.11,0.1,0.08,0.07,352.8,352.8,0.0,0.0
1630622919.20027399,77828856,0.13,0.1,0.1,0.07,352.8,352.8,0.0,0.0
1630622919.30023408,77928816,0.14,0.11,0.14,0.1,352.8,352.8,0.0,0.0
1630622919.40019393,78028776,0.16,0.13,0.17,0.14,352.8,352.8,0.0,0.0
1630622919.50015402,78128736,0.16,0.14,0.14,0.16,352.8,352.8,0.0,0.0
1630622919.60011411,78228696,0.15,0.15,0.06,0.12,352.8,352.8,0.0,0.0
1630622919.70007396,78328656,0.13,0.14,0.01,0.06,352.8,352.81,0.0,0.0
1630622919.80003405,78428616,0.12,0.12,0.03,0.01,352.8,352.81,0.0,0.0
1630622919.89999390,78528576,0.12,0.11,0.09,0.04,352.8,352.81,0.0,0.0
1630622919.99995399,78628536,0.12,0.11,0.14,0.1,352.8,352.8,0.0,0.0
1630622920.09991407,78728496,0.11,0.1,0.17,0.15,352.8,352.8,0.0,0.0
1630622920.19987392,78828456,0.09,0.09,0.17,0.18,352.8,352.8,0.0,0.0
1630622920.29983401,78928416,0.09,0.09,0.16,0.17,352.8,352.8,0.0,0.0
1630622920.39979410,79028376,0.09,0.08,0.14,0.15,352.8,352.8,0.0,0.0
1630622920.49975395,79128336,0.11,0.09,0.13,0.13,352.8,352.8,0.0,0.0
1630622920.59971404,79228296,0.12,0.11,0.11,0.11,352.8,352.8,0.0,0.0
1630622920.69967389,79328256,0.09,0.1,0.1,0.09,352.8,352.8,0.0,0.0
1630622920.79963398,79428216,0.07,0.07,0.14,0.1,352.8,352.79,0.0,0.0
1630622920.89959407,79528176,0.06,0.05,0.18,0.14,352.8,352.79,0.0,0.0
1630622921.00038695,79628969,0.09,0.07,0.19,0.18,352.8,352.79,0.0,0.0
1630622921.10034704,79728929,0.12,0.1,0.18,0.19,352.8,352.8,0.0,0.0
1630622921.20030689,79828889,0.12,0.13,0.16,0.18,352.8,352.8,0.0,0.0
1630622921.30026698,79928849,0.08,0.11,0.13,0.16,352.8,352.8,0.0,0.0
1630622921.40022707,80028809,0.04,0.06,0.09,0.11,352.8,352.8,0.0,0.0
1630622921.50018692,80128769,0.02,0.02,0.07,0.07,352.8,352.8,0.0,0.0
1630622921.60014701,80228729,0.05,0.01,0.08,0.05,352.8,352.8,0.0,0.0
1630622921.70010710,80328689,0.08,0.03,0.11,0.06,352.8,352.8,0.0,0.0
1630622921.80006695,80428649,0.11,0.07,0.13,0.09,352.8,352.8,0.0,0.0
1630622921.90002704,80528609,0.13,0.11,0.11,0.09,352.8,352.8,0.0,0.0
1630622921.99998689,80628569,0.15,0.14,0.1,0.09,352.8,352.8,0.0,0.0
1630622922.09994698,80728529,0.18,0.17,0.12,0.1,352.8,352.8,0.0,0.0
1630622922.19990706,80828489,0.17,0.18,0.13,0.11,352.8,352.8,0.0,0.0
1630622922.29986691,80928449,0.14,0.16,0.13,0.12,352.8,352.8,0.0,0.0
1630622922.39982700,81028409,0.13,0.14,0.14,0.13,352.8,352.8,0.0,0.0
1630622922.49978709,81128369,0.13,0.13,0.12,0.13,352.8,352.8,0.0,0.0
1630622922.59974694,81228329,0.12,0.12,0.1,0.12,352.8,352.8,0.0,0.0
1630622922.69970703,81328289,0.11,0.12,0.07,0.09,352.8,352.8,0.0,0.0
1630622922.79966688,81428249,0.11,0.12,0.06,0.06,352.8,352.8,0.0,0.0
1630622922.89962697,81528209,0.13,0.11,0.08,0.05,352.8,352.81,0.0,0.0
1630622922.99958706,81628169,0.14,0.12,0.1,0.07,352.8,352.81,0.0,0.0
1630622923.10037994,81728962,0.14,0.12,0.13,0.1,352.8,352.81,0.0,0.0
1630622923.20034003,81828922,0.15,0.13,0.17,0.15,352.8,352.81,0.0,0.0
1630622923.30029988,81928882,0.14,0.13,0.21,0.2,352.8,352.81,0.0,0.0
1630622923.40025997,82028842,0.15,0.12,0.21,0.24,352.8,352.81,0.0,0.0
1630622923.50022006,82128802,0.12,0.12,0.19,0.24,352.8,352.8,0.0,0.0
1630622923.60017991,82228762,0.07,0.08,0.14,0.19,352.8,352.8,0.0,0.0
1630622923.70014000,82328722,0.06,0.05,0.1,0.13,352.8,352.8,0.0,0.0
1630622923.80010009,82428682,0.07,0.04,0.1,0.09,352.8,352.79,0.0,0.0
1630622923.90005994,82528642,0.08,0.04,0.14,0.1,352.8,352.79,0.0,0.0
1630622924.00002003,82628602,0.11,0.06,0.15,0.12,352.8,352.79,0.0,0.0
1630622924.09998012,82728562,0.14,0.1,0.17,0.15,352.8,352.79,0.0,0.0
1630622924.19993997,82828522,0.15,0.14,0.15,0.15,352.8,352.79,0.0,0.0
1630622924.29990005,82928482,0.16,0.16,0.12,0.13,352.8,352.79,0.0,0.0
1630622924.39985991,83028442,0.15,0.17,0.11,0.11,352.8,352.79,0.0,0.0
1630622924.49981999,83128402,0.1,0.14,0.1,0.1,352.8,352.79,0.0,0.0
1630622924.59978008,83228362,0.07,0.09,0.1,0.08,352.8,352.8,0.0,0.0
1630622924.69973993,83328322,0.07,0.07,0.11,0.09,352.8,352.8,0.0,0.0
1630622924.79970002,83428282,0.08,0.07,0.12,0.09,352.8,352.8,0.0,0.0
1630622924.89966011,83528242,0.08,0.07,0.15,0.11,352.8,352.8,0.0,0.0
1630622924.99961996,83628202,0.09,0.07,0.16,0.13,352.8,352.8,0.0,0.0
1630622925.09958005,83728162,0.1,0.08,0.18,0.15,352.8,352.81,0.0,0.0
1630622925.20037293,83828955,0.13,0.1,0.18,0.17,352.8,352.81,0.0,0.0
1630622925.30033302,83928915,0.15,0.13,0.16,0.17,352.8,352.81,0.0,0.0
1630622925.40029311,84028875,0.18,0.16,0.14,0.15,352.8,352.81,0.0,0.0
1630622925.50025296,84128835,0.21,0.19,0.12,0.13,352.8,352.81,0.0,0.0
1630622925.60021305,84228795,0.21,0.21,0.08,0.09,352.8,352.8,0.0,0.0
1630622925.70017290,84328755,0.19,0.21,0.08,0.07,352.8,352.8,0.0,0.0
1630622925.80013299,84428715,0.18,0.19,0.11,0.08,352.8,352.8,0.0,0.0
1630622925.90009308,84528675,0.16,0.17,0.11,0.09,352.8,352.8,0.0,0.0
1630622926.00005293,84628635,0.15,0.15,0.09,0.09,352.8,352.8,0.0,0.0
1630622926.10001302,84728595,0.15,0.14,0.08,0.08,352.8,352.8,0.0,0.0
1630622926.19997311,84828555,0.17,0.14,0.08,0.07,352.8,352.8,0.0,0.0
1630622926.29993296,84928515,0.18,0.16,0.1,0.08,352.8,352.8,0.0,0.0
1630622926.39989305,85028475,0.15,0.15,0.11,0.09,352.8,352.8,0.0,0.0
1630622926.49985290,85128435,0.14,0.14,0.13,0.11,352.8,352.8,0.0,0.0
1630622926.59981298,85228395,0.14,0.13,0.15,0.13,352.8,352.8,0.0,0.0
1630622926.69977307,85328355,0.14,0.13,0.18,0.16,352.8,352.8,0.0,0.0
1630622926.79973292,85428315,0.15,0.13,0.19,0.19,352.8,352.8,0.0,0.0
1630622926.89969301,85528275,0.17,0.15,0.17,0.19,352.8,352.8,0.0,0.0
1630622926.99965310,85628235,0.16,0.16,0.12,0.15,352.8,352.8,0.0,0.0
1630622927.09961295,85728195,0.14,0.14,0.09,0.1,352.8,352.8,0.0,0.0
1630622927.19957304,85828155,0.14,0.13,0.08,0.07,352.8,352.8,0.0,0.0
1630622927.30036592,85928948,0.14,0.13,0.08,0.06,352.8,352.8,0.0,0.0
1630622927.40032601,86028908,0.15,0.14,0.1,0.07,352.8,352.8,0.0,0.0
1630622927.50028610,86128868,0.14,0.13,0.12,0.1,352.8,352.8,0.0,0.0
1630622927.60024595,86228828,0.15,0.13,0.13,0.12,352.8,352.8,0.0,0.0
1630622927.70020604,86328788,0.16,0.14,0.12,0.12,352.8,352.8,0.0,0.0
1630622927.80016589,86428748,0.17,0.16,0.12,0.12,352.8,352.8,0.0,0.0
1630622927.90012598,86528708,0.17,0.17,0.09,0.1,352.8,352.8,0.0,0.0
1630622928.00008607,86628668,0.15,0.16,0.08,0.08,352.8,352.8,0.0,0.0
1630622928.10004592,86728628,0.11,0.13,0.12,0.1,352.8,352.8,0.0,0.0
1630622928.20000601,86828588,0.07,0.09,0.14,0.12,352.8,352.8,0.0,0.0
1630622928.29996610,86928548,0.05,0.04,0.14,0.13,352.8,352.8,0.0,0.0
1630622928.39992595,87028508,0.07,0.03,0.13,0.13,352.8,352.8,0.0,0.0
1630622928.49988604,87128468,0.11,0.06,0.13,0.13,352.8,352.8,0.0,0.0
1630622928.59984589,87228428,0.14,0.11,0.14,0.13,352.8,352.8,0.0,0.0
1630622928.69980597,87328388,0.12,0.12,0.13,0.13,352.8,352.8,0.0,0.0
1630622928.79976606,87428348,0.12,0.12,0.1,0.11,352.8,352.8,0.0,0.0
1630622928.89972591,87528308,0.11,0.12,0.07,0.08,352.8,352.8,0.0,0.0
1630622928.99968600,87628268,0.11,0.11,0.07,0.06,352.8,352.8,0.0,0.0
1630622929.09964609,87728228,0.12,0.11,0.07,0.06,352.8,352.8,0.0,0.0
1630622929.19960594,87828188,0.12,0.11,0.1,0.07,352.8,352.8,0.0,0.0
1630622929.30039907,87928981,0.09,0.1,0.11,0.08,352.8,352.8,0.0,0.0
1630622929.40035892,88028941,0.05,0.06,0.12,0.1,352.8,352.8,0.0,0.0
1630622929.50031900,88128901,0.05,0.05,0.13,0.11,352.8,352.8,0.0,0.0
1630622929.60027909,88228861,0.07,0.06,0.14,0.13,352.8,352.8,0.0,0.0
1630622929.70023894,88328821,0.08,0.07,0.15,0.14,352.8,352.8,0.0,0.0
1630622929.80019903,88428781,0.09,0.07,0.13,0.13,352.8,352.8,0.0,0.0
1630622929.90015888,88528741,0.08,0.08,0.12,0.11,352.8,352.8,0.0,0.0
1630622930.00011897,88628701,0.07,0.07,0.13,0.11,352.8,352.8,0.0,0.0
1630622930.10007906,88728661,0.08,0.07,0.11,0.1,352.8,352.8,0.0,0.0
1630622930.20003891,88828621,0.1,0.08,0.11,0.1,352.8,352.8,0.0,0.0
1630622930.29999900,88928581,0.11,0.09,0.14,0.11,352.8,352.8,0.0,0.0
1630622930.39995909,89028541,0.16,0.12,0.17,0.14,352.8,352.8,0.0,0.0
1630622930.49991894,89128501,0.19,0.16,0.18,0.17,352.8,352.8,0.0,0.0
1630622930.59987903,89228461,0.21,0.2,0.18,0.17,352.8,352.8,0.0,0.0
1630622930.69983912,89328421,0.2,0.2,0.17,0.17,352.8,352.8,0.0,0.0
1630622930.79979897,89428381,0.18,0.2,0.16,0.17,352.8,352.8,0.0,0.0
1630622930.89975905,89528341,0.19,0.19,0.16,0.17,352.8,352.8,0.0,0.0
1630622930.99971890,89628301,0.2,0.19,0.14,0.15,352.8,352.8,0.0,0.0
1630622931.09967899,89728261,0.19,0.19,0.15,0.14,352.8,352.8,0.0,0.0
1630622931.19963908,89828221,0.17,0.17,0.16,0.15,352.8,352.8,0.0,0.0
1630622931.29959893,89928181,0.18,0.17,0.17,0.16,352.8,352.8,0.0,0.0
1630622931.40039206,90028974,0.2,0.18,0.17,0.16,352.8,352.8,0.0,0.0
1630622931.50035191,90128934,0.21,0.2,0.16,0.16,352.8,352.8,0.0,0.0
1630622931.60031199,90228894,0.22,0.21,0.17,0.16,352.8,352.8,0.0,0.0
1630622931.70027208,90328854,0.24,0.22,0.17,0.17,352.8,352.8,0.0,0.0
1630622931.80023193,90428814,0.22,0.23,0.18,0.17,352.8,352.8,0.0,0.0
1630622931.90019202,90528774,0.2,0.21,0.19,0.18,352.8,352.8,0.0,0.0
1630622932.00015211,90628734,0.19,0.19,0.17,0.18,352.8,352.8,0.0,0.0
1630622932.10011196,90728694,0.18,0.18,0.15,0.17,352.8,352.8,0.0,0.0
1630622932.20007205,90828654,0.2,0.17,0.13,0.15,352.8,352.8,0.0,0.0
1630622932.30003190,90928614,0.22,0.2,0.13,0.13,352.8,352.8,0.0,0.0
1630622932.39999199,91028574,0.21,0.21,0.14,0.13,352.8,352.8,0.0,0.0
1630622932.49995208,91128534,0.16,0.17,0.15,0.13,352.8,352.8,0.0,0.0
1630622932.59991193,91228494,0.12,0.12,0.17,0.15,352.8,352.8,0.0,0.0
1630622932.69987202,91328454,0.13,0.11,0.17,0.17,352.8,352.8,0.0,0.0
1630622932.79983211,91428414,0.12,0.1,0.16,0.16,352.8,352.8,0.0,0.0
1630622932.89979196,91528374,0.11,0.1,0.14,0.14,352.8,352.8,0.0,0.0
1630622932.99975204,91628334,0.05,0.06,0.16,0.14,352.8,352.8,0.0,0.0
1630622933.09971189,91728294,-0.17,-0.06,0.28,0.2,352.8,352.8,0.0,0.0
1630622933.19967198,91828254,-0.61,-0.41,0.48,0.36,352.8,352.8,0.0,0.0
1630622933.29963207,91928214,-1.21,-0.97,0.76,0.62,352.8,352.79,0.0,0.0
1630622933.39959192,92028174,-1.98,-1.73,1.11,0.97,352.8,352.79,0.0,0.0
1630622933.50038505,92128967,-2.84,-2.64,1.51,1.4,352.8,352.78,0.0,0.0
1630622933.60034490,92228927,-3.59,-3.55,1.87,1.83,352.8,352.76,0.0,0.0
1630622933.70030499,92328887,-4.17,-4.3,2.17,2.2,352.8,352.75,0.0,0.0
1630622933.80026507,92428847,-4.6,-4.84,2.37,2.47,352.8,352.74,0.0,0.0
1630622933.90022492,92528807,-4.97,-5.21,2.52,2.63,352.8,352.75,0.0,0.0
1630622934.00018501,92628767,-5.32,-5.51,2.69,2.76,352.8,352.76,0.0,0.0
1630622934.10014510,92728727,-5.7,-5.82,2.87,2.9,352.8,352.77,0.0,0.0
1630622934.20010495,92828687,-6.13,-6.16,3.02,3.04,352.8,352.78,0.0,0.0
1630622934.30006504,92928647,-6.53,-6.54,3.19,3.19,352.8,352.78,0.0,0.0
1630622934.40002489,93028607,-6.85,-6.9,3.34,3.34,352.8,352.79,0.0,0.0
1630622934.49998498,93128567,-7.1,-7.18,3.43,3.45,352.8,352.8,0.0,0.0
1630622934.59994507,93228527,-7.28,-7.39,3.53,3.54,352.8,352.81,0.0,0.0
1630622934.69990492,93328487,-7.41,-7.52,3.6,3.63,352.8,352.81,0.0,0.0
1630622934.79986501,93428447,-7.52,-7.61,3.66,3.68,352.8,352.82,0.0,0.0
1630622934.89982510,93528407,-7.67,-7.7,3.73,3.73,352.68,352.82,0.0,0.0
1630622934.99978495,93628367,-7.96,-7.83,3.84,3.94,350.54,352.72,0.0,0.0
1630622935.09974504,93728327,-8.35,-7.97,3.95,4.44,345.67,352.05,0.0,0.0
1630622935.19970489,93828287,-8.86,-8.22,3.93,5.07,339.68,350.09,0.0,0.0
1630622935.29966497,93928247,-9.51,-8.72,3.57,5.39,333.68,346.45,0.0,0.0
1630622935.39962506,94028207,-10.23,-9.46,2.73,5.09,327.68,341.23,0.0,0.01
1630622935.49958491,94128167,-10.92,-10.31,1.39,4.02,321.68,334.73,0.0,0.02
1630622935.60037804,94228960,-11.43,-11.09,-0.35,2.22,315.68,327.27,0.0,0.03
1630622935.70033789,94328920,-11.65,-11.58,-2.33,-0.13,309.68,319.16,0.0,0.04
1630622935.80029798,94428880,-11.56,-11.68,-4.36,-2.8,303.68,310.63,0.0,0.06
1630622935.90025806,94528840,-11.16,-11.32,-6.32,-5.47,297.68,301.92,0.0,0.07
1630622936.00021791,94628800,-10.45,-10.49,-8.12,-7.95,291.67,293.25,0.0,0.08
1630622936.10017800,94728760,-9.49,-9.28,-9.71,-10.05,285.67,284.88,0.0,0.08
1630622936.20013809,94828720,-8.35,-7.81,-11.07,-11.72,279.67,277.01,0.0,0.09
1630622936.30009794,94928680,-7.15,-6.28,-12.22,-12.94,273.67,269.79,0.0,0.09
1630622936.40005803,95028640,-5.95,-4.84,-13.14,-13.79,267.67,263.25,0.0,0.08
1630622936.50001788,95128600,-4.76,-3.58,-13.85,-14.34,261.67,257.36,0.0,0.08
1630622936.59997797,95228560,-3.58,-2.51,-14.4,-14.69,255.67,252.02,0.0,0.07
1630622936.69993806,95328520,-2.4,-1.6,-14.8,-14.92,249.67,247.06,0.0,0.06
1630622936.79989791,95428480,-1.18,-0.65,-15.09,-15.1,244.65,242.31,0.0,0.06
1630622936.89985800,95528440,0.0,0.67,-15.26,-15.25,241.93,237.85,0.0,0.05
1630622936.99981809,95628400,1.11,2.29,-15.33,-15.28,240.51,234.09,0.0,0.05
1630622937.09977794,95728360,1.97,3.82,-15.36,-15.21,239.76,231.4,0.0,0.04
1630622937.19973803,95828320,2.4,4.88,-15.38,-15.1,239.33,229.94,0.0,0.04
1630622937.29969811,95928280,2.38,5.21,-15.47,-15.05,239.05,229.65,0.0,0.03
1630622937.39965796,96028240,1.97,4.78,-15.63,-15.12,238.84,230.33,0.0,0.03
1630622937.49961805,96128200,1.32,3.74,-15.8,-15.3,238.65,231.75,0.0,0.03
1630622937.59957790,96228160,0.55,2.3,-15.95,-15.54,238.46,233.62,0.0,0.03
1630622937.70037103,96328953,-0.13,0.76,-16.08,-15.78,238.28,235.67,0.0,0.04
1630622937.80033112,96428913,-0.67,-0.59,-16.15,-15.97,238.11,237.62,0.0,0.04
1630622937.90029097,96528873,-1.01,-1.62,-16.18,-16.08,237.95,239.24,0.0,0.04
1630622938.00025105,96628833,-1.15,-2.23,-16.21,-16.14,237.81,240.39,0.0,0.04
1630622938.10021091,96728793,-1.16,-2.45,-16.25,-16.19,237.69,241.01,0.0,0.04
1630622938.20017099,96828753,-1.04,-2.34,-16.29,-16.23,237.6,241.11,0.0,0.03
1630622938.30013108,96928713,-0.86,-2.0,-16.31,-16.27,237.53,240.76,0.0,0.03
1630622938.40009093,97028673,-0.64,-1.51,-16.36,-16.31,237.48,240.08,0.0,0.02
1630622938.50005102,97128633,-0.4,-0.97,-16.42,-16.37,237.45,239.2,0.0,0.02
1630622938.60001111,97228593,-0.14,-0.39,-16.49,-16.44,237.42,238.26,0.0,0.01
1630622938.69997096,97328553,0.07,0.12,-16.52,-16.5,237.41,237.37,0.0,0.01
1630622938.79993105,97428513,0.22,0.54,-16.56,-16.55,237.4,236.62,0.0,0.01
1630622938.89989090,97528473,0.31,0.82,-16.61,-16.6,237.39,236.07,0.0,0.01
1630622938.99985099,97628433,0.35,0.96,-16.65,-16.64,237.38,235.76,0.0,0.0
1630622939.09981108,97728393,0.33,0.97,-16.68,-16.67,237.37,235.67,0.0,0.01
1630622939.19977093,97828353,0.25,0.84,-16.71,-16.7,237.36,235.77,0.0,0.01
1630622939.29973102,97928313,0.15,0.63,-16.77,-16.74,237.34,236.02,0.0,0.01
1630622939.39969110,98028273,0.07,0.39,-16.84,-16.81,237.33,236.36,0.0,0.01
1630622939.49965096,98128233,-0.01,0.15,-16.87,-16.87,237.32,236.74,0.0,0.01
1630622939.59961104,98228193,-0.1,-0.05,-16.88,-16.9,237.31,237.1,0.0,0.01
1630622939.70040393,98328986,-0.16,-0.22,-16.91,-16.92,237.31,237.41,0.0,0.01
1630622939.80036402,98428946,-0.19,-0.33,-16.9,-16.93,237.3,237.64,0.0,0.01
1630622939.90032411,98528906,-0.19,-0.37,-16.9,-16.93,237.31,237.78,0.0,0.01
1630622940.00028396,98628866,-0.17,-0.37,-16.95,-16.95,237.31,237.82,0.0,0.01
1630622940.10024405,98728826,-0.13,-0.31,-16.99,-16.99,237.32,237.8,0.0,0.01
1630622940.20020390,98828786,-0.09,-0.22,-17.03,-17.02,237.34,237.71,0.0,0.01
1630622940.30016398,98928746,-0.03,-0.12,-17.06,-17.06,237.36,237.59,0.0,0.01
1630622940.40012407,99028706,0.02,0.0,-17.1,-17.1,237.38,237.45,0.0,0.01
1630622940.50008392,99128666,0.06,0.1,-17.13,-17.14,237.4,237.32,0.0,0.01
1630622940.60004401,99228626,0.1,0.17,-17.16,-17.17,237.42,237.22,0.0,0.01
1630622940.70000410,99328586,0.12,0.23,-17.16,-17.19,237.44,237.15,0.0,0.01
1630622940.79996395,99428546,0.12,0.26,-17.18,-17.2,237.47,237.12,0.0,0.01
1630622940.89992404,99528506,0.14,0.27,-17.23,-17.23,237.49,237.13,0.0,0.01
1630622940.99988389,99628466,0.14,0.26,-17.27,-17.27,237.51,237.16,0.0,0.01
1630622941.09984398,99728426,0.13,0.24,-17.29,-17.3,237.54,237.23,0.0,0.01
1630622941.19980407,99828386,0.13,0.22,-17.3,-17.32,237.56,237.31,0.0,0.01
1630622941.29976392,99928346,0.1,0.18,-17.32,-17.34,237.58,237.4,0.0,0.01
1630622941.39972401,100028306,0.06,0.12,-17.36,-17.36,237.6,237.49,0.0,0.01
1630622941.49968410,100128266,0.03,0.07,-17.39,-17.38,237.63,237.57,0.0,0.01
1630622941.59964395,100228226,0.01,0.02,-17.42,-17.41,237.65,237.63,0.0,0.01
1630622941.69960403,100328186,0.02,0.01,-17.45,-17.44,237.67,237.68,0.0,0.01
1630622941.80039692,100428979,0.03,0.0,-17.46,-17.47,237.69,237.71,0.0,0.01
1630622941.90035701,100528939,0.03,0.02,-17.44,-17.47,237.71,237.73,0.0,0.01
1630622942.00031710,100628899,0.03,0.03,-17.43,-17.46,237.74,237.73,0.0,0.01
1630622942.10027695,100728859,0.03,0.03,-17.46,-17.46,237.76,237.73,0.0,0.01
1630622942.20023704,100828819,0.06,0.05,-17.51,-17.5,237.79,237.73,0.0,0.0
1630622942.30019689,100928779,0.1,0.11,-17.54,-17.54,237.82,237.73,0.0,0.0
1630622942.40015697,101028739,0.1,0.15,-17.56,-17.57,237.84,237.74,0.0,0.0
1630622942.50011706,101128699,0.08,0.15,-17.56,-17.59,237.87,237.75,0.0,0.0
1630622942.60007691,101228659,0.1,0.14,-17.57,-17.59,237.9,237.77,0.0,0.0
1630622942.70003700,101328619,0.11,0.15,-17.6,-17.61,237.93,237.79,0.0,0.0
1630622942.79999709,101428579,0.12,0.16,-17.63,-17.64,237.95,237.82,0.0,0.0
1630622942.89995694,101528539,0.09,0.15,-17.65,-17.67,237.98,237.85,0.0,0.0
1630622942.99991703,101628499,0.05,0.11,-17.68,-17.69,238.0,237.89,0.0,0.0
1630622943.09987688,101728459,0.05,0.09,-17.69,-17.7,238.03,237.93,0.0,0.0
1630622943.19983697,101828419,0.06,0.08,-17.68,-17.7,238.05,237.96,0.0,0.0
1630622943.29979706,101928379,0.09,0.1,-17.65,-17.67,238.07,238.0,0.0,0.0
1630622943.39975691,102028339,0.12,0.12,-17.67,-17.65,238.1,238.03,0.0,0.0
1630622943.49971700,102128299,0.13,0.14,-17.71,-17.68,238.12,238.06,0.0,0.0
1630622943.59967709,102228259,0.12,0.14,-17.77,-17.74,238.14,238.09,0.0,0.0
1630622943.69963694,102328219,0.11,0.14,-17.81,-17.8,238.17,238.11,0.0,0.0
1630622943.79959702,102428179,0.09,0.12,-17.85,-17.85,238.19,238.13,0.0,0.0
1630622943.90038991,102528972,0.06,0.1,-17.85,-17.88,238.21,238.15,0.0,0.0
1630622944.00035000,102628932,0.06,0.08,-17.83,-17.87,238.23,238.17,0.0,0.0
1630622944.10031009,102728892,0.06,0.06,-17.82,-17.85,238.25,238.19,0.0,0.0
1630622944.20026994,102828852,0.07,0.07,-17.82,-17.84,238.28,238.21,0.0,0.0
1630622944.30023003,102928812,0.11,0.1,-17.84,-17.83,238.3,238.23,0.0,0.0
1630622944.40019011,103028772,0.14,0.14,-17.88,-17.86,238.32,238.25,0.0,0.0
1630622944.50014997,103128732,0.15,0.17,-17.91,-17.9,238.34,238.27,0.0,0.0
1630622944.60011005,103228692,0.16,0.19,-17.93,-17.93,238.36,238.28,0.0,0.0
1630622944.70006990,103328652,0.16,0.2,-17.93,-17.95,238.38,238.3,0.0,0.0
1630622944.80002999,103428612,0.16,0.2,-17.92,-17.95,238.4,238.33,0.0,0.0
1630622944.89999008,103528572,0.18,0.2,-17.91,-17.94,238.42,238.35,0.0,0.0
1630622944.99994993,103628532,0.17,0.2,-17.92,-17.94,238.44,238.37,0.0,0.0
1630622945.09991002,103728492,0.15,0.18,-17.92,-17.93,238.46,238.4,0.0,0.0
1630622945.19987011,103828452,0.14,0.16,-17.92,-17.93,238.48,238.42,0.0,0.0
1630622945.29982996,103928412,0.14,0.15,-17.91,-17.92,238.5,238.44,0.0,0.0
1630622945.39979005,104028372,0.15,0.15,-17.93,-17.93,238.52,238.47,0.0,0.0
1630622945.49974990,104128332,0.16,0.16,-17.95,-17.95,238.53,238.49,0.0,0.0
1630622945.59970999,104228292,0.16,0.17,-17.96,-17.97,238.55,238.5,0.0,0.0
1630622945.69967008,104328252,0.17,0.18,-17.98,-17.99,238.56,238.52,0.0,0.0
1630622945.79962993,104428212,0.17,0.19,-17.99,-18.0,238.58,238.53,0.0,0.0
1630622945.89959002,104528172,0.17,0.2,-17.99,-18.01,238.59,238.54,0.0,0.0
1630622946.00038290,104628965,0.16,0.18,-17.98,-18.0,238.61,238.55,0.0,0.0
1630622946.10034299,104728925,0.15,0.17,-17.96,-17.98,238.62,238.57,0.0,0.0
1630622946.20030308,104828885,0.13,0.15,-17.98,-17.98,238.64,238.58,0.0,0.0
1630622946.30026293,104928845,0.14,0.14,-18.0,-17.99,238.65,238.59,0.0,0.0
1630622946.40022302,105028805,0.18,0.17,-18.03,-18.02,238.66,238.6,0.0,0.0
1630622946.50018311,105128765,0.22,0.21,-18.05,-18.05,238.67,238.61,0.0,0.0
1630622946.60014296,105228725,0.24,0.25,-18.06,-18.07,238.68,238.63,0.0,0.0
1630622946.70010304,105328685,0.24,0.26,-18.07,-18.09,238.7,238.64,0.0,0.0
1630622946.80006289,105428645,0.2,0.24,-18.08,-18.1,238.71,238.65,0.0,0.0
1630622946.90002298,105528605,0.18,0.21,-18.1,-18.1,238.72,238.66,0.0,0.0
1630622946.99998307,105628565,0.19,0.19,-18.12,-18.12,238.73,238.68,0.0,0.0
1630622947.09994292,105728525,0.21,0.2,-18.1,-18.13,238.73,238.69,0.0,0.0
1630622947.19990301,105828485,0.24,0.23,-18.08,-18.11,238.74,238.7,0.0,0.0
1630622947.29986310,105928445,0.25,0.26,-18.07,-18.09,238.75,238.71,0.0,0.0
1630622947.39982295,106028405,0.23,0.26,-18.08,-18.09,238.76,238.72,0.0,0.0
1630622947.49978304,106128365,0.22,0.24,-18.11,-18.1,238.77,238.73,0.0,0.0
1630622947.59974289,106228325,0.22,0.23,-18.15,-18.14,238.78,238.74,0.0,0.0
1630622947.69970298,106328285,0.21,0.23,-18.16,-18.17,238.79,238.75,0.0,0.0
1630622947.79966307,106428245,0.21,0.23,-18.16,-18.19,238.79,238.76,0.0,0.0
1630622947.89962292,106528205,0.21,0.23,-18.15,-18.19,238.8,238.77,0.0,0.0
1630622947.99958301,106628165,0.21,0.22,-18.12,-18.17,238.8,238.77,0.0,0.0
1630622948.10037589,106728958,0.21,0.22,-18.08,-18.13,238.81,238.78,0.0,0.0
1630622948.20033598,106828918,0.22,0.22,-18.06,-18.08,238.81,238.78,0.0,0.0
1630622948.30029607,106928878,0.21,0.22,-18.07,-18.07,238.82,238.79,0.0,0.0
1630622948.40025592,107028838,0.2,0.21,-18.12,-18.09,238.82,238.79,0.0,0.0
1630622948.50021601,107128798,0.18,0.19,-18.15,-18.12,238.82,238.79,0.0,0.0
1630622948.60017610,107228758,0.18,0.18,-18.17,-18.17,238.82,238.79,0.0,0.0
1630622948.70013595,107328718,0.17,0.17,-18.18,-18.19,238.82,238.79,0.0,0.0
1630622948.80009604,107428678,0.15,0.16,-18.19,-18.21,238.83,238.79,0.0,0.0
1630622948.90005589,107528638,0.16,0.16,-18.18,-18.21,238.83,238.79,0.0,0.0
1630622949.00001597,107628598,0.18,0.17,-18.17,-18.19,238.83,238.79,0.0,0.0
1630622949.09997606,107728558,0.17,0.18,-18.15,-18.17,238.83,238.79,0.0,0.0
1630622949.19993591,107828518,0.16,0.17,-18.15,-18.16,238.83,238.79,0.0,0.0
1630622949.29989600,107928478,0.13,0.15,-18.14,-18.14,238.83,238.79,0.0,0.0
1630622949.39985609,108028438,0.13,0.13,-18.16,-18.14,238.83,238.79,0.0,0.0
1630622949.49981594,108128398,0.15,0.13,-18.19,-18.17,238.83,238.79,0.0,0.0
1630622949.59977603,108228358,0.15,0.15,-18.21,-18.21,238.83,238.79,0.0,0.0
1630622949.69973612,108328318,0.14,0.15,-18.22,-18.23,238.83,238.8,0.0,0.0
1630622949.79969597,108428278,0.17,0.16,-18.22,-18.24,238.83,238.8,0.0,0.0
1630622949.89965606,108528238,0.2,0.19,-18.21,-18.25,238.83,238.8,0.0,0.0
1630622949.99961591,108628198,0.21,0.22,-18.2,-18.24,238.83,238.8,0.0,0.0
1630622950.09957600,108728158,0.2,0.22,-18.18,-18.21,238.84,238.8,0.0,0.0
1630622950.20036888,108828951,0.19,0.21,-18.15,-18.17,238.84,238.8,0.0,0.0
1630622950.30032897,108928911,0.18,0.19,-18.13,-18.13,238.84,238.81,0.0,0.0
1630622950.40028906,109028871,0.16,0.16,-18.12,-18.11,238.84,238.81,0.0,0.0
1630622950.50024891,109128831,0.18,0.16,-18.13,-18.11,238.84,238.81,0.0,0.0
1630622950.60020900,109228791,0.2,0.19,-18.14,-18.13,238.85,238.81,0.0,0.0
1630622950.70016909,109328751,0.23,0.22,-18.18,-18.17,238.85,238.82,0.0,0.0
1630622950.80012894,109428711,0.25,0.26,-18.22,-18.21,238.85,238.82,0.0,0.0
1630622950.90008903,109528671,0.27,0.28,-18.22,-18.25,238.86,238.82,0.0,0.0
1630622951.00004911,109628631,0.26,0.29,-18.18,-18.24,238.86,238.83,0.0,0.0
1630622951.10000896,109728591,0.25,0.28,-18.15,-18.19,238.86,238.84,0.0,0.0
1630622951.19996905,109828551,0.24,0.26,-18.15,-18.17,238.87,238.84,0.0,0.0
1630622951.29992890,109928511,0.23,0.24,-18.18,-18.17,238.87,238.84,0.0,0.0
1630622951.39988899,110028471,0.23,0.23,-18.21,-18.2,238.87,238.84,0.0,0.0
1630622951.49984908,110128431,0.25,0.24,-18.24,-18.23,238.87,238.85,0.0,0.0
1630622951.59980893,110228391,0.27,0.27,-18.28,-18.27,238.88,238.85,0.0,0.0
1630622951.69976902,110328351,0.25,0.27,-18.3,-18.31,238.88,238.85,0.0,0.0
1630622951.79972911,110428311,0.24,0.26,-18.29,-18.33,238.88,238.85,0.0,0.0
1630622951.89968896,110528271,0.23,0.25,-18.27,-18.31,238.88,238.85,0.0,0.0
1630622951.99964905,110628231,0.22,0.22,-18.27,-18.28,238.88,238.86,0.0,0.0
1630622952.09960890,110728191,0.2,0.2,-18.27,-18.28,238.88,238.86,0.0,0.0
1630622952.20040202,110828984,0.19,0.18,-18.27,-18.28,238.88,238.86,0.0,0.0
1630622952.30036211,110928944,0.19,0.17,-18.26,-18.28,238.88,238.86,0.0,0.0
1630622952.40032196,111028904,0.19,0.17,-18.23,-18.27,238.88,238.86,0.0,0.0
1630622952.50028205,111128864,0.2,0.18,-18.24,-18.26,238.88,238.86,0.0,0.0
1630622952.60024190,111228824,0.22,0.2,-18.25,-18.26,238.88,238.85,0.0,0.0
1630622952.70020199,111328784,0.23,0.23,-18.26,-18.27,238.88,238.85,0.0,0.0
1630622952.80016208,111428744,0.24,0.24,-18.25,-18.27,238.88,238.85,0.0,0.0
1630622952.90012193,111528704,0.21,0.23,-18.25,-18.26,238.88,238.85,0.0,0.0
1630622953.00008202,111628664,0.19,0.2,-18.24,-18.25,238.88,238.85,0.0,0.0
1630622953.10004210,111728624,0.2,0.19,-18.23,-18.24,238.88,238.85,0.0,0.0
1630622953.20000196,111828584,0.22,0.2,-18.23,-18.23,238.88,238.85,0.0,0.0
1630622953.29996204,111928544,0.23,0.23,-18.24,-18.23,238.88,238.85,0.0,0.0
1630622953.39992189,112028504,0.22,0.24,-18.27,-18.25,238.88,238.86,0.0,0.0
1630622953.49988198,112128464,0.22,0.25,-18.29,-18.28,238.88,238.86,0.0,0.0
1630622953.59984207,112228424,0.24,0.25,-18.29,-18.3,238.88,238.86,0.0,0.0
1630622953.69980192,112328384,0.25,0.27,-18.26,-18.29,238.89,238.87,0.0,0.0
1630622953.79976201,112428344,0.27,0.27,-18.25,-18.27,238.89,238.87,0.0,0.0
1630622953.89972210,112528304,0.27,0.27,-18.26,-18.27,238.89,238.88,0.0,0.0
1630622953.99968195,112628264,0.25,0.26,-18.26,-18.28,238.89,238.88,0.0,0.0
1630622954.09964204,112728224,0.22,0.24,-18.27,-18.28,238.89,238.88,0.0,0.0
1630622954.19960189,112828184,0.21,0.21,-18.26,-18.29,238.89,238.88,0.0,0.0
1630622954.30039501,112928977,0.21,0.19,-18.25,-18.29,238.89,238.88,0.0,0.0
1630622954.40035510,113028937,0.23,0.2,-18.23,-18.27,238.89,238.88,0.0,0.0
1630622954.50031495,113128897,0.25,0.22,-18.24,-18.25,238.89,238.88,0.0,0.0
1630622954.60027504,113228857,0.27,0.25,-18.23,-18.24,238.89,238.87,0.0,0.0
1630622954.70023489,113328817,0.27,0.29,-18.22,-18.23,238.89,238.87,0.0,0.0
1630622954.80019498,113428777,0.25,0.28,-18.22,-18.22,238.89,238.86,0.0,0.0
1630622954.90015507,113528737,0.23,0.26,-18.23,-18.23,238.89,238.86,0.0,0.0
1630622955.00011492,113628697,0.2,0.22,-18.23,-18.24,238.89,238.86,0.0,0.0
1630622955.10007501,113728657,0.19,0.2,-18.21,-18.22,238.89,238.86,0.0,0.0
1630622955.20003510,113828617,0.22,0.21,-18.2,-18.21,238.89,238.87,0.0,0.0
1630622955.29999495,113928577,0.26,0.25,-18.2,-18.2,238.89,238.87,0.0,0.0
1630622955.39995503,114028537,0.29,0.29,-18.19,-18.2,238.89,238.87,0.0,0.0
1630622955.49991488,114128497,0.27,0.29,-18.21,-18.2,238.89,238.88,0.0,0.0
1630622955.59987497,114228457,0.28,0.29,-18.25,-18.24,238.9,238.88,0.0,0.0
1630622955.69983506,114328417,0.3,0.3,-18.27,-18.27,238.9,238.89,0.0,0.0
1630622955.79979491,114428377,0.3,0.3,-18.29,-18.3,238.9,238.89,0.0,0.0
1630622955.89975500,114528337,0.32,0.31,-18.31,-18.32,238.9,238.89,0.0,0.0
1630622955.99971509,114628297,0.32,0.31,-18.32,-18.34,238.9,238.89,0.0,0.0
1630622956.09967494,114728257,0.31,0.3,-18.31,-18.33,238.9,238.89,0.0,0.0
1630622956.19963503,114828217,0.28,0.28,-18.3,-18.32,238.9,238.89,0.0,0.0
1630622956.29959512,114928177,0.26,0.26,-18.27,-18.3,238.9,238.89,0.0,0.0
1630622956.40038800,115028970,0.25,0.24,-18.25,-18.27,238.9,238.89,0.0,0.0
1630622956.50034809,115128930,0.26,0.23,-18.25,-18.25,238.9,238.89,0.0,0.0
1630622956.60030794,115228890,0.27,0.24,-18.26,-18.25,238.9,238.89,0.0,0.0
1630622956.70026803,115328850,0.3,0.27,-18.26,-18.24,238.9,238.89,0.0,0.0
1630622956.80022788,115428810,0.33,0.31,-18.27,-18.26,238.9,238.89,0.0,0.0
1630622956.90018797,115528770,0.34,0.34,-18.28,-18.28,238.9,238.88,0.0,0.0
1630622957.00014806,115628730,0.31,0.34,-18.29,-18.3,238.91,238.88,0.0,0.0
1630622957.10010791,115728690,0.28,0.31,-18.27,-18.3,238.91,238.89,0.0,0.0
1630622957.20006800,115828650,0.28,0.29,-18.26,-18.28,238.91,238.89,0.0,0.0
1630622957.30002809,115928610,0.31,0.29,-18.26,-18.27,238.91,238.89,0.0,0.0
1630622957.39998794,116028570,0.31,0.31,-18.27,-18.27,238.91,238.89,0.0,0.0
1630622957.49994802,116128530,0.3,0.3,-18.29,-18.28,238.91,238.89,0.0,0.0
1630622957.59990811,116228490,0.3,0.31,-18.31,-18.3,238.91,238.9,0.0,0.0
1630622957.69986796,116328450,0.3,0.31,-18.3,-18.32,238.91,238.9,0.0,0.0
1630622957.79982805,116428410,0.28,0.3,-18.28,-18.32,238.91,238.9,0.0,0.0
1630622957.89978790,116528370,0.26,0.27,-18.28,-18.3,238.91,238.9,0.0,0.0
1630622957.99974799,116628330,0.28,0.26,-18.28,-18.3,238.91,238.89,0.0,0.0
1630622958.09970808,116728290,0.3,0.27,-18.26,-18.3,238.9,238.89,0.0,0.0
1630622958.19966793,116828250,0.29,0.28,-18.25,-18.29,238.9,238.89,0.0,0.0
1630622958.29962802,116928210,0.3,0.29,-18.24,-18.26,238.9,238.89,0.0,0.0
1630622958.39958811,117028170,0.31,0.3,-18.26,-18.26,238.9,238.89,0.0,0.0
1630622958.50038099,117128963,0.33,0.32,-18.25,-18.26,238.91,238.89,0.0,0.0
1630622958.60034108,117228923,0.34,0.34,-18.25,-18.26,238.91,238.89,0.0,0.0
1630622958.70030093,117328883,0.34,0.34,-18.28,-18.28,238.91,238.89,0.0,0.0
1630622958.80026102,117428843,0.35,0.35,-18.31,-18.31,238.91,238.89,0.0,0.0
1630622958.90022111,117528803,0.33,0.35,-18.28,-18.31,238.91,238.89,0.0,0.0
1630622959.00018096,117628763,0.32,0.35,-18.26,-18.3,238.91,238.89,0.0,0.0
1630622959.10014105,117728723,0.32,0.33,-18.25,-18.28,238.91,238.89,0.0,0.0
1630622959.20010090,117828683,0.3,0.31,-18.26,-18.27,238.91,238.89,0.0,0.0
1630622959.30006099,117928643,0.28,0.28,-18.27,-18.27,238.91,238.9,0.0,0.0
1630622959.40002108,118028603,0.28,0.26,-18.28,-18.28,238.91,238.9,0.0,0.0
1630622959.49998093,118128563,0.28,0.26,-18.27,-18.29,238.91,238.9,0.0,0.0
1630622959.59994102,118228523,0.3,0.27,-18.26,-18.27,238.91,238.9,0.0,0.0
1630622959.69990110,118328483,0.32,0.3,-18.25,-18.26,238.91,238.9,0.0,0.0
1630622959.79986095,118428443,0.33,0.33,-18.24,-18.26,238.91,238.9,0.0,0.0
1630622959.89982104,118528403,0.33,0.35,-18.26,-18.26,238.91,238.9,0.0,0.0
1630622959.99978089,118628363,0.31,0.33,-18.29,-18.28,238.91,238.9,0.0,0.0
1630622960.09974098,118728323,0.25,0.3,-18.28,-18.3,238.8,238.89,0.0,0.0
1630622960.19970107,118828283,-0.47,-0.17,-18.02,-18.18,238.25,238.86,0.0,0.0
1630622960.29966092,118928243,-1.65,-1.34,-17.65,-17.85,237.41,238.69,0.0,0.0
1630622960.39962101,119028203,-2.75,-2.82,-17.35,-17.46,236.39,238.28,0.0,0.0
1630622960.49958110,119128163,-3.54,-4.13,-17.18,-17.15,235.24,237.57,0.0,0.0
1630622960.60037398,119228956,-3.91,-4.96,-17.16,-17.0,234.03,236.55,0.0,0.0
1630622960.70033407,119328916,-3.93,-5.21,-17.17,-16.98,232.79,235.25,0.0,0.0
1630622960.80029392,119428876,-3.69,-4.95,-17.23,-17.06,231.55,233.71,0.0,0.0
1630622960.90025401,119528836,-3.36,-4.37,-17.32,-17.18,230.32,232.0,0.0,0.01
1630622961.00021410,119628796,-3.09,-3.7,-17.39,-17.33,229.13,230.21,0.0,0.01
1630622961.10017395,119728756,-2.89,-3.12,-17.43,-17.44,227.96,228.41,0.0,0.01
1630622961.20013404,119828716,-2.77,-2.68,-17.42,-17.49,226.82,226.69,0.0,0.01
1630622961.30009389,119928676,-2.69,-2.39,-17.43,-17.5,225.72,225.1,0.0,0.01
1630622961.40005398,120028636,-2.63,-2.23,-17.47,-17.52,224.64,223.68,0.0,0.01
1630622961.50001407,120128596,-2.61,-2.16,-17.52,-17.55,223.59,222.44,0.0,0.01
1630622961.59997392,120228556,-2.62,-2.18,-17.58,-17.61,222.58,221.39,0.0,0.01
1630622961.69993401,120328516,-2.61,-2.24,-17.63,-17.66,221.6,220.48,0.0,0.01
1630622961.79989409,120428476,-2.57,-2.3,-17.64,-17.69,220.66,219.7,0.0,0.01
1630622961.89985394,120528436,-2.53,-2.34,-17.63,-17.69,219.75,219.01,0.0,0.01
1630622961.99981403,120628396,-2.48,-2.36,-17.63,-17.67,218.87,218.38,0.0,0.01
1630622962.09977388,120728356,-2.45,-2.39,-17.67,-17.67,218.04,217.76,0.0,0.0
1630622962.19973397,120828316,-2.43,-2.42,-17.7,-17.7,217.24,217.15,0.0,0.0
1630622962.29969406,120928276,-2.36,-2.42,-17.72,-17.72,216.48,216.52,0.0,0.0
1630622962.39965391,121028236,-2.26,-2.35,-17.74,-17.74,215.75,215.87,0.0,0.0
1630622962.49961400,121128196,-2.17,-2.25,-17.76,-17.76,215.06,215.2,0.0,0.0
1630622962.59957409,121228156,-2.08,-2.14,-17.77,-17.78,214.4,214.52,0.0,0.0
1630622962.70036697,121328949,-1.98,-2.02,-17.78,-17.78,213.78,213.83,0.0,0.0
1630622962.80032706,121428909,-1.86,-1.87,-17.79,-17.8,213.19,213.15,0.0,0.0
1630622962.90028691,121528869,-1.72,-1.7,-17.82,-17.82,212.63,212.5,0.0,0.0
1630622963.00024700,121628829,-1.57,-1.53,-17.84,-17.85,212.1,211.88,0.0,0.0
1630622963.10020709,121728789,-1.43,-1.36,-17.87,-17.87,211.6,211.31,0.0,0.0
1630622963.20016694,121828749,-1.32,-1.21,-17.9,-17.9,211.13,210.78,0.0,0.0
1630622963.30012703,121928709,-1.25,-1.1,-17.93,-17.93,210.69,210.3,0.0,0.0
1630622963.40008712,122028669,-1.18,-1.02,-17.97,-17.97,210.27,209.88,0.0,0.0
1630622963.50004697,122128629,-1.14,-0.98,-18.0,-18.01,209.87,209.5,0.0,0.0
1630622963.60000706,122228589,-1.11,-0.96,-18.01,-18.04,209.49,209.17,0.0,0.0
1630622963.69996691,122328549,-1.06,-0.95,-18.02,-18.05,209.14,208.86,0.0,0.0
1630622963.79992700,122428509,-0.98,-0.92,-17.99,-18.04,208.8,208.57,0.0,0.0
1630622963.89988708,122528469,-0.9,-0.87,-17.95,-17.99,208.49,208.31,0.0,0.0
1630622963.99984694,122628429,-0.82,-0.8,-17.95,-17.96,208.19,208.05,0.0,0.0
1630622964.09980702,122728389,-0.76,-0.75,-17.99,-17.97,207.91,207.8,0.0,0.0
1630622964.19976711,122828349,-0.71,-0.69,-18.03,-18.0,207.65,207.56,0.0,0.0
1630622964.29972696,122928309,-0.68,-0.64,-18.06,-18.05,207.4,207.32,0.0,0.0
1630622964.39968705,123028269,-0.67,-0.62,-18.07,-18.08,207.17,207.09,0.0,0.0
1630622964.49964690,123128229,-0.6,-0.58,-18.08,-18.1,206.96,206.87,0.0,0.0
1630622964.59960699,123228189,-0.51,-0.51,-18.06,-18.1,206.76,206.65,0.0,0.0
1630622964.70040011,123328982,-0.42,-0.41,-18.07,-18.1,206.57,206.45,0.0,0.0
1630622964.80035996,123428942,-0.35,-0.32,-18.07,-18.1,206.4,206.26,0.0,0.0
1630622964.90032005,123528902,-0.28,-0.24,-18.07,-18.09,206.24,206.09,0.0,0.0
1630622965.00027990,123628862,-0.19,-0.15,-18.08,-18.09,206.09,205.93,0.0,0.0
1630622965.10023999,123728822,-0.15,-0.09,-18.09,-18.09,205.95,205.79,0.0,0.0
1630622965.20020008,123828782,-0.16,-0.07,-18.08,-18.09,205.82,205.66,0.0,0.0
1630622965.30015993,123928742,-0.16,-0.08,-18.07,-18.09,205.7,205.54,0.0,0.0
1630622965.40012002,124028702,-0.16,-0.1,-18.08,-18.09,205.58,205.44,0.0,0.0
1630622965.50008011,124128662,-0.13,-0.1,-18.07,-18.08,205.47,205.35,0.0,0.0
1630622965.60003996,124228622,-0.08,-0.08,-18.08,-18.09,205.38,205.26,0.0,0.0
1630622965.70000005,124328582,-0.04,-0.05,-18.12,-18.12,205.28,205.19,0.0,0.0
1630622965.79995990,124428542,-0.02,-0.02,-18.12,-18.14,205.2,205.11,0.0,0.0
