timestamp,TimeUS,DesRoll,Roll,DesPitch,Pitch,DesYaw,Yaw,ErrRP,ErrYaw
1630618152.29920697,54528180,0.0,0.09,0.0,0.08,352.9,352.91,0.0,0.0
1630618152.40000010,54628973,0.0,0.09,0.0,0.08,352.9,352.91,0.0,0.0
1630618152.49996018,54728933,0.0,0.09,0.0,0.08,352.9,352.91,0.0,0.0
1630618152.59992003,54828893,0.0,0.09,0.0,0.08,352.9,352.91,0.0,0.0
1630618152.69988012,54928853,0.0,0.09,0.0,0.08,352.9,352.91,0.0,0.0
1630618152.79983997,55028813,0.0,0.09,0.0,0.08,352.9,352.91,0.0,0.0
1630618152.89980006,55128773,0.0,0.09,0.0,0.08,352.9,352.91,0.0,0.0
1630618152.99976015,55228733,0.0,0.09,0.0,0.08,352.91,352.92,0.0,0.0
1630618153.09972000,55328693,0.0,0.09,0.0,0.08,352.91,352.92,0.0,0.0
1630618153.19968009,55428653,0.0,0.09,0.0,0.08,352.91,352.92,0.0,0.0
1630618153.29964018,55528613,0.0,0.09,0.0,0.08,352.91,352.92,0.0,0.0
1630618153.39960003,55628573,0.0,0.09,0.0,0.08,352.91,352.92,0.0,0.0
1630618153.49956012,55728533,0.0,0.09,0.0,0.08,352.91,352.92,0.0,0.0
1630618153.59952021,55828493,0.0,0.09,0.0,0.08,352.91,352.92,0.0,0.0
1630618153.69948006,55928453,0.0,0.09,0.0,0.08,352.91,352.92,0.0,0.0
1630618153.79944015,56028413,0.0,0.09,0.0,0.08,352.91,352.92,0.0,0.0
1630618153.89940000,56128373,0.0,0.09,0.0,0.08,352.91,352.92,0.0,0.0
1630618153.99936008,56228333,0.0,0.09,0.0,0.08,352.91,352.92,0.0,0.0
1630618154.09932017,56328293,0.0,0.09,0.0,0.08,352.91,352.92,0.0,0.0
1630618154.19928002,56428253,0.0,0.09,0.0,0.08,352.91,352.92,0.0,0.0
1630618154.29924011,56528213,0.0,0.09,0.0,0.08,352.91,352.92,0.0,0.0
1630618154.39920020,56628173,0.0,0.09,0.0,0.08,352.91,352.92,0.0,0.0
1630618154.49999309,56728966,0.0,0.09,0.0,0.08,352.91,352.92,0.0,0.0
1630618154.59995317,56828926,0.0,0.09,0.0,0.08,352.91,352.92,0.0,0.0
1630618154.69991302,56928886,0.0,0.1,0.0,0.08,352.91,352.92,0.0,0.0
1630618154.79987311,57028846,0.0,0.1,0.0,0.08,352.91,352.92,0.0,0.0
1630618154.89983320,57128806,0.0,0.1,0.0,0.08,352.91,352.92,0.0,0.0
1630618154.99979305,57228766,0.0,0.1,0.0,0.08,352.91,352.92,0.0,0.0
1630618155.09975314,57328726,0.0,0.1,0.0,0.08,352.91,352.92,0.0,0.0
1630618155.19971299,57428686,0.0,0.1,0.0,0.08,352.92,352.93,0.0,0.0
1630618155.29967308,57528646,0.0,0.1,0.0,0.08,352.92,352.93,0.0,0.0
1630618155.39963317,57628606,0.0,0.1,0.0,0.08,352.92,352.93,0.0,0.0
1630618155.49959302,57728566,0.0,0.1,0.0,0.08,352.92,352.93,0.0,0.0
1630618155.59955311,57828526,0.0,0.1,0.0,0.08,352.92,352.93,0.0,0.0
1630618155.69951320,57928486,-0.02,0.1,-0.02,0.08,352.92,352.93,0.0,0.0
1630618155.79947305,58028446,-0.12,0.1,-0.12,0.08,352.92,352.93,0.0,0.0
1630618155.89943314,58128406,-0.18,0.1,-0.18,0.08,352.92,352.93,0.0,0.0
1630618155.99939299,58228366,-0.22,0.1,-0.22,0.08,352.92,352.93,0.0,0.0
1630618156.09935308,58328326,-0.25,0.1,-0.24,0.08,352.92,352.93,0.0,0.0
1630618156.19931316,58428286,-0.27,0.1,-0.27,0.08,352.92,352.93,0.0,0.0
1630618156.29927301,58528246,-0.29,0.1,-0.29,0.08,352.92,352.93,0.0,0.0
1630618156.39923310,58628206,-0.31,0.1,-0.31,0.08,352.92,352.93,0.0,0.0
1630618156.49919319,58728166,-0.33,0.1,-0.32,0.08,352.92,352.93,0.0,0.0
1630618156.59998608,58828959,-0.35,0.1,-0.35,0.08,352.92,352.93,0.0,0.0
1630618156.69994617,58928919,-0.36,0.1,-0.38,0.08,352.92,352.93,0.0,0.0
1630618156.79990602,59028879,-0.36,0.1,-0.41,0.08,352.92,352.93,0.0,0.0
1630618156.89986610,59128839,-0.39,0.1,-0.42,0.09,352.92,352.93,0.0,0.0
1630618156.99982619,59228799,-0.41,0.1,-0.43,0.08,352.92,352.93,0.0,0.0
1630618157.09978604,59328759,-0.4,0.1,-0.44,0.09,352.92,352.93,0.0,0.0
1630618157.19974613,59428719,-0.4,0.1,-0.48,0.09,352.92,352.93,0.0,0.0
1630618157.29970598,59528679,-0.42,0.04,-0.54,0.02,352.92,352.93,0.0,0.0
1630618157.39966607,59628639,-0.43,-0.23,-0.55,-0.29,352.92,352.93,0.0,0.0
1630618157.49962616,59728599,-0.44,-0.55,-0.52,-0.62,352.92,352.94,0.0,0.0
1630618157.59958601,59828559,-0.35,-0.75,-0.41,-0.81,352.92,352.94,0.0,0.0
1630618157.69954610,59928519,-0.18,-0.75,-0.23,-0.8,352.92,352.93,0.0,0.0
1630618157.79950619,60028479,0.06,-0.56,-0.02,-0.64,352.92,352.93,0.0,0.0
1630618157.89946604,60128439,0.26,-0.29,0.16,-0.39,352.92,352.93,0.0,0.0
1630618157.99942613,60228399,0.41,-0.03,0.35,-0.12,352.92,352.92,0.0,0.0
1630618158.09938598,60328359,0.48,0.15,0.48,0.1,352.92,352.92,0.0,0.0
1630618158.19934607,60428319,0.49,0.24,0.52,0.25,352.92,352.92,0.0,0.0
1630618158.29930615,60528279,0.46,0.26,0.5,0.3,352.92,352.92,0.0,0.0
1630618158.39926600,60628239,0.42,0.23,0.44,0.27,352.92,352.92,0.0,0.0
1630618158.49922609,60728199,0.42,0.21,0.38,0.2,352.92,352.92,0.0,0.0
1630618158.59918618,60828159,0.45,0.22,0.38,0.15,352.92,352.92,0.0,0.0
1630618158.69997907,60928952,0.45,0.25,0.36,0.14,352.92,352.92,0.0,0.0
1630618158.79993916,61028912,0.43,0.26,0.37,0.14,352.92,352.92,0.0,0.0
1630618158.89989901,61128872,0.4,0.24,0.4,0.18,352.92,352.92,0.0,0.0
1630618158.99985909,61228832,0.41,0.25,0.43,0.23,352.71,352.71,0.0,0.0
1630618159.09981918,61328792,0.43,0.27,0.43,0.28,352.71,352.71,0.0,0.0
1630618159.19977903,61428752,0.43,0.29,0.42,0.3,352.71,352.71,0.0,0.0
1630618159.29973912,61528712,0.4,0.29,0.39,0.3,352.71,352.71,0.0,0.0
1630618159.39969897,61628672,0.37,0.27,0.36,0.27,352.71,352.71,0.0,0.0
1630618159.49965906,61728632,0.36,0.26,0.34,0.25,352.71,352.72,0.0,0.0
1630618159.59961915,61828592,0.34,0.24,0.34,0.25,352.71,352.72,0.0,0.0
1630618159.69957900,61928552,0.33,0.23,0.3,0.23,352.71,352.72,0.0,0.0
1630618159.79953909,62028512,0.31,0.24,0.22,0.18,352.71,352.72,0.0,0.0
1630618159.89949918,62128472,0.26,0.22,0.17,0.13,352.71,352.72,0.0,0.0
1630618159.99945903,62228432,0.24,0.19,0.17,0.1,352.71,352.73,0.0,0.0
1630618160.09941912,62328392,0.25,0.18,0.18,0.1,352.71,352.73,0.0,0.0
1630618160.19937921,62428352,0.25,0.18,0.18,0.11,352.71,352.73,0.0,0.0
1630618160.29933906,62528312,0.23,0.18,0.18,0.12,352.71,352.72,0.0,0.0
1630618160.39929914,62628272,0.18,0.15,0.15,0.11,352.71,352.72,0.0,0.0
1630618160.49925900,62728232,0.12,0.09,0.11,0.07,352.71,352.72,0.0,0.0
1630618160.59921908,62828192,0.1,0.05,0.09,0.04,352.71,352.72,0.0,0.0
1630618160.70001221,62928985,0.11,0.04,0.08,0.03,352.71,352.72,0.0,0.0
1630618160.79997206,63028945,0.1,0.04,0.09,0.02,352.71,352.72,0.0,0.0
1630618160.89993215,63128905,0.09,0.04,0.11,0.05,352.71,352.72,0.0,0.0
1630618160.99989200,63228865,0.08,0.05,0.11,0.08,352.71,352.72,0.0,0.0
1630618161.09985209,63328825,0.05,0.04,0.15,0.11,352.71,352.72,0.0,0.0
1630618161.19981217,63428785,0.05,0.04,0.19,0.16,352.71,352.72,0.0,0.0
1630618161.29977202,63528745,0.06,0.04,0.19,0.19,352.71,352.72,0.0,0.0
1630618161.39973211,63628705,0.06,0.04,0.17,0.18,352.71,352.72,0.0,0.0
1630618161.49969220,63728665,0.08,0.06,0.16,0.16,352.71,352.72,0.0,0.0
1630618161.59965205,63828625,0.09,0.07,0.15,0.15,352.71,352.72,0.0,0.0
1630618161.69961214,63928585,0.1,0.09,0.14,0.13,352.71,352.72,0.0,0.0
1630618161.79957199,64028545,0.09,0.09,0.13,0.11,352.71,352.72,0.0,0.0
1630618161.89953208,64128505,0.08,0.08,0.15,0.12,352.71,352.72,0.0,0.0
1630618161.99949217,64228465,0.07,0.07,0.16,0.14,352.71,352.72,0.0,0.0
1630618162.09945202,64328425,0.07,0.06,0.12,0.13,352.71,352.71,0.0,0.0
1630618162.19941211,64428385,0.08,0.06,0.11,0.1,352.71,352.71,0.0,0.0
1630618162.29937220,64528345,0.09,0.07,0.1,0.09,352.71,352.71,0.0,0.0
1630618162.39933205,64628305,0.12,0.09,0.1,0.07,352.71,352.71,0.0,0.0
1630618162.49929214,64728265,0.15,0.13,0.11,0.08,352.71,352.71,0.0,0.0
1630618162.59925199,64828225,0.15,0.14,0.1,0.09,352.71,352.71,0.0,0.0
1630618162.69921207,64928185,0.17,0.16,0.1,0.09,352.71,352.71,0.0,0.0
1630618162.80000520,65028978,0.18,0.18,0.11,0.09,352.71,352.72,0.0,0.0
1630618162.89996505,65128938,0.18,0.18,0.12,0.1,352.71,352.72,0.0,0.0
1630618162.99992514,65228898,0.21,0.19,0.12,0.11,352.71,352.72,0.0,0.0
1630618163.09988499,65328858,0.18,0.19,0.13,0.12,352.71,352.71,0.0,0.0
1630618163.19984508,65428818,0.12,0.15,0.16,0.14,352.71,352.71,0.0,0.0
1630618163.29980516,65528778,0.1,0.1,0.19,0.17,352.71,352.71,0.0,0.0
1630618163.39976501,65628738,0.09,0.07,0.19,0.19,352.71,352.71,0.0,0.0
1630618163.49972510,65728698,0.11,0.08,0.15,0.17,352.71,352.71,0.0,0.0
1630618163.59968519,65828658,0.12,0.08,0.14,0.14,352.71,352.71,0.0,0.0
1630618163.69964504,65928618,0.14,0.11,0.12,0.12,352.71,352.71,0.0,0.0
1630618163.79960513,66028578,0.15,0.13,0.1,0.09,352.71,352.71,0.0,0.0
1630618163.89956498,66128538,0.15,0.15,0.07,0.07,352.71,352.71,0.0,0.0
1630618163.99952507,66228498,0.13,0.14,0.07,0.05,352.71,352.71,0.0,0.0
1630618164.09948516,66328458,0.11,0.12,0.09,0.06,352.71,352.71,0.0,0.0
1630618164.19944501,66428418,0.11,0.11,0.12,0.1,352.71,352.71,0.0,0.0
1630618164.29940510,66528378,0.1,0.1,0.13,0.12,352.71,352.71,0.0,0.0
1630618164.39936519,66628338,0.09,0.08,0.13,0.14,352.71,352.71,0.0,0.0
1630618164.49932504,66728298,0.09,0.08,0.12,0.14,352.71,352.71,0.0,0.0
1630618164.59928513,66828258,0.09,0.07,0.12,0.13,352.71,352.71,0.0,0.0
1630618164.69924498,66928218,0.1,0.07,0.09,0.12,352.71,352.71,0.0,0.0
1630618164.79920506,67028178,0.09,0.08,0.06,0.08,352.71,352.71,0.0,0.0
1630618164.89999819,67128971,0.08,0.08,0.05,0.05,352.71,352.71,0.0,0.0
1630618164.99995804,67228931,0.08,0.07,0.09,0.05,352.71,352.71,0.0,0.0
1630618165.09991813,67328891,0.14,0.1,0.13,0.09,352.71,352.71,0.0,0.0
1630618165.19987798,67428851,0.18,0.15,0.15,0.12,352.71,352.7,0.0,0.0
1630618165.29983807,67528811,0.2,0.2,0.14,0.14,352.71,352.7,0.0,0.0
1630618165.39979815,67628771,0.18,0.2,0.14,0.14,352.71,352.7,0.0,0.0
1630618165.49975801,67728731,0.16,0.19,0.14,0.15,352.71,352.7,0.0,0.0
1630618165.59971809,67828691,0.15,0.17,0.13,0.15,352.71,352.7,0.0,0.0
1630618165.69967818,67928651,0.13,0.14,0.1,0.13,352.71,352.7,0.0,0.0
1630618165.79963803,68028611,0.1,0.11,0.12,0.12,352.71,352.7,0.0,0.0
1630618165.89959812,68128571,0.07,0.07,0.13,0.12,352.71,352.7,0.0,0.0
1630618165.99955797,68228531,0.07,0.05,0.13,0.12,352.71,352.71,0.0,0.0
1630618166.09951806,68328491,0.11,0.07,0.15,0.14,352.71,352.71,0.0,0.0
1630618166.19947815,68428451,0.15,0.12,0.15,0.14,352.71,352.71,0.0,0.0
1630618166.29943800,68528411,0.17,0.17,0.14,0.15,352.71,352.72,0.0,0.0
1630618166.39939809,68628371,0.17,0.18,0.12,0.14,352.71,352.72,0.0,0.0
1630618166.49935818,68728331,0.15,0.18,0.08,0.11,352.71,352.72,0.0,0.0
1630618166.59931803,68828291,0.1,0.14,0.03,0.05,352.71,352.72,0.0,0.0
1630618166.69927812,68928251,0.1,0.1,0.02,0.01,352.71,352.72,0.0,0.0
1630618166.79923820,69028211,0.11,0.08,0.05,0.0,352.71,352.71,0.0,0.0
1630618166.89919806,69128171,0.12,0.08,0.07,0.03,352.71,352.71,0.0,0.0
1630618166.99999118,69228964,0.14,0.1,0.08,0.05,352.71,352.71,0.0,0.0
1630618167.09995103,69328924,0.15,0.13,0.12,0.09,352.71,352.71,0.0,0.0
1630618167.19991112,69428884,0.11,0.12,0.13,0.12,352.71,352.71,0.0,0.0
1630618167.29987121,69528844,0.09,0.1,0.11,0.12,352.71,352.71,0.0,0.0
1630618167.39983106,69628804,0.11,0.09,0.11,0.11,352.71,352.71,0.0,0.0
1630618167.49979115,69728764,0.14,0.11,0.09,0.09,352.71,352.71,0.0,0.0
1630618167.59975100,69828724,0.15,0.13,0.08,0.07,352.71,352.71,0.0,0.0
1630618167.69971108,69928684,0.13,0.13,0.11,0.08,352.71,352.71,0.0,0.0
1630618167.79967117,70028644,0.09,0.11,0.12,0.1,352.71,352.71,0.0,0.0
1630618167.89963102,70128604,0.08,0.08,0.08,0.09,352.71,352.71,0.0,0.0
1630618167.99959111,70228564,0.1,0.06,0.06,0.07,352.71,352.71,0.0,0.0
1630618168.09955120,70328524,0.14,0.09,0.05,0.05,352.71,352.71,0.0,0.0
1630618168.19951105,70428484,0.16,0.12,0.03,0.03,352.71,352.71,0.0,0.0
1630618168.29947114,70528444,0.15,0.14,0.03,0.02,352.71,352.71,0.0,0.0
1630618168.39943099,70628404,0.14,0.14,0.05,0.03,352.71,352.71,0.0,0.0
1630618168.49939108,70728364,0.13,0.14,0.04,0.04,352.71,352.71,0.0,0.0
1630618168.59935117,70828324,0.11,0.12,0.02,0.02,352.71,352.71,0.0,0.0
1630618168.69931102,70928284,0.1,0.11,0.04,0.02,352.71,352.71,0.0,0.0
1630618168.79927111,71028244,0.09,0.09,0.06,0.04,352.71,352.71,0.0,0.0
1630618168.89923120,71128204,0.07,0.07,0.09,0.07,352.71,352.71,0.0,0.0
1630618168.99919105,71228164,0.05,0.04,0.09,0.09,352.71,352.71,0.0,0.0
1630618169.09998417,71328957,0.05,0.02,0.08,0.1,352.71,352.71,0.0,0.0
1630618169.19994402,71428917,0.08,0.03,0.06,0.09,352.71,352.71,0.0,0.0
1630618169.29990411,71528877,0.12,0.08,0.05,0.07,352.71,352.71,0.0,0.0
1630618169.39986420,71628837,0.14,0.12,0.06,0.05,352.71,352.71,0.0,0.0
1630618169.49982405,71728797,0.16,0.15,0.07,0.05,352.71,352.71,0.0,0.0
1630618169.59978414,71828757,0.18,0.18,0.1,0.06,352.71,352.71,0.0,0.0
1630618169.69974399,71928717,0.15,0.18,0.12,0.1,352.71,352.71,0.0,0.0
1630618169.79970407,72028677,0.1,0.15,0.09,0.1,352.71,352.71,0.0,0.0
1630618169.89966416,72128637,0.06,0.11,0.07,0.09,352.71,352.71,0.0,0.0
1630618169.99962401,72228597,0.05,0.07,0.08,0.09,352.71,352.71,0.0,0.0
1630618170.09958410,72328557,0.04,0.04,0.1,0.1,352.71,352.71,0.0,0.0
1630618170.19954419,72428517,0.06,0.03,0.1,0.11,352.71,352.71,0.0,0.0
1630618170.29950404,72528477,0.08,0.04,0.11,0.11,352.71,352.71,0.0,0.0
1630618170.39946413,72628437,0.08,0.05,0.1,0.1,352.71,352.71,0.0,0.0
1630618170.49942398,72728397,0.04,0.04,0.13,0.1,352.71,352.71,0.0,0.0
1630618170.59938407,72828357,0.0,0.01,0.17,0.13,352.71,352.71,0.0,0.0
1630618170.69934416,72928317,0.0,-0.01,0.16,0.15,352.71,352.71,0.0,0.0
1630618170.79930401,73028277,0.04,0.0,0.14,0.15,352.71,352.71,0.0,0.0
1630618170.89926410,73128237,0.08,0.04,0.13,0.14,352.71,352.71,0.0,0.0
1630618170.99922419,73228197,0.1,0.07,0.11,0.12,352.71,352.71,0.0,0.0
1630618171.09918404,73328157,0.1,0.09,0.09,0.09,352.71,352.71,0.0,0.0
1630618171.19997716,73428950,0.12,0.11,0.11,0.08,352.71,352.71,0.0,0.0
1630618171.29993701,73528910,0.14,0.14,0.13,0.1,352.71,352.72,0.0,0.0
1630618171.39989710,73628870,0.14,0.14,0.12,0.11,352.71,352.72,0.0,0.0
1630618171.49985719,73728830,0.18,0.16,0.1,0.1,352.71,352.72,0.0,0.0
1630618171.59981704,73828790,0.2,0.19,0.08,0.07,352.71,352.72,0.0,0.0
1630618171.69977713,73928750,0.19,0.2,0.08,0.06,352.71,352.72,0.0,0.0
1630618171.79973698,74028710,0.16,0.19,0.09,0.07,352.71,352.72,0.0,0.0
1630618171.89969707,74128670,0.16,0.17,0.11,0.09,352.71,352.72,0.0,0.0
1630618171.99965715,74228630,0.18,0.16,0.15,0.12,352.71,352.72,0.0,0.0
1630618172.09961700,74328590,0.18,0.17,0.14,0.14,352.71,352.72,0.0,0.0
1630618172.19957709,74428550,0.17,0.16,0.12,0.14,352.71,352.72,0.0,0.0
1630618172.29953718,74528510,0.17,0.16,0.09,0.11,352.71,352.72,0.0,0.0
1630618172.39949703,74628470,0.17,0.17,0.04,0.06,352.71,352.71,0.0,0.0
1630618172.49945712,74728430,0.17,0.17,0.02,0.01,352.71,352.71,0.0,0.0
1630618172.59941697,74828390,0.18,0.17,0.01,0.0,352.71,352.71,0.0,0.0
1630618172.69937706,74928350,0.14,0.15,0.0,-0.01,352.71,352.71,0.0,0.0
1630618172.79933715,75028310,0.11,0.11,0.04,0.0,352.71,352.71,0.0,0.0
1630618172.89929700,75128270,0.11,0.09,0.05,0.03,352.71,352.71,0.0,0.0
1630618172.99925709,75228230,0.15,0.12,0.05,0.03,352.71,352.71,0.0,0.0
1630618173.09921718,75328190,0.17,0.16,0.06,0.05,352.71,352.71,0.0,0.0
1630618173.20001006,75428983,0.21,0.19,0.07,0.06,352.71,352.72,0.0,0.0
1630618173.29997015,75528943,0.23,0.23,0.07,0.07,352.71,352.72,0.0,0.0
1630618173.39993000,75628903,0.22,0.24,0.03,0.05,352.71,352.72,0.0,0.0
1630618173.49989009,75728863,0.17,0.2,0.03,0.03,352.71,352.72,0.0,0.0
1630618173.59985018,75828823,0.14,0.15,0.05,0.04,352.71,352.72,0.0,0.0
1630618173.69981003,75928783,0.15,0.13,0.06,0.04,352.71,352.72,0.0,0.0
1630618173.79977012,76028743,0.17,0.14,0.07,0.04,352.71,352.72,0.0,0.0
1630618173.89973021,76128703,0.16,0.14,0.09,0.06,352.71,352.72,0.0,0.0
1630618173.99969006,76228663,0.15,0.14,0.11,0.09,352.71,352.72,0.0,0.0
1630618174.09965014,76328623,0.17,0.15,0.1,0.1,352.71,352.72,0.0,0.0
1630618174.19960999,76428583,0.2,0.18,0.09,0.09,352.71,352.71,0.0,0.0
1630618174.29957008,76528543,0.2,0.2,0.12,0.1,352.71,352.71,0.0,0.0
1630618174.39953017,76628503,0.19,0.21,0.12,0.12,352.71,352.71,0.0,0.0
1630618174.49949002,76728463,0.17,0.19,0.12,0.12,352.71,352.71,0.0,0.0
1630618174.59945011,76828423,0.13,0.16,0.13,0.13,352.71,352.71,0.0,0.0
1630618174.69941020,76928383,0.1,0.11,0.15,0.15,352.71,352.71,0.0,0.0
1630618174.79937005,77028343,0.08,0.08,0.14,0.15,352.71,352.71,0.0,0.0
1630618174.89933014,77128303,0.1,0.08,0.13,0.14,352.71,352.72,0.0,0.0
1630618174.99928999,77228263,0.15,0.11,0.15,0.14,352.71,352.72,0.0,0.0
1630618175.09925008,77328223,0.19,0.15,0.15,0.15,352.71,352.72,0.0,0.0
1630618175.19921017,77428183,0.18,0.18,0.12,0.14,352.71,352.72,0.0,0.0
1630618175.30000305,77528976,0.15,0.18,0.13,0.13,352.71,352.72,0.0,0.0
1630618175.39996314,77628936,0.11,0.14,0.12,0.12,352.71,352.72,0.0,0.0
1630618175.49992299,77728896,0.11,0.1,0.09,0.1,352.71,352.71,0.0,0.0
1630618175.59988308,77828856,0.13,0.1,0.1,0.08,352.71,352.71,0.0,0.0
1630618175.69984317,77928816,0.14,0.11,0.14,0.1,352.71,352.7,0.0,0.0
1630618175.79980302,78028776,0.16,0.13,0.16,0.13,352.71,352.7,0.0,0.0
1630618175.89976311,78128736,0.17,0.15,0.13,0.13,352.71,352.7,0.0,0.0
1630618175.99972320,78228696,0.16,0.16,0.06,0.08,352.71,352.7,0.0,0.0
1630618176.09968305,78328656,0.13,0.15,0.01,0.02,352.71,352.7,0.0,0.0
1630618176.19964314,78428616,0.12,0.13,0.04,0.0,352.71,352.7,0.0,0.0
1630618176.29960299,78528576,0.12,0.12,0.11,0.04,352.71,352.71,0.0,0.0
1630618176.39956307,78628536,0.12,0.11,0.16,0.11,352.71,352.71,0.0,0.0
1630618176.49952316,78728496,0.11,0.1,0.19,0.17,352.71,352.71,0.0,0.0
1630618176.59948301,78828456,0.09,0.08,0.18,0.19,352.71,352.72,0.0,0.0
1630618176.69944310,78928416,0.1,0.09,0.16,0.18,352.71,352.72,0.0,0.0
1630618176.79940319,79028376,0.1,0.09,0.14,0.15,352.71,352.72,0.0,0.0
1630618176.89936304,79128336,0.11,0.09,0.13,0.13,352.71,352.71,0.0,0.0
1630618176.99932313,79228296,0.13,0.11,0.1,0.11,352.71,352.71,0.0,0.0
1630618177.09928298,79328256,0.1,0.11,0.1,0.09,352.71,352.71,0.0,0.0
1630618177.19924307,79428216,0.08,0.08,0.14,0.11,352.71,352.71,0.0,0.0
1630618177.29920316,79528176,0.07,0.05,0.18,0.14,352.71,352.7,0.0,0.0
1630618177.39999604,79628969,0.09,0.06,0.19,0.18,352.71,352.71,0.0,0.0
1630618177.49995613,79728929,0.12,0.1,0.18,0.19,352.71,352.71,0.0,0.0
1630618177.59991598,79828889,0.13,0.13,0.17,0.19,352.71,352.71,0.0,0.0
1630618177.69987607,79928849,0.09,0.12,0.14,0.16,352.71,352.71,0.0,0.0
1630618177.79983616,80028809,0.04,0.07,0.11,0.12,352.71,352.71,0.0,0.0
1630618177.89979601,80128769,0.03,0.03,0.1,0.09,352.71,352.71,0.0,0.0
1630618177.99975610,80228729,0.06,0.02,0.11,0.08,352.71,352.71,0.0,0.0
1630618178.09971619,80328689,0.09,0.04,0.14,0.09,352.71,352.71,0.0,0.0
1630618178.19967604,80428649,0.13,0.08,0.16,0.12,352.71,352.71,0.0,0.0
1630618178.29963613,80528609,0.16,0.13,0.14,0.13,352.71,352.71,0.0,0.0
1630618178.39959598,80628569,0.19,0.17,0.14,0.12,352.71,352.71,0.0,0.0
1630618178.49955606,80728529,0.21,0.22,0.15,0.13,352.71,352.71,0.0,0.0
1630618178.59951615,80828489,0.19,0.22,0.16,0.14,352.71,352.71,0.0,0.0
1630618178.69947600,80928449,0.16,0.2,0.16,0.16,352.71,352.71,0.0,0.0
1630618178.79943609,81028409,0.15,0.17,0.17,0.16,352.71,352.71,0.0,0.0
1630618178.89939618,81128369,0.14,0.15,0.15,0.16,352.71,352.71,0.0,0.0
1630618178.99935603,81228329,0.14,0.14,0.12,0.14,352.71,352.71,0.0,0.0
1630618179.09931612,81328289,0.13,0.14,0.09,0.11,352.71,352.71,0.0,0.0
1630618179.19927597,81428249,0.14,0.14,0.07,0.08,352.71,352.71,0.0,0.0
1630618179.29923606,81528209,0.16,0.15,0.09,0.08,352.71,352.71,0.0,0.0
1630618179.39919615,81628169,0.17,0.15,0.1,0.09,352.71,352.72,0.0,0.0
1630618179.49998903,81728962,0.18,0.16,0.13,0.11,352.71,352.72,0.0,0.0
1630618179.59994912,81828922,0.19,0.17,0.16,0.15,352.71,352.72,0.0,0.0
1630618179.69990897,81928882,0.18,0.16,0.19,0.2,352.71,352.72,0.0,0.0
1630618179.79986906,82028842,0.19,0.16,0.2,0.22,352.71,352.72,0.0,0.0
1630618179.89982915,82128802,0.16,0.16,0.18,0.22,352.71,352.71,0.0,0.0
1630618179.99978900,82228762,0.11,0.13,0.12,0.17,352.71,352.71,0.0,0.0
1630618180.09974909,82328722,0.11,0.1,0.09,0.11,352.71,352.71,0.0,0.0
1630618180.19970918,82428682,0.11,0.08,0.1,0.07,352.71,352.71,0.0,0.0
1630618180.29966903,82528642,0.12,0.08,0.14,0.09,352.71,352.71,0.0,0.0
1630618180.39962912,82628602,0.15,0.1,0.15,0.11,352.71,352.71,0.0,0.0
1630618180.49958920,82728562,0.18,0.14,0.17,0.14,352.71,352.71,0.0,0.0
1630618180.59954906,82828522,0.19,0.17,0.15,0.15,352.71,352.71,0.0,0.0
1630618180.69950914,82928482,0.19,0.2,0.12,0.14,352.71,352.71,0.0,0.0
1630618180.79946899,83028442,0.18,0.2,0.11,0.12,352.71,352.71,0.0,0.0
1630618180.89942908,83128402,0.13,0.17,0.1,0.1,352.71,352.7,0.0,0.0
1630618180.99938917,83228362,0.09,0.11,0.1,0.09,352.71,352.7,0.0,0.0
1630618181.09934902,83328322,0.08,0.08,0.11,0.09,352.71,352.7,0.0,0.0
1630618181.19930911,83428282,0.08,0.07,0.12,0.09,352.71,352.71,0.0,0.0
1630618181.29926920,83528242,0.07,0.06,0.14,0.11,352.71,352.71,0.0,0.0
1630618181.39922905,83628202,0.08,0.06,0.16,0.13,352.71,352.71,0.0,0.0
1630618181.49918914,83728162,0.09,0.07,0.18,0.15,352.71,352.71,0.0,0.0
1630618181.59998202,83828955,0.12,0.09,0.18,0.17,352.71,352.71,0.0,0.0
1630618181.69994211,83928915,0.14,0.11,0.16,0.17,352.71,352.71,0.0,0.0
1630618181.79990220,84028875,0.17,0.14,0.14,0.15,352.71,352.71,0.0,0.0
1630618181.89986205,84128835,0.2,0.17,0.12,0.13,352.71,352.71,0.0,0.0
1630618181.99982214,84228795,0.2,0.21,0.08,0.1,352.71,352.71,0.0,0.0
1630618182.09978199,84328755,0.18,0.21,0.08,0.07,352.71,352.71,0.0,0.0
1630618182.19974208,84428715,0.16,0.18,0.09,0.07,352.71,352.71,0.0,0.0
1630618182.29970217,84528675,0.14,0.15,0.08,0.07,352.71,352.71,0.0,0.0
1630618182.39966202,84628635,0.14,0.13,0.05,0.05,352.71,352.71,0.0,0.0
1630618182.49962211,84728595,0.13,0.12,0.04,0.03,352.71,352.71,0.0,0.0
1630618182.59958220,84828555,0.15,0.13,0.04,0.02,352.71,352.7,0.0,0.0
1630618182.69954205,84928515,0.16,0.14,0.07,0.03,352.71,352.7,0.0,0.0
1630618182.79950213,85028475,0.14,0.15,0.09,0.06,352.71,352.7,0.0,0.0
1630618182.89946198,85128435,0.12,0.13,0.13,0.1,352.71,352.7,0.0,0.0
1630618182.99942207,85228395,0.11,0.11,0.17,0.14,352.71,352.7,0.0,0.0
1630618183.09938216,85328355,0.11,0.09,0.2,0.19,352.71,352.7,0.0,0.0
1630618183.19934201,85428315,0.13,0.08,0.21,0.23,352.71,352.7,0.0,0.0
1630618183.29930210,85528275,0.17,0.11,0.15,0.21,352.71,352.7,0.0,0.0
1630618183.39926219,85628235,0.16,0.14,0.08,0.13,352.71,352.7,0.0,0.0
1630618183.49922204,85728195,0.14,0.15,0.04,0.06,352.71,352.7,0.0,0.0
1630618183.59918213,85828155,0.14,0.14,0.03,0.01,352.71,352.71,0.0,0.0
1630618183.69997501,85928948,0.14,0.14,0.05,0.0,352.71,352.71,0.0,0.0
1630618183.79993510,86028908,0.14,0.14,0.08,0.02,352.71,352.71,0.0,0.0
1630618183.89989519,86128868,0.13,0.13,0.11,0.06,352.71,352.71,0.0,0.0
1630618183.99985504,86228828,0.14,0.12,0.13,0.11,352.71,352.71,0.0,0.0
1630618184.09981513,86328788,0.15,0.13,0.12,0.12,352.71,352.71,0.0,0.0
1630618184.19977498,86428748,0.16,0.15,0.12,0.12,352.71,352.71,0.0,0.0
1630618184.29973507,86528708,0.17,0.17,0.08,0.1,352.71,352.71,0.0,0.0
1630618184.39969516,86628668,0.14,0.16,0.07,0.07,352.71,352.7,0.0,0.0
1630618184.49965501,86728628,0.09,0.12,0.12,0.08,352.71,352.7,0.0,0.0
1630618184.59961510,86828588,0.05,0.06,0.15,0.12,352.71,352.7,0.0,0.0
1630618184.69957519,86928548,0.03,0.01,0.15,0.16,352.71,352.7,0.0,0.0
1630618184.79953504,87028508,0.06,0.01,0.14,0.16,352.71,352.7,0.0,0.0
1630618184.89949512,87128468,0.13,0.06,0.13,0.16,352.71,352.7,0.0,0.0
1630618184.99945498,87228428,0.17,0.14,0.14,0.15,352.71,352.7,0.0,0.0
1630618185.09941506,87328388,0.14,0.17,0.11,0.13,352.71,352.7,0.0,0.0
1630618185.19937515,87428348,0.13,0.15,0.08,0.08,352.71,352.71,0.0,0.0
1630618185.29933500,87528308,0.1,0.13,0.05,0.04,352.71,352.71,0.0,0.0
1630618185.39929509,87628268,0.09,0.1,0.05,0.02,352.71,352.71,0.0,0.0
1630618185.49925518,87728228,0.09,0.08,0.07,0.02,352.71,352.71,0.0,0.0
1630618185.59921503,87828188,0.1,0.09,0.11,0.06,352.71,352.71,0.0,0.0
1630618185.70000815,87928981,0.06,0.08,0.13,0.1,352.71,352.72,0.0,0.0
1630618185.79996800,88028941,0.03,0.04,0.14,0.13,352.71,352.72,0.0,0.0
1630618185.89992809,88128901,0.04,0.02,0.14,0.14,352.71,352.72,0.0,0.0
1630618185.99988818,88228861,0.07,0.04,0.14,0.14,352.71,352.72,0.0,0.0
1630618186.09984803,88328821,0.1,0.07,0.14,0.14,352.71,352.72,0.0,0.0
1630618186.19980812,88428781,0.11,0.1,0.12,0.14,352.71,352.72,0.0,0.0
1630618186.29976797,88528741,0.1,0.12,0.1,0.11,352.71,352.72,0.0,0.0
1630618186.39972806,88628701,0.08,0.1,0.11,0.11,352.71,352.72,0.0,0.0
1630618186.49968815,88728661,0.09,0.08,0.09,0.1,352.71,352.72,0.0,0.0
1630618186.59964800,88828621,0.1,0.08,0.09,0.09,352.71,352.71,0.0,0.0
1630618186.69960809,88928581,0.12,0.09,0.13,0.09,352.71,352.71,0.0,0.0
1630618186.79956818,89028541,0.17,0.12,0.18,0.13,352.71,352.71,0.0,0.0
1630618186.89952803,89128501,0.21,0.18,0.19,0.17,352.71,352.7,0.0,0.0
1630618186.99948812,89228461,0.22,0.21,0.2,0.19,352.71,352.7,0.0,0.0
1630618187.09944820,89328421,0.21,0.22,0.2,0.19,352.71,352.7,0.0,0.0
1630618187.19940805,89428381,0.19,0.21,0.19,0.19,352.71,352.7,0.0,0.0
1630618187.29936814,89528341,0.19,0.2,0.18,0.18,352.71,352.71,0.0,0.0
1630618187.39932799,89628301,0.21,0.2,0.16,0.17,352.71,352.71,0.0,0.0
1630618187.49928808,89728261,0.19,0.2,0.17,0.16,352.71,352.71,0.0,0.0
1630618187.59924817,89828221,0.17,0.17,0.18,0.16,352.71,352.71,0.0,0.0
1630618187.69920802,89928181,0.18,0.16,0.18,0.17,352.71,352.71,0.0,0.0
1630618187.80000114,90028974,0.21,0.18,0.18,0.18,352.71,352.71,0.0,0.0
1630618187.89996099,90128934,0.22,0.19,0.18,0.18,352.71,352.71,0.0,0.0
1630618187.99992108,90228894,0.23,0.2,0.18,0.18,352.71,352.71,0.0,0.0
1630618188.09988117,90328854,0.24,0.23,0.18,0.18,352.71,352.71,0.0,0.0
1630618188.19984102,90428814,0.22,0.22,0.19,0.18,352.71,352.71,0.0,0.0
1630618188.29980111,90528774,0.19,0.19,0.19,0.19,352.71,352.71,0.0,0.0
1630618188.39976120,90628734,0.18,0.17,0.17,0.18,352.71,352.71,0.0,0.0
1630618188.49972105,90728694,0.17,0.16,0.15,0.16,352.71,352.71,0.0,0.0
1630618188.59968114,90828654,0.2,0.17,0.12,0.12,352.71,352.71,0.0,0.0
1630618188.69964099,90928614,0.22,0.2,0.13,0.1,352.71,352.71,0.0,0.0
1630618188.79960108,91028574,0.2,0.22,0.15,0.11,352.71,352.71,0.0,0.0
1630618188.89956117,91128534,0.13,0.18,0.17,0.12,352.71,352.71,0.0,0.0
1630618188.99952102,91228494,0.08,0.11,0.2,0.16,352.71,352.7,0.0,0.0
1630618189.09948111,91328454,0.08,0.06,0.2,0.19,352.71,352.7,0.0,0.0
1630618189.19944119,91428414,0.08,0.06,0.18,0.18,352.71,352.7,0.0,0.0
1630618189.29940104,91528374,0.09,0.06,0.15,0.16,352.71,352.7,0.0,0.0
1630618189.39936113,91628334,0.1,0.07,0.12,0.14,352.71,352.7,0.0,0.0
1630618189.49932098,91728294,0.1,0.08,0.14,0.13,352.71,352.7,0.0,0.0
1630618189.59928107,91828254,0.12,0.1,0.13,0.13,352.71,352.7,0.0,0.0
1630618189.69924116,91928214,0.17,0.14,0.11,0.12,352.71,352.71,0.0,0.0
1630618189.79920101,92028174,0.19,0.18,0.09,0.1,352.71,352.71,0.0,0.0
1630618189.89999413,92128967,0.18,0.2,0.1,0.08,352.71,352.71,0.0,0.0
1630618189.99995399,92228927,0.17,0.18,0.12,0.1,352.71,352.71,0.0,0.0
1630618190.09991407,92328887,0.18,0.18,0.17,0.13,352.71,352.71,0.0,0.0
1630618190.19987416,92428847,0.19,0.18,0.17,0.16,352.71,352.72,0.0,0.0
1630618190.29983401,92528807,0.2,0.19,0.15,0.16,352.71,352.72,0.0,0.0
1630618190.39979410,92628767,0.2,0.2,0.16,0.16,352.71,352.72,0.0,0.0
1630618190.49975419,92728727,0.2,0.2,0.17,0.17,352.71,352.71,0.0,0.0
1630618190.59971404,92828687,0.18,0.19,0.12,0.14,352.71,352.71,0.0,0.0
1630618190.69967413,92928647,0.17,0.17,0.08,0.1,352.71,352.71,0.0,0.0
1630618190.79963398,93028607,0.18,0.16,0.08,0.07,352.71,352.71,0.0,0.0
1630618190.89959407,93128567,0.16,0.15,0.07,0.05,352.71,352.71,0.0,0.0
1630618190.99955416,93228527,0.15,0.14,0.1,0.06,352.71,352.71,0.0,0.0
1630618191.09951401,93328487,0.16,0.14,0.12,0.09,352.71,352.71,0.0,0.0
1630618191.19947410,93428447,0.18,0.16,0.11,0.11,352.71,352.71,0.0,0.0
1630618191.29943419,93528407,0.21,0.19,0.11,0.11,352.71,352.71,0.0,0.0
1630618191.39939404,93628367,0.19,0.2,0.1,0.1,352.71,352.71,0.0,0.0
1630618191.49935412,93728327,0.17,0.18,0.1,0.09,352.71,352.71,0.0,0.0
1630618191.59931397,93828287,0.15,0.15,0.11,0.1,352.71,352.71,0.0,0.0
1630618191.69927406,93928247,0.16,0.14,0.12,0.11,352.71,352.7,0.0,0.0
1630618191.79923415,94028207,0.16,0.15,0.13,0.12,352.71,352.71,0.0,0.0
1630618191.89919400,94128167,0.17,0.16,0.14,0.14,352.71,352.71,0.0,0.0
1630618191.99998713,94228960,0.18,0.16,0.15,0.15,352.71,352.71,0.0,0.0
1630618192.09994698,94328920,0.23,0.19,0.15,0.15,352.71,352.71,0.0,0.0
1630618192.19990706,94428880,0.24,0.22,0.16,0.15,352.71,352.71,0.0,0.0
1630618192.29986715,94528840,0.22,0.24,0.18,0.16,352.71,352.71,0.0,0.0
1630618192.39982700,94628800,0.21,0.22,0.18,0.17,352.71,352.71,0.0,0.0
1630618192.49978709,94728760,0.2,0.21,0.16,0.17,352.71,352.71,0.0,0.0
1630618192.59974718,94828720,0.22,0.2,0.13,0.15,352.71,352.7,0.0,0.0
1630618192.69970703,94928680,0.22,0.2,0.11,0.11,352.71,352.7,0.0,0.0
1630618192.79966712,95028640,0.2,0.19,0.1,0.08,352.71,352.7,0.0,0.0
1630618192.89962697,95128600,0.18,0.18,0.1,0.07,352.71,352.71,0.0,0.0
1630618192.99958706,95228560,0.16,0.16,0.09,0.06,352.71,352.71,0.0,0.0
1630618193.09954715,95328520,0.17,0.15,0.1,0.07,352.71,352.71,0.0,0.0
1630618193.19950700,95428480,0.2,0.17,0.12,0.09,352.71,352.71,0.0,0.0
1630618193.29946709,95528440,0.18,0.17,0.16,0.13,352.71,352.71,0.0,0.0
1630618193.39942718,95628400,0.15,0.15,0.21,0.18,352.71,352.72,0.0,0.0
1630618193.49938703,95728360,0.13,0.13,0.22,0.21,352.71,352.71,0.0,0.0
1630618193.59934711,95828320,0.11,0.11,0.23,0.23,352.71,352.71,0.0,0.0
1630618193.69930720,95928280,0.1,0.1,0.21,0.23,352.71,352.71,0.0,0.0
1630618193.79926705,96028240,0.12,0.1,0.16,0.18,352.71,352.71,0.0,0.0
1630618193.89922714,96128200,0.14,0.13,0.14,0.14,352.71,352.71,0.0,0.0
1630618193.99918699,96228160,0.12,0.14,0.16,0.12,352.71,352.71,0.0,0.0
1630618194.09998012,96328953,0.13,0.14,0.18,0.15,352.71,352.71,0.0,0.0
1630618194.19994020,96428913,0.15,0.15,0.2,0.17,352.71,352.71,0.0,0.0
1630618194.29990005,96528873,0.17,0.16,0.22,0.22,352.71,352.71,0.0,0.0
1630618194.39986014,96628833,0.2,0.18,0.21,0.23,352.71,352.71,0.0,0.0
1630618194.49981999,96728793,0.19,0.19,0.17,0.21,352.71,352.71,0.0,0.0
1630618194.59978008,96828753,0.18,0.19,0.14,0.17,352.71,352.71,0.0,0.0
1630618194.69974017,96928713,0.15,0.18,0.14,0.14,352.71,352.71,0.0,0.0
1630618194.79970002,97028673,0.1,0.13,0.13,0.11,352.71,352.71,0.0,0.0
1630618194.89966011,97128633,0.07,0.07,0.13,0.1,352.71,352.71,0.0,0.0
1630618194.99962020,97228593,0.08,0.05,0.14,0.1,352.71,352.71,0.0,0.0
1630618195.09958005,97328553,0.1,0.05,0.16,0.12,352.71,352.71,0.0,0.0
1630618195.19954014,97428513,0.09,0.06,0.19,0.14,352.71,352.71,0.0,0.0
1630618195.29949999,97528473,0.09,0.07,0.19,0.16,352.71,352.71,0.0,0.0
1630618195.39946008,97628433,0.11,0.07,0.2,0.18,352.71,352.7,0.0,0.0
1630618195.49942017,97728393,0.12,0.08,0.21,0.2,352.71,352.7,0.0,0.0
1630618195.59938002,97828353,0.12,0.09,0.2,0.19,352.71,352.7,0.0,0.0
1630618195.69934011,97928313,0.12,0.1,0.16,0.19,352.71,352.7,0.0,0.0
1630618195.79930019,98028273,0.14,0.11,0.12,0.14,352.71,352.7,0.0,0.0
1630618195.89926004,98128233,0.16,0.14,0.12,0.12,352.71,352.7,0.0,0.0
1630618195.99922013,98228193,0.14,0.14,0.14,0.12,352.71,352.71,0.0,0.0
1630618196.10001302,98328986,0.14,0.13,0.15,0.13,352.71,352.71,0.0,0.0
1630618196.19997311,98428946,0.14,0.13,0.18,0.15,352.71,352.71,0.0,0.0
1630618196.29993320,98528906,0.14,0.13,0.2,0.19,352.71,352.71,0.0,0.0
1630618196.39989305,98628866,0.14,0.13,0.19,0.2,352.71,352.71,0.0,0.0
1630618196.49985313,98728826,0.15,0.14,0.18,0.19,352.71,352.71,0.0,0.0
1630618196.59981298,98828786,0.13,0.14,0.17,0.18,352.71,352.71,0.0,0.0
1630618196.69977307,98928746,0.14,0.13,0.16,0.16,352.71,352.71,0.0,0.0
1630618196.79973316,99028706,0.16,0.14,0.14,0.14,352.71,352.71,0.0,0.0
1630618196.89969301,99128666,0.15,0.14,0.13,0.12,352.71,352.71,0.0,0.0
1630618196.99965310,99228626,0.16,0.14,0.13,0.11,352.71,352.71,0.0,0.0
1630618197.09961319,99328586,0.17,0.15,0.16,0.13,352.71,352.71,0.0,0.0
1630618197.19957304,99428546,0.17,0.16,0.18,0.15,352.71,352.71,0.0,0.0
1630618197.29953313,99528506,0.19,0.17,0.15,0.16,352.71,352.71,0.0,0.0
1630618197.39949298,99628466,0.2,0.19,0.15,0.14,352.71,352.71,0.0,0.0
1630618197.49945307,99728426,0.22,0.21,0.16,0.15,352.71,352.71,0.0,0.0
1630618197.59941316,99828386,0.25,0.23,0.17,0.15,352.71,352.71,0.0,0.0
1630618197.69937301,99928346,0.25,0.25,0.17,0.16,352.71,352.71,0.0,0.0
1630618197.79933310,100028306,0.23,0.23,0.16,0.16,352.71,352.71,0.0,0.0
1630618197.89929318,100128266,0.21,0.22,0.16,0.16,352.71,352.71,0.0,0.0
1630618197.99925303,100228226,0.19,0.19,0.15,0.15,352.71,352.71,0.0,0.0
1630618198.09921312,100328186,0.2,0.18,0.15,0.15,352.71,352.71,0.0,0.0
1630618198.20000601,100428979,0.19,0.18,0.17,0.15,352.71,352.71,0.0,0.0
1630618198.29996610,100528939,0.19,0.18,0.2,0.18,352.71,352.71,0.0,0.0
1630618198.39992619,100628899,0.17,0.17,0.23,0.22,352.71,352.71,0.0,0.0
1630618198.49988604,100728859,0.16,0.15,0.21,0.22,352.71,352.71,0.0,0.0
1630618198.59984612,100828819,0.16,0.14,0.17,0.19,352.71,352.71,0.0,0.0
1630618198.69980597,100928779,0.18,0.16,0.15,0.15,352.71,352.71,0.0,0.0
1630618198.79976606,101028739,0.17,0.16,0.14,0.13,352.71,352.71,0.0,0.0
1630618198.89972615,101128699,0.15,0.15,0.14,0.12,352.71,352.71,0.0,0.0
1630618198.99968600,101228659,0.16,0.14,0.16,0.14,352.71,352.71,0.0,0.0
1630618199.09964609,101328619,0.17,0.15,0.14,0.14,352.71,352.71,0.0,0.0
1630618199.19960618,101428579,0.17,0.16,0.13,0.13,352.71,352.71,0.0,0.0
1630618199.29956603,101528539,0.14,0.16,0.11,0.11,352.71,352.7,0.0,0.0
1630618199.39952612,101628499,0.1,0.12,0.1,0.09,352.71,352.7,0.0,0.0
1630618199.49948597,101728459,0.09,0.09,0.1,0.07,352.71,352.7,0.0,0.0
1630618199.59944606,101828419,0.1,0.08,0.14,0.09,352.71,352.7,0.0,0.0
1630618199.69940615,101928379,0.12,0.1,0.19,0.15,352.71,352.7,0.0,0.0
1630618199.79936600,102028339,0.15,0.13,0.2,0.19,352.71,352.7,0.0,0.0
1630618199.89932609,102128299,0.16,0.16,0.18,0.2,352.71,352.7,0.0,0.0
1630618199.99928617,102228259,0.16,0.16,0.14,0.17,352.71,352.71,0.0,0.0
1630618200.09924603,102328219,0.15,0.16,0.1,0.12,352.71,352.71,0.0,0.0
1630618200.19920611,102428179,0.12,0.13,0.07,0.07,352.71,352.71,0.0,0.0
1630618200.29999900,102528972,0.08,0.09,0.07,0.04,352.71,352.71,0.0,0.0
1630618200.39995909,102628932,0.07,0.05,0.1,0.05,352.71,352.71,0.0,0.0
1630618200.49991918,102728892,0.07,0.04,0.12,0.08,352.71,352.71,0.0,0.0
1630618200.59987903,102828852,0.08,0.04,0.14,0.11,352.71,352.71,0.0,0.0
1630618200.69983912,102928812,0.12,0.08,0.15,0.14,352.71,352.71,0.0,0.0
1630618200.79979920,103028772,0.15,0.13,0.14,0.15,352.71,352.71,0.0,0.0
1630618200.89975905,103128732,0.16,0.17,0.12,0.15,352.71,352.7,0.0,0.0
1630618200.99971914,103228692,0.17,0.18,0.12,0.14,352.71,352.7,0.0,0.0
1630618201.09967899,103328652,0.17,0.18,0.13,0.13,352.71,352.7,0.0,0.0
1630618201.19963908,103428612,0.18,0.18,0.14,0.13,352.71,352.7,0.0,0.0
1630618201.29959917,103528572,0.2,0.19,0.16,0.15,352.71,352.7,0.0,0.0
1630618201.39955902,103628532,0.19,0.2,0.16,0.16,352.71,352.7,0.0,0.0
1630618201.49951911,103728492,0.18,0.18,0.18,0.16,352.71,352.71,0.0,0.0
1630618201.59947920,103828452,0.17,0.16,0.2,0.18,352.71,352.71,0.0,0.0
1630618201.69943905,103928412,0.18,0.17,0.24,0.22,352.71,352.71,0.0,0.0
1630618201.79939914,104028372,0.19,0.17,0.24,0.24,352.71,352.71,0.0,0.0
1630618201.89935899,104128332,0.2,0.18,0.23,0.23,352.71,352.71,0.0,0.0
1630618201.99931908,104228292,0.21,0.19,0.22,0.21,352.71,352.71,0.0,0.0
1630618202.09927917,104328252,0.21,0.2,0.2,0.19,352.71,352.71,0.0,0.0
1630618202.19923902,104428212,0.22,0.2,0.19,0.17,352.71,352.71,0.0,0.0
1630618202.29919910,104528172,0.22,0.21,0.2,0.18,352.71,352.71,0.0,0.0
1630618202.39999199,104628965,0.2,0.19,0.24,0.21,352.71,352.71,0.0,0.0
1630618202.49995208,104728925,0.19,0.17,0.26,0.25,352.71,352.71,0.0,0.0
1630618202.59991217,104828885,0.17,0.16,0.26,0.26,352.71,352.71,0.0,0.0
1630618202.69987202,104928845,0.17,0.15,0.24,0.26,352.71,352.71,0.0,0.0
1630618202.79983211,105028805,0.2,0.17,0.22,0.23,352.71,352.71,0.0,0.0
1630618202.89979219,105128765,0.25,0.2,0.22,0.2,352.71,352.71,0.0,0.0
1630618202.99975204,105228725,0.27,0.24,0.22,0.19,352.71,352.71,0.0,0.0
1630618203.09971213,105328685,0.28,0.27,0.23,0.2,352.71,352.71,0.0,0.0
1630618203.19967198,105428645,0.26,0.27,0.22,0.2,352.71,352.71,0.0,0.0
1630618203.29963207,105528605,0.25,0.25,0.21,0.2,352.71,352.7,0.0,0.0
1630618203.39959216,105628565,0.26,0.24,0.19,0.18,352.71,352.7,0.0,0.0
1630618203.49955201,105728525,0.28,0.25,0.21,0.18,352.71,352.7,0.0,0.0
1630618203.59951210,105828485,0.31,0.28,0.23,0.2,352.71,352.7,0.0,0.0
1630618203.69947219,105928445,0.32,0.32,0.26,0.23,352.71,352.71,0.0,0.0
1630618203.79943204,106028405,0.29,0.32,0.26,0.25,352.71,352.71,0.0,0.0
1630618203.89939213,106128365,0.29,0.29,0.24,0.26,352.71,352.71,0.0,0.0
1630618203.99935198,106228325,0.27,0.26,0.18,0.22,352.71,352.71,0.0,0.0
1630618204.09931207,106328285,0.27,0.25,0.15,0.17,352.71,352.71,0.0,0.0
1630618204.19927216,106428245,0.27,0.25,0.12,0.12,352.71,352.71,0.0,0.0
1630618204.29923201,106528205,0.26,0.25,0.12,0.1,352.71,352.71,0.0,0.0
1630618204.39919209,106628165,0.25,0.24,0.14,0.11,352.71,352.71,0.0,0.0
1630618204.49998498,106728958,0.24,0.23,0.18,0.14,352.71,352.7,0.0,0.0
1630618204.59994507,106828918,0.24,0.22,0.2,0.18,352.71,352.7,0.0,0.0
1630618204.69990516,106928878,0.22,0.22,0.2,0.19,352.71,352.7,0.0,0.0
1630618204.79986501,107028838,0.2,0.2,0.15,0.17,352.71,352.7,0.0,0.0
1630618204.89982510,107128798,0.18,0.18,0.12,0.14,352.71,352.7,0.0,0.0
1630618204.99978518,107228758,0.16,0.16,0.1,0.1,352.71,352.7,0.0,0.0
1630618205.09974504,107328718,0.15,0.15,0.1,0.08,352.71,352.7,0.0,0.0
1630618205.19970512,107428678,0.11,0.12,0.11,0.08,352.71,352.7,0.0,0.0
1630618205.29966497,107528638,0.11,0.1,0.13,0.09,352.71,352.71,0.0,0.0
1630618205.39962506,107628598,0.12,0.11,0.15,0.12,352.71,352.71,0.0,0.0
1630618205.49958515,107728558,0.12,0.11,0.16,0.15,352.71,352.71,0.0,0.0
1630618205.59954500,107828518,0.1,0.1,0.17,0.17,352.71,352.71,0.0,0.0
1630618205.69950509,107928478,0.07,0.08,0.18,0.19,352.71,352.71,0.0,0.0
1630618205.79946518,108028438,0.06,0.06,0.17,0.19,352.71,352.71,0.0,0.0
1630618205.89942503,108128398,0.08,0.05,0.14,0.17,352.71,352.71,0.0,0.0
1630618205.99938512,108228358,0.08,0.06,0.12,0.14,352.71,352.71,0.0,0.0
1630618206.09934521,108328318,0.08,0.07,0.13,0.11,352.71,352.71,0.0,0.0
1630618206.19930506,108428278,0.12,0.09,0.12,0.1,352.71,352.71,0.0,0.0
1630618206.29926515,108528238,0.16,0.13,0.12,0.09,352.71,352.71,0.0,0.0
1630618206.39922500,108628198,0.17,0.16,0.14,0.11,352.71,352.71,0.0,0.0
1630618206.49918509,108728158,0.16,0.18,0.16,0.14,352.71,352.7,0.0,0.0
1630618206.59997797,108828951,0.16,0.18,0.19,0.17,352.71,352.7,0.0,0.0
1630618206.69993806,108928911,0.13,0.16,0.22,0.2,352.71,352.7,0.0,0.0
1630618206.79989815,109028871,0.11,0.12,0.23,0.23,352.71,352.7,0.0,0.0
1630618206.89985800,109128831,0.13,0.1,0.22,0.23,352.71,352.7,0.0,0.0
1630618206.99981809,109228791,0.15,0.11,0.22,0.23,352.71,352.7,0.0,0.0
1630618207.09977818,109328751,0.19,0.15,0.19,0.21,352.71,352.71,0.0,0.0
1630618207.19973803,109428711,0.22,0.18,0.16,0.18,352.71,352.71,0.0,0.0
1630618207.29969811,109528671,0.24,0.22,0.16,0.16,352.71,352.71,0.0,0.0
1630618207.39965820,109628631,0.25,0.24,0.19,0.17,352.71,352.71,0.0,0.0
1630618207.49961805,109728591,0.23,0.24,0.23,0.2,352.71,352.71,0.0,0.0
1630618207.59957814,109828551,0.23,0.23,0.23,0.22,352.71,352.71,0.0,0.0
1630618207.69953799,109928511,0.23,0.22,0.2,0.21,352.71,352.71,0.0,0.0
1630618207.79949808,110028471,0.23,0.21,0.16,0.16,352.71,352.71,0.0,0.0
1630618207.89945817,110128431,0.24,0.22,0.14,0.14,352.71,352.71,0.0,0.0
1630618207.99941802,110228391,0.25,0.24,0.11,0.1,352.71,352.71,0.0,0.0
1630618208.09937811,110328351,0.24,0.24,0.1,0.08,352.71,352.71,0.0,0.0
1630618208.19933820,110428311,0.22,0.22,0.13,0.09,352.71,352.71,0.0,0.0
1630618208.29929805,110528271,0.21,0.21,0.16,0.12,352.71,352.71,0.0,0.0
1630618208.39925814,110628231,0.2,0.19,0.16,0.14,352.71,352.71,0.0,0.0
1630618208.49921799,110728191,0.17,0.17,0.17,0.15,352.71,352.71,0.0,0.0
1630618208.60001111,110828984,0.15,0.15,0.18,0.17,352.71,352.71,0.0,0.0
1630618208.69997120,110928944,0.13,0.13,0.2,0.18,352.71,352.71,0.0,0.0
1630618208.79993105,111028904,0.13,0.12,0.23,0.21,352.71,352.71,0.0,0.0
1630618208.89989114,111128864,0.14,0.12,0.22,0.22,352.71,352.71,0.0,0.0
1630618208.99985099,111228824,0.16,0.14,0.2,0.21,352.71,352.71,0.0,0.0
1630618209.09981108,111328784,0.18,0.16,0.2,0.2,352.71,352.7,0.0,0.0
1630618209.19977117,111428744,0.19,0.18,0.2,0.19,352.71,352.7,0.0,0.0
1630618209.29973102,111528704,0.16,0.17,0.2,0.19,352.71,352.7,0.0,0.0
1630618209.39969110,111628664,0.13,0.14,0.21,0.18,352.71,352.7,0.0,0.0
1630618209.49965119,111728624,0.13,0.12,0.22,0.19,352.71,352.7,0.0,0.0
1630618209.59961104,111828584,0.15,0.12,0.23,0.2,352.71,352.7,0.0,0.0
1630618209.69957113,111928544,0.15,0.13,0.22,0.21,352.71,352.7,0.0,0.0
1630618209.79953098,112028504,0.14,0.13,0.19,0.19,352.71,352.7,0.0,0.0
1630618209.89949107,112128464,0.15,0.13,0.17,0.17,352.71,352.71,0.0,0.0
1630618209.99945116,112228424,0.17,0.14,0.18,0.16,352.71,352.71,0.0,0.0
1630618210.09941101,112328384,0.19,0.16,0.21,0.18,352.71,352.71,0.0,0.0
1630618210.19937110,112428344,0.2,0.17,0.21,0.2,352.71,352.71,0.0,0.0
1630618210.29933119,112528304,0.21,0.19,0.19,0.2,352.71,352.71,0.0,0.0
1630618210.39929104,112628264,0.2,0.19,0.17,0.18,352.71,352.71,0.0,0.0
1630618210.49925113,112728224,0.18,0.18,0.16,0.16,352.71,352.71,0.0,0.0
1630618210.59921098,112828184,0.17,0.16,0.15,0.15,352.71,352.71,0.0,0.0
1630618210.70000410,112928977,0.18,0.16,0.15,0.14,352.71,352.71,0.0,0.0
1630618210.79996419,113028937,0.19,0.17,0.14,0.13,352.71,352.71,0.0,0.0
1630618210.89992404,113128897,0.21,0.2,0.13,0.12,352.71,352.7,0.0,0.0
1630618210.99988413,113228857,0.23,0.22,0.13,0.11,352.71,352.7,0.0,0.0
1630618211.09984398,113328817,0.24,0.23,0.15,0.13,352.71,352.7,0.0,0.0
1630618211.19980407,113428777,0.21,0.23,0.16,0.14,352.71,352.7,0.0,0.0
1630618211.29976416,113528737,0.19,0.21,0.16,0.15,352.71,352.7,0.0,0.0
1630618211.39972401,113628697,0.16,0.18,0.17,0.16,352.71,352.71,0.0,0.0
1630618211.49968410,113728657,0.15,0.15,0.19,0.18,352.71,352.71,0.0,0.0
1630618211.59964418,113828617,0.17,0.13,0.2,0.2,352.71,352.71,0.0,0.0
1630618211.69960403,113928577,0.21,0.16,0.21,0.22,352.71,352.71,0.0,0.0
1630618211.79956412,114028537,0.25,0.21,0.22,0.22,352.71,352.7,0.0,0.0
1630618211.89952397,114128497,0.24,0.23,0.2,0.22,352.71,352.7,0.0,0.0
1630618211.99948406,114228457,0.27,0.25,0.17,0.18,352.71,352.7,0.0,0.0
1630618212.09944415,114328417,0.28,0.26,0.15,0.15,352.71,352.7,0.0,0.0
1630618212.19940400,114428377,0.28,0.27,0.13,0.12,352.71,352.7,0.0,0.0
1630618212.29936409,114528337,0.3,0.28,0.1,0.09,352.71,352.7,0.0,0.0
1630618212.39932418,114628297,0.29,0.28,0.1,0.07,352.71,352.7,0.0,0.0
1630618212.49928403,114728257,0.27,0.27,0.1,0.07,352.71,352.7,0.0,0.0
1630618212.59924412,114828217,0.23,0.25,0.12,0.08,352.71,352.71,0.0,0.0
1630618212.69920421,114928177,0.2,0.21,0.15,0.1,352.71,352.71,0.0,0.0
1630618212.79999709,115028970,0.18,0.17,0.18,0.13,352.71,352.71,0.0,0.0
1630618212.89995718,115128930,0.18,0.15,0.18,0.16,352.71,352.71,0.0,0.0
1630618212.99991703,115228890,0.18,0.15,0.18,0.17,352.71,352.71,0.0,0.0
1630618213.09987712,115328850,0.22,0.18,0.18,0.17,352.71,352.71,0.0,0.0
1630618213.19983697,115428810,0.24,0.22,0.17,0.17,352.71,352.71,0.0,0.0
1630618213.29979706,115528770,0.25,0.25,0.16,0.16,352.71,352.71,0.0,0.0
1630618213.39975715,115628730,0.22,0.24,0.14,0.15,352.71,352.71,0.0,0.0
1630618213.49971700,115728690,0.18,0.2,0.15,0.15,352.71,352.71,0.0,0.0
1630618213.59967709,115828650,0.17,0.16,0.16,0.15,352.71,352.71,0.0,0.0
1630618213.69963717,115928610,0.19,0.17,0.15,0.14,352.71,352.71,0.0,0.0
1630618213.79959702,116028570,0.19,0.18,0.15,0.13,352.71,352.71,0.0,0.0
1630618213.89955711,116128530,0.16,0.17,0.13,0.12,352.71,352.71,0.0,0.0
1630618213.99951720,116228490,0.17,0.15,0.11,0.1,352.71,352.7,0.0,0.0
1630618214.09947705,116328450,0.16,0.15,0.13,0.09,352.71,352.7,0.0,0.0
1630618214.19943714,116428410,0.14,0.14,0.15,0.11,352.71,352.7,0.0,0.0
1630618214.29939699,116528370,0.12,0.12,0.16,0.14,352.71,352.7,0.0,0.0
1630618214.39935708,116628330,0.14,0.11,0.15,0.15,352.71,352.71,0.0,0.0
1630618214.49931717,116728290,0.16,0.14,0.16,0.17,352.71,352.71,0.0,0.0
1630618214.59927702,116828250,0.16,0.15,0.17,0.17,352.71,352.71,0.0,0.0
1630618214.69923711,116928210,0.17,0.15,0.17,0.18,352.71,352.72,0.0,0.0
1630618214.79919720,117028170,0.18,0.16,0.16,0.16,352.71,352.72,0.0,0.0
1630618214.89999008,117128963,0.19,0.18,0.17,0.16,352.71,352.71,0.0,0.0
1630618214.99995017,117228923,0.19,0.19,0.18,0.17,352.71,352.71,0.0,0.0
1630618215.09991002,117328883,0.2,0.2,0.17,0.17,352.71,352.71,0.0,0.0
1630618215.19987011,117428843,0.2,0.2,0.16,0.15,352.71,352.71,0.0,0.0
1630618215.29983020,117528803,0.18,0.19,0.2,0.16,352.71,352.71,0.0,0.0
1630618215.39979005,117628763,0.17,0.17,0.22,0.18,352.71,352.71,0.0,0.0
1630618215.49975014,117728723,0.16,0.16,0.23,0.21,352.71,352.71,0.0,0.0
1630618215.59970999,117828683,0.15,0.15,0.23,0.22,352.71,352.71,0.0,0.0
1630618215.69967008,117928643,0.14,0.13,0.22,0.22,352.71,352.71,0.0,0.0
1630618215.79963017,118028603,0.15,0.12,0.21,0.22,352.71,352.7,0.0,0.0
1630618215.89959002,118128563,0.17,0.14,0.22,0.22,352.71,352.7,0.0,0.0
1630618215.99955010,118228523,0.19,0.17,0.24,0.23,352.71,352.71,0.0,0.0
1630618216.09951019,118328483,0.21,0.2,0.26,0.25,352.71,352.71,0.0,0.0
1630618216.19947004,118428443,0.23,0.22,0.27,0.26,352.71,352.71,0.0,0.0
1630618216.29943013,118528403,0.23,0.23,0.24,0.25,352.71,352.71,0.0,0.0
1630618216.39938998,118628363,0.21,0.22,0.21,0.22,352.71,352.71,0.0,0.0
1630618216.49935007,118728323,0.2,0.2,0.21,0.21,352.71,352.71,0.0,0.0
1630618216.59931016,118828283,0.17,0.16,0.22,0.21,352.71,352.71,0.0,0.0
1630618216.69927001,118928243,0.16,0.14,0.21,0.21,352.71,352.71,0.0,0.0
1630618216.79923010,119028203,0.16,0.13,0.18,0.18,352.71,352.7,0.0,0.0
1630618216.89919019,119128163,0.12,0.11,0.15,0.15,352.71,352.7,0.0,0.0
1630618216.99998307,119228956,0.1,0.08,0.13,0.11,352.71,352.7,0.0,0.0
1630618217.09994316,119328916,0.1,0.07,0.18,0.12,352.71,352.69,0.0,0.0
1630618217.19990301,119428876,0.15,0.1,0.23,0.18,352.71,352.69,0.0,0.0
1630618217.29986310,119528836,0.2,0.16,0.23,0.22,352.71,352.7,0.0,0.0
1630618217.39982319,119628796,0.21,0.2,0.21,0.22,352.71,352.7,0.0,0.0
1630618217.49978304,119728756,0.21,0.21,0.22,0.21,352.71,352.7,0.0,0.0
1630618217.59974313,119828716,0.2,0.2,0.26,0.22,352.71,352.71,0.0,0.0
1630618217.69970298,119928676,0.21,0.2,0.28,0.25,352.71,352.71,0.0,0.0
1630618217.79966307,120028636,0.22,0.21,0.27,0.28,352.71,352.72,0.0,0.0
1630618217.89962316,120128596,0.22,0.21,0.24,0.28,352.71,352.72,0.0,0.0
1630618217.99958301,120228556,0.2,0.21,0.2,0.23,352.71,352.73,0.0,0.0
1630618218.09954309,120328516,0.19,0.2,0.17,0.18,352.71,352.72,0.0,0.0
1630618218.19950318,120428476,0.2,0.2,0.18,0.16,352.71,352.72,0.0,0.0
1630618218.29946303,120528436,0.22,0.21,0.21,0.17,352.71,352.72,0.0,0.0
1630618218.39942312,120628396,0.25,0.23,0.23,0.19,352.71,352.72,0.0,0.0
1630618218.49938297,120728356,0.24,0.25,0.21,0.2,352.71,352.71,0.0,0.0
1630618218.59934306,120828316,0.21,0.23,0.2,0.19,352.71,352.71,0.0,0.0
1630618218.69930315,120928276,0.21,0.2,0.18,0.18,352.71,352.71,0.0,0.0
1630618218.79926300,121028236,0.23,0.2,0.17,0.17,352.71,352.7,0.0,0.0
1630618218.89922309,121128196,0.22,0.21,0.16,0.16,352.71,352.7,0.0,0.0
1630618218.99918318,121228156,0.19,0.19,0.16,0.15,352.71,352.7,0.0,0.0
1630618219.09997606,121328949,0.17,0.16,0.17,0.16,352.71,352.7,0.0,0.0
1630618219.19993615,121428909,0.16,0.15,0.17,0.16,352.71,352.7,0.0,0.0
1630618219.29989600,121528869,0.18,0.15,0.16,0.16,352.71,352.7,0.0,0.0
1630618219.39985609,121628829,0.2,0.16,0.15,0.15,352.71,352.7,0.0,0.0
1630618219.49981618,121728789,0.23,0.2,0.14,0.14,352.71,352.7,0.0,0.0
1630618219.59977603,121828749,0.25,0.23,0.14,0.13,352.71,352.7,0.0,0.0
1630618219.69973612,121928709,0.24,0.24,0.14,0.13,352.71,352.71,0.0,0.0
1630618219.79969621,122028669,0.23,0.24,0.12,0.11,352.71,352.71,0.0,0.0
1630618219.89965606,122128629,0.2,0.23,0.1,0.09,352.71,352.71,0.0,0.0
1630618219.99961615,122228589,0.16,0.18,0.08,0.07,352.71,352.71,0.0,0.0
1630618220.09957600,122328549,0.15,0.14,0.08,0.06,352.71,352.71,0.0,0.0
1630618220.19953609,122428509,0.17,0.14,0.12,0.09,352.71,352.71,0.0,0.0
1630618220.29949617,122528469,0.21,0.17,0.17,0.15,352.71,352.71,0.0,0.0
1630618220.39945602,122628429,0.23,0.21,0.19,0.18,352.71,352.71,0.0,0.0
1630618220.49941611,122728389,0.23,0.23,0.17,0.19,352.71,352.71,0.0,0.0
1630618220.59937620,122828349,0.21,0.23,0.15,0.17,352.71,352.71,0.0,0.0
1630618220.69933605,122928309,0.17,0.2,0.12,0.13,352.71,352.71,0.0,0.0
1630618220.79929614,123028269,0.11,0.13,0.11,0.1,352.71,352.7,0.0,0.0
1630618220.89925599,123128229,0.12,0.1,0.11,0.09,352.71,352.7,0.0,0.0
1630618220.99921608,123228189,0.15,0.1,0.15,0.1,352.71,352.7,0.0,0.0
1630618221.10000920,123328982,0.18,0.13,0.16,0.13,352.71,352.7,0.0,0.0
1630618221.19996905,123428942,0.19,0.16,0.17,0.15,352.71,352.7,0.0,0.0
1630618221.29992914,123528902,0.23,0.2,0.19,0.17,352.71,352.7,0.0,0.0
1630618221.39988899,123628862,0.27,0.24,0.18,0.17,352.71,352.7,0.0,0.0
1630618221.49984908,123728822,0.28,0.28,0.18,0.18,352.71,352.7,0.0,0.0
1630618221.59980917,123828782,0.24,0.26,0.2,0.19,352.71,352.7,0.0,0.0
1630618221.69976902,123928742,0.2,0.21,0.22,0.21,352.71,352.71,0.0,0.0
1630618221.79972911,124028702,0.17,0.16,0.23,0.21,352.71,352.71,0.0,0.0
1630618221.89968920,124128662,0.17,0.13,0.25,0.22,352.71,352.71,0.0,0.0
1630618221.99964905,124228622,0.18,0.12,0.24,0.22,352.71,352.71,0.0,0.0
1630618222.09960914,124328582,0.19,0.14,0.21,0.21,352.71,352.71,0.0,0.0
1630618222.19956899,124428542,0.19,0.16,0.21,0.2,352.71,352.72,0.0,0.0
1630618222.29952908,124528502,0.21,0.19,0.24,0.21,352.71,352.72,0.0,0.0
1630618222.39948916,124628462,0.22,0.21,0.26,0.23,352.71,352.72,0.0,0.0
1630618222.49944901,124728422,0.24,0.23,0.27,0.26,352.71,352.72,0.0,0.0
1630618222.59940910,124828382,0.28,0.25,0.26,0.27,352.71,352.71,0.0,0.0
1630618222.69936919,124928342,0.29,0.29,0.26,0.27,352.71,352.71,0.0,0.0
1630618222.79932904,125028302,0.28,0.29,0.25,0.26,352.71,352.71,0.0,0.0
1630618222.89928913,125128262,0.26,0.27,0.25,0.24,352.71,352.71,0.0,0.0
1630618222.99924898,125228222,0.25,0.24,0.24,0.22,352.71,352.71,0.0,0.0
1630618223.09920907,125328182,0.23,0.23,0.24,0.22,352.71,352.7,0.0,0.0
1630618223.20000219,125428975,0.21,0.2,0.25,0.22,352.71,352.7,0.0,0.0
1630618223.29996204,125528935,0.19,0.17,0.26,0.24,352.71,352.7,0.0,0.0
1630618223.39992213,125628895,0.2,0.17,0.27,0.25,352.71,352.7,0.0,0.0
1630618223.49988198,125728855,0.23,0.2,0.28,0.26,352.71,352.7,0.0,0.0
1630618223.59984207,125828815,0.25,0.23,0.3,0.27,352.71,352.7,0.0,0.0
1630618223.69980216,125928775,0.25,0.25,0.28,0.27,352.71,352.7,0.0,0.0
1630618223.79976201,126028735,0.24,0.25,0.26,0.25,352.71,352.7,0.0,0.0
1630618223.89972210,126128695,0.24,0.25,0.25,0.23,352.71,352.7,0.0,0.0
1630618223.99968219,126228655,0.23,0.23,0.24,0.22,352.71,352.7,0.0,0.0
1630618224.09964204,126328615,0.22,0.22,0.23,0.21,352.71,352.7,0.0,0.0
1630618224.19960213,126428575,0.2,0.2,0.22,0.21,352.71,352.7,0.0,0.0
1630618224.29956198,126528535,0.16,0.16,0.2,0.19,352.71,352.7,0.0,0.0
1630618224.39952207,126628495,0.1,0.11,0.15,0.15,352.71,352.7,0.0,0.0
1630618224.49948215,126728455,0.09,0.07,0.12,0.12,352.71,352.7,0.0,0.0
1630618224.59944201,126828415,0.12,0.07,0.13,0.1,352.71,352.71,0.0,0.0
1630618224.69940209,126928375,0.13,0.1,0.13,0.1,352.71,352.71,0.0,0.0
1630618224.79936218,127028335,0.15,0.12,0.14,0.11,352.71,352.71,0.0,0.0
1630618224.89932203,127128295,0.15,0.14,0.13,0.11,352.71,352.71,0.0,0.0
1630618224.99928212,127228255,0.12,0.13,0.11,0.1,352.71,352.71,0.0,0.0
1630618225.09924197,127328215,0.1,0.1,0.12,0.1,352.71,352.71,0.0,0.0
1630618225.19920206,127428175,0.1,0.09,0.15,0.12,352.71,352.71,0.0,0.0
1630618225.29999518,127528968,0.11,0.11,0.18,0.17,352.71,352.71,0.0,0.0
1630618225.39995503,127628928,0.1,0.11,0.2,0.2,352.71,352.71,0.0,0.0
1630618225.49991512,127728888,0.1,0.11,0.18,0.21,352.71,352.71,0.0,0.0
1630618225.59987497,127828848,0.09,0.11,0.13,0.17,352.71,352.7,0.0,0.0
1630618225.69983506,127928808,0.1,0.1,0.1,0.13,352.71,352.7,0.0,0.0
1630618225.79979515,128028768,0.11,0.1,0.11,0.09,352.71,352.7,0.0,0.0
1630618225.89975500,128128728,0.12,0.11,0.12,0.09,352.71,352.7,0.0,0.0
1630618225.99971509,128228688,0.13,0.12,0.11,0.09,352.71,352.7,0.0,0.0
1630618226.09967518,128328648,0.12,0.11,0.12,0.11,352.71,352.7,0.0,0.0
1630618226.19963503,128428608,0.13,0.1,0.13,0.11,352.71,352.7,0.0,0.0
1630618226.29959512,128528568,0.17,0.14,0.14,0.12,352.71,352.71,0.0,0.0
1630618226.39955521,128628528,0.2,0.17,0.17,0.15,352.71,352.71,0.0,0.0
1630618226.49951506,128728488,0.24,0.22,0.21,0.19,352.71,352.71,0.0,0.0
1630618226.59947515,128828448,0.28,0.26,0.26,0.24,352.71,352.71,0.0,0.0
1630618226.69943500,128928408,0.3,0.3,0.27,0.27,352.71,352.71,0.0,0.0
1630618226.79939508,129028368,0.27,0.3,0.29,0.28,352.71,352.71,0.0,0.0
1630618226.89935517,129128328,0.24,0.27,0.29,0.3,352.71,352.71,0.0,0.0
1630618226.99931502,129228288,0.23,0.24,0.29,0.29,352.71,352.71,0.0,0.0
1630618227.09927511,129328248,0.23,0.22,0.32,0.3,352.71,352.71,0.0,0.0
1630618227.19923520,129428208,0.23,0.21,0.32,0.3,352.71,352.71,0.0,0.0
1630618227.29919505,129528168,0.23,0.22,0.29,0.29,352.71,352.71,0.0,0.0
1630618227.39998817,129628961,0.25,0.22,0.26,0.26,352.71,352.71,0.0,0.0
1630618227.49994802,129728921,0.26,0.25,0.24,0.23,352.71,352.71,0.0,0.0
1630618227.59990811,129828881,0.25,0.25,0.24,0.21,352.71,352.71,0.0,0.0
1630618227.69986820,129928841,0.21,0.22,0.23,0.22,352.71,352.71,0.0,0.0
1630618227.79982805,130028801,0.17,0.17,0.23,0.21,352.71,352.71,0.0,0.0
1630618227.89978814,130128761,0.18,0.15,0.24,0.21,352.71,352.71,0.0,0.0
1630618227.99974799,130228721,0.21,0.16,0.25,0.23,352.71,352.71,0.0,0.0
1630618228.09970808,130328681,0.21,0.18,0.24,0.24,352.71,352.71,0.0,0.0
1630618228.19966817,130428641,0.21,0.19,0.24,0.24,352.71,352.71,0.0,0.0
1630618228.29962802,130528601,0.22,0.2,0.24,0.24,352.71,352.71,0.0,0.0
1630618228.39958811,130628561,0.19,0.19,0.21,0.21,352.71,352.71,0.0,0.0
1630618228.49954820,130728521,0.18,0.17,0.2,0.19,352.71,352.71,0.0,0.0
1630618228.59950805,130828481,0.16,0.15,0.2,0.18,352.71,352.71,0.0,0.0
1630618228.69946814,130928441,0.16,0.14,0.21,0.18,352.71,352.71,0.0,0.0
1630618228.79942799,131028401,0.17,0.13,0.23,0.19,352.71,352.7,0.0,0.0
1630618228.89938807,131128361,0.19,0.15,0.25,0.21,352.71,352.7,0.0,0.0
1630618228.99934816,131228321,0.18,0.17,0.25,0.24,352.71,352.7,0.0,0.0
1630618229.09930801,131328281,0.17,0.17,0.25,0.25,352.71,352.7,0.0,0.0
1630618229.19926810,131428241,0.13,0.14,0.23,0.24,352.71,352.71,0.0,0.0
1630618229.29922819,131528201,0.12,0.12,0.23,0.23,352.71,352.71,0.0,0.0
1630618229.39918804,131628161,0.15,0.13,0.25,0.24,352.71,352.71,0.0,0.0
1630618229.49998116,131728954,0.16,0.15,0.25,0.25,352.71,352.71,0.0,0.0
1630618229.59994102,131828914,0.18,0.16,0.25,0.25,352.71,352.71,0.0,0.0
1630618229.69990110,131928874,0.19,0.18,0.26,0.26,352.71,352.71,0.0,0.0
1630618229.79986119,132028834,0.2,0.19,0.25,0.25,352.71,352.71,0.0,0.0
1630618229.89982104,132128794,0.19,0.19,0.26,0.26,352.71,352.71,0.0,0.0
1630618229.99978113,132228754,0.18,0.18,0.29,0.27,352.71,352.71,0.0,0.0
1630618230.09974098,132328714,0.2,0.18,0.3,0.3,352.71,352.71,0.0,0.0
1630618230.19970107,132428674,0.2,0.19,0.32,0.32,352.71,352.71,0.0,0.0
1630618230.29966116,132528634,0.23,0.21,0.32,0.33,352.71,352.71,0.0,0.0
1630618230.39962101,132628594,0.24,0.23,0.29,0.3,352.71,352.71,0.0,0.0
1630618230.49958110,132728554,0.22,0.23,0.25,0.26,352.71,352.71,0.0,0.0
1630618230.59954119,132828514,0.21,0.21,0.21,0.21,352.71,352.71,0.0,0.0
1630618230.69950104,132928474,0.23,0.22,0.2,0.18,352.71,352.71,0.0,0.0
1630618230.79946113,133028434,0.22,0.21,0.19,0.16,352.71,352.71,0.0,0.0
1630618230.89942098,133128394,0.23,0.22,0.2,0.17,352.71,352.7,0.0,0.0
1630618230.99938107,133228354,0.24,0.22,0.23,0.18,352.71,352.7,0.0,0.0
1630618231.09934115,133328314,0.23,0.22,0.23,0.21,352.71,352.7,0.0,0.0
1630618231.19930100,133428274,0.21,0.2,0.24,0.22,352.71,352.7,0.0,0.0
1630618231.29926109,133528234,0.19,0.18,0.26,0.24,352.71,352.7,0.0,0.0
1630618231.39922118,133628194,0.19,0.16,0.26,0.25,352.71,352.7,0.0,0.0
1630618231.49918103,133728154,0.23,0.19,0.25,0.26,352.71,352.71,0.0,0.0
1630618231.59997416,133828947,0.25,0.22,0.25,0.25,352.71,352.71,0.0,0.0
1630618231.69993401,133928907,0.25,0.25,0.26,0.26,352.71,352.71,0.0,0.0
1630618231.79989409,134028867,0.24,0.25,0.24,0.25,352.71,352.71,0.0,0.0
1630618231.89985418,134128827,0.25,0.25,0.21,0.23,352.71,352.71,0.0,0.0
1630618231.99981403,134228787,0.26,0.25,0.2,0.2,352.71,352.71,0.0,0.0
1630618232.09977412,134328747,0.25,0.25,0.21,0.19,352.71,352.7,0.0,0.0
1630618232.19973397,134428707,0.26,0.25,0.22,0.19,352.71,352.7,0.0,0.0
1630618232.29969406,134528667,0.27,0.25,0.21,0.2,352.71,352.7,0.0,0.0
1630618232.39965415,134628627,0.28,0.26,0.17,0.18,352.71,352.7,0.0,0.0
1630618232.49961400,134728587,0.3,0.27,0.16,0.15,352.71,352.7,0.0,0.0
1630618232.59957409,134828547,0.3,0.28,0.19,0.15,352.71,352.7,0.0,0.0
1630618232.69953418,134928507,0.27,0.27,0.21,0.18,352.71,352.7,0.0,0.0
1630618232.79949403,135028467,0.24,0.24,0.22,0.2,352.71,352.7,0.0,0.0
1630618232.89945412,135128427,0.23,0.21,0.22,0.21,352.71,352.7,0.0,0.0
1630618232.99941421,135228387,0.23,0.19,0.22,0.22,352.71,352.71,0.0,0.0
1630618233.09937406,135328347,0.23,0.2,0.24,0.24,352.71,352.71,0.0,0.0
1630618233.19933414,135428307,0.21,0.19,0.22,0.23,352.71,352.71,0.0,0.0
1630618233.29929399,135528267,0.18,0.18,0.19,0.2,352.71,352.71,0.0,0.0
1630618233.39925408,135628227,0.17,0.16,0.17,0.17,352.71,352.71,0.0,0.0
1630618233.49921417,135728187,0.18,0.15,0.15,0.14,352.71,352.71,0.0,0.0
1630618233.60000706,135828980,0.18,0.15,0.13,0.12,352.71,352.71,0.0,0.0
1630618233.69996715,135928940,0.2,0.18,0.14,0.12,352.71,352.71,0.0,0.0
1630618233.79992700,136028900,0.22,0.21,0.15,0.12,352.71,352.71,0.0,0.0
1630618233.89988708,136128860,0.22,0.23,0.16,0.14,352.71,352.71,0.0,0.0
1630618233.99984717,136228820,0.2,0.21,0.17,0.15,352.71,352.71,0.0,0.0
1630618234.09980702,136328780,0.17,0.18,0.17,0.16,352.71,352.71,0.0,0.0
1630618234.19976711,136428740,0.14,0.14,0.18,0.16,352.71,352.71,0.0,0.0
1630618234.29972720,136528700,0.14,0.11,0.19,0.17,352.71,352.7,0.0,0.0
1630618234.39968705,136628660,0.17,0.13,0.17,0.17,352.71,352.7,0.0,0.0
1630618234.49964714,136728620,0.2,0.17,0.15,0.15,352.71,352.7,0.0,0.0
1630618234.59960699,136828580,0.21,0.19,0.13,0.12,352.71,352.7,0.0,0.0
1630618234.69956708,136928540,0.21,0.21,0.14,0.12,352.71,352.7,0.0,0.0
1630618234.79952717,137028500,0.21,0.21,0.13,0.12,352.71,352.7,0.0,0.0
1630618234.89948702,137128460,0.19,0.19,0.14,0.13,352.71,352.7,0.0,0.0
1630618234.99944711,137228420,0.2,0.18,0.14,0.14,352.71,352.7,0.0,0.0
1630618235.09940720,137328380,0.23,0.2,0.16,0.15,352.71,352.71,0.0,0.0
1630618235.19936705,137428340,0.23,0.21,0.22,0.19,352.71,352.71,0.0,0.0
1630618235.29932714,137528300,0.23,0.22,0.25,0.24,352.71,352.71,0.0,0.0
1630618235.39928699,137628260,0.24,0.23,0.24,0.24,352.71,352.71,0.0,0.0
1630618235.49924707,137728220,0.23,0.23,0.23,0.23,352.71,352.71,0.0,0.0
1630618235.59920716,137828180,0.22,0.22,0.22,0.22,352.71,352.71,0.0,0.0
1630618235.70000005,137928973,0.22,0.22,0.2,0.2,352.71,352.71,0.0,0.0
1630618235.79996014,138028933,0.2,0.2,0.21,0.19,352.71,352.71,0.0,0.0
1630618235.89991999,138128893,0.18,0.18,0.24,0.22,352.71,352.7,0.0,0.0
1630618235.99988008,138228853,0.17,0.15,0.24,0.23,352.71,352.7,0.0,0.0
1630618236.09984016,138328813,0.17,0.15,0.21,0.21,352.71,352.7,0.0,0.0
1630618236.19980001,138428773,0.19,0.16,0.2,0.18,352.71,352.7,0.0,0.0
1630618236.29976010,138528733,0.22,0.19,0.22,0.18,352.71,352.7,0.0,0.0
1630618236.39972019,138628693,0.23,0.21,0.23,0.2,352.71,352.7,0.0,0.0
1630618236.49968004,138728653,0.25,0.23,0.25,0.23,352.71,352.71,0.0,0.0
1630618236.59964013,138828613,0.25,0.24,0.28,0.26,352.71,352.71,0.0,0.0
1630618236.69959998,138928573,0.24,0.25,0.3,0.29,352.71,352.71,0.0,0.0
1630618236.79956007,139028533,0.24,0.24,0.29,0.31,352.71,352.71,0.0,0.0
