timestamp,TimeUS,DesRoll,Roll,DesPitch,Pitch,DesYaw,Yaw,ErrRP,ErrYaw
1630605938.00000000,96828753,0.0,0.17,0.0,0.16,353.12,353.13,0.0,0.0
1630605938.09996009,96928713,0.0,0.17,0.0,0.16,353.12,353.13,0.0,0.0
1630605938.19991994,97028673,0.0,0.17,0.0,0.16,353.12,353.13,0.0,0.0
1630605938.29988003,97128633,0.0,0.17,0.0,0.16,353.12,353.13,0.0,0.0
1630605938.39984012,97228593,0.0,0.17,0.0,0.16,353.12,353.13,0.0,0.0
1630605938.49979997,97328553,0.0,0.17,0.0,0.16,353.12,353.13,0.0,0.0
1630605938.59976006,97428513,0.0,0.17,0.0,0.16,353.12,353.13,0.0,0.0
1630605938.69971991,97528473,0.0,0.17,0.0,0.16,353.12,353.13,0.0,0.0
1630605938.79967999,97628433,0.0,0.17,0.0,0.16,353.12,353.13,0.0,0.0
1630605938.89964008,97728393,0.0,0.17,0.0,0.16,353.12,353.13,0.0,0.0
1630605938.99959993,97828353,0.0,0.17,0.0,0.16,353.13,353.14,0.0,0.0
1630605939.09956002,97928313,0.0,0.17,0.0,0.16,353.13,353.14,0.0,0.0
1630605939.19952011,98028273,0.0,0.17,0.0,0.16,353.13,353.14,0.0,0.0
1630605939.29947996,98128233,0.0,0.17,0.0,0.16,353.13,353.14,0.0,0.0
1630605939.39944005,98228193,0.0,0.17,0.0,0.16,353.13,353.14,0.0,0.0
1630605939.50023293,98328986,0.0,0.17,0.0,0.16,353.13,353.14,0.0,0.0
1630605939.60019302,98428946,0.0,0.17,0.0,0.16,353.13,353.14,0.0,0.0
1630605939.70015311,98528906,0.0,0.17,0.0,0.16,353.13,353.14,0.0,0.0
1630605939.80011296,98628866,0.0,0.18,0.0,0.16,353.13,353.14,0.0,0.0
1630605939.90007305,98728826,0.0,0.18,0.0,0.16,353.13,353.14,0.0,0.0
1630605940.00003290,98828786,0.0,0.18,0.0,0.16,353.13,353.14,0.0,0.0
1630605940.09999299,98928746,0.0,0.18,0.0,0.16,353.13,353.14,0.0,0.0
1630605940.19995308,99028706,0.0,0.18,0.0,0.16,353.13,353.14,0.0,0.0
1630605940.29991293,99128666,0.0,0.18,0.0,0.16,353.14,353.15,0.0,0.0
1630605940.39987302,99228626,0.0,0.18,0.0,0.16,353.14,353.15,0.0,0.0
1630605940.49983311,99328586,0.0,0.18,0.0,0.16,353.14,353.15,0.0,0.0
1630605940.59979296,99428546,0.0,0.18,0.0,0.16,353.14,353.15,0.0,0.0
1630605940.69975305,99528506,0.0,0.18,0.0,0.16,353.14,353.15,0.0,0.0
1630605940.79971290,99628466,0.0,0.18,0.0,0.16,353.14,353.15,0.0,0.0
1630605940.89967299,99728426,0.0,0.18,0.0,0.16,353.14,353.15,0.0,0.0
1630605940.99963307,99828386,0.0,0.18,0.0,0.16,353.14,353.15,0.0,0.0
1630605941.09959292,99928346,0.0,0.18,0.0,0.16,353.14,353.15,0.0,0.0
1630605941.19955301,100028306,0.0,0.18,0.0,0.16,353.14,353.15,0.0,0.0
1630605941.29951310,100128266,0.0,0.18,0.0,0.16,353.14,353.15,0.0,0.0
1630605941.39947295,100228226,0.0,0.18,0.0,0.16,353.14,353.15,0.0,0.0
1630605941.49943304,100328186,0.0,0.18,0.0,0.16,353.14,353.15,0.0,0.0
1630605941.60022593,100428979,0.0,0.18,0.0,0.16,353.15,353.16,0.0,0.0
1630605941.70018601,100528939,0.0,0.18,0.0,0.16,353.15,353.16,0.0,0.0
1630605941.80014610,100628899,0.0,0.18,0.0,0.16,353.15,353.16,0.0,0.0
1630605941.90010595,100728859,0.0,0.18,0.0,0.16,353.15,353.16,0.0,0.0
1630605942.00006604,100828819,-0.15,0.18,-0.15,0.16,353.15,353.16,0.0,0.0
1630605942.10002589,100928779,-0.3,0.18,-0.3,0.16,353.15,353.16,0.0,0.0
1630605942.19998598,101028739,-0.39,0.18,-0.39,0.16,353.15,353.16,0.0,0.0
1630605942.29994607,101128699,-0.46,0.18,-0.45,0.16,353.15,353.16,0.0,0.0
1630605942.39990592,101228659,-0.5,0.18,-0.49,0.16,353.15,353.16,0.0,0.0
1630605942.49986601,101328619,-0.53,0.18,-0.53,0.16,353.15,353.16,0.0,0.0
1630605942.59982610,101428579,-0.57,0.18,-0.57,0.16,353.15,353.16,0.0,0.0
1630605942.69978595,101528539,-0.62,0.18,-0.6,0.16,353.15,353.16,0.0,0.0
1630605942.79974604,101628499,-0.66,0.18,-0.63,0.17,353.15,353.16,0.0,0.0
1630605942.89970589,101728459,-0.68,0.18,-0.65,0.17,353.15,353.17,0.0,0.0
1630605942.99966598,101828419,-0.7,0.18,-0.67,0.17,353.15,353.17,0.0,0.0
1630605943.09962606,101928379,-0.73,0.18,-0.7,0.17,353.15,353.17,0.0,0.0
1630605943.19958591,102028339,-0.77,0.18,-0.76,0.17,353.15,353.17,0.0,0.0
1630605943.29954600,102128299,-0.82,0.18,-0.8,0.17,353.15,353.17,0.0,0.0
1630605943.39950609,102228259,-0.86,0.18,-0.85,0.17,353.15,353.17,0.0,0.0
1630605943.49946594,102328219,-0.9,0.18,-0.9,0.17,353.15,353.17,0.0,0.0
1630605943.59942603,102428179,-0.95,-0.18,-0.95,-0.18,353.15,353.17,0.0,0.0
1630605943.70021892,102528972,-0.96,-0.83,-0.94,-0.82,353.15,353.17,0.0,0.0
1630605943.80017900,102628932,-0.84,-1.35,-0.79,-1.29,353.15,353.18,0.0,0.0
1630605943.90013909,102728892,-0.58,-1.52,-0.52,-1.44,353.15,353.17,0.0,0.0
1630605944.00009894,102828852,-0.2,-1.35,-0.15,-1.26,353.15,353.16,0.0,0.0
1630605944.10005903,102928812,0.25,-0.91,0.25,-0.85,353.15,353.15,0.0,0.0
1630605944.20001912,103028772,0.64,-0.37,0.57,-0.36,353.15,353.14,0.0,0.0
1630605944.29997897,103128732,0.89,0.11,0.79,0.05,353.15,353.13,0.0,0.01
1630605944.39993906,103228692,1.0,0.44,0.89,0.33,353.15,353.13,0.0,0.01
1630605944.49989891,103328652,0.99,0.58,0.9,0.47,353.15,353.14,0.0,0.01
1630605944.59985900,103428612,0.93,0.57,0.85,0.48,353.15,353.14,0.0,0.0
1630605944.69981909,103528572,0.89,0.51,0.82,0.43,353.15,353.14,0.0,0.0
1630605944.79977894,103628532,0.85,0.45,0.78,0.38,353.15,353.14,0.0,0.0
1630605944.89973903,103728492,0.81,0.4,0.8,0.37,353.15,353.14,0.0,0.0
1630605944.99969912,103828452,0.82,0.39,0.84,0.41,353.15,353.14,0.0,0.0
1630605945.09965897,103928412,0.85,0.45,0.89,0.5,353.15,353.15,0.0,0.0
1630605945.19961905,104028372,0.87,0.51,0.9,0.57,353.15,353.15,0.0,0.0
1630605945.29957891,104128332,0.86,0.56,0.87,0.6,352.52,352.52,0.0,0.0
1630605945.39953899,104228292,0.83,0.57,0.83,0.59,352.52,352.53,0.0,0.0
1630605945.49949908,104328252,0.79,0.57,0.76,0.56,352.52,352.53,0.0,0.0
1630605945.59945893,104428212,0.75,0.55,0.7,0.51,352.52,352.53,0.0,0.0
1630605945.69941902,104528172,0.71,0.53,0.65,0.47,352.52,352.53,0.0,0.0
1630605945.80021191,104628965,0.64,0.48,0.63,0.45,352.52,352.53,0.0,0.0
1630605945.90017200,104728925,0.59,0.43,0.6,0.44,352.52,352.53,0.0,0.0
1630605946.00013208,104828885,0.52,0.38,0.55,0.41,352.52,352.53,0.0,0.0
1630605946.10009193,104928845,0.48,0.34,0.49,0.37,352.52,352.53,0.0,0.0
1630605946.20005202,105028805,0.48,0.33,0.42,0.32,352.52,352.53,0.0,0.0
1630605946.30001211,105128765,0.5,0.37,0.38,0.27,352.52,352.53,0.0,0.0
1630605946.39997196,105228725,0.49,0.39,0.34,0.24,352.52,352.53,0.0,0.0
1630605946.49993205,105328685,0.44,0.38,0.31,0.21,352.52,352.52,0.0,0.0
1630605946.59989190,105428645,0.37,0.33,0.27,0.18,352.52,352.52,0.0,0.0
1630605946.69985199,105528605,0.31,0.26,0.22,0.16,352.52,352.52,0.0,0.0
1630605946.79981208,105628565,0.29,0.21,0.18,0.11,352.52,352.52,0.0,0.0
1630605946.89977193,105728525,0.3,0.19,0.18,0.1,352.52,352.52,0.0,0.0
1630605946.99973202,105828485,0.32,0.21,0.19,0.11,352.52,352.53,0.0,0.0
1630605947.09969211,105928445,0.31,0.24,0.21,0.13,352.52,352.53,0.0,0.0
1630605947.19965196,106028405,0.26,0.23,0.21,0.16,352.52,352.53,0.0,0.0
1630605947.29961205,106128365,0.24,0.21,0.17,0.16,352.52,352.53,0.0,0.0
1630605947.39957190,106228325,0.21,0.18,0.1,0.1,352.52,352.53,0.0,0.0
1630605947.49953198,106328285,0.19,0.16,0.07,0.04,352.52,352.53,0.0,0.0
1630605947.59949207,106428245,0.19,0.14,0.05,0.0,352.52,352.53,0.0,0.0
1630605947.69945192,106528205,0.18,0.13,0.08,0.0,352.52,352.53,0.0,0.0
1630605947.79941201,106628165,0.18,0.13,0.13,0.03,352.52,352.53,0.0,0.0
1630605947.90020490,106728958,0.19,0.15,0.2,0.12,352.52,352.53,0.0,0.0
1630605948.00016499,106828918,0.21,0.17,0.24,0.21,352.52,352.53,0.0,0.0
1630605948.10012507,106928878,0.2,0.19,0.23,0.24,352.52,352.53,0.0,0.0
1630605948.20008492,107028838,0.19,0.18,0.18,0.23,352.52,352.54,0.0,0.0
1630605948.30004501,107128798,0.17,0.16,0.14,0.18,352.52,352.54,0.0,0.0
1630605948.40000510,107228758,0.16,0.15,0.11,0.12,352.52,352.54,0.0,0.0
1630605948.49996495,107328718,0.15,0.13,0.12,0.09,352.52,352.54,0.0,0.0
1630605948.59992504,107428678,0.13,0.11,0.15,0.1,352.52,352.54,0.0,0.0
1630605948.69988489,107528638,0.15,0.11,0.18,0.13,352.52,352.54,0.0,0.0
1630605948.79984498,107628598,0.18,0.13,0.21,0.17,352.52,352.54,0.0,0.0
1630605948.89980507,107728558,0.19,0.16,0.23,0.21,352.52,352.54,0.0,0.0
1630605948.99976492,107828518,0.19,0.16,0.25,0.22,352.52,352.53,0.0,0.0
1630605949.09972501,107928478,0.17,0.16,0.26,0.24,352.52,352.53,0.0,0.0
1630605949.19968510,108028438,0.16,0.14,0.25,0.24,352.52,352.53,0.0,0.0
1630605949.29964495,108128398,0.18,0.15,0.24,0.23,352.52,352.53,0.0,0.0
1630605949.39960504,108228358,0.18,0.16,0.23,0.22,352.52,352.53,0.0,0.0
1630605949.49956512,108328318,0.18,0.17,0.24,0.21,352.52,352.53,0.0,0.0
1630605949.59952497,108428278,0.23,0.19,0.23,0.21,352.52,352.52,0.0,0.0
1630605949.69948506,108528238,0.28,0.24,0.24,0.21,352.52,352.53,0.0,0.0
1630605949.79944491,108628198,0.29,0.29,0.26,0.23,352.52,352.53,0.0,0.0
1630605949.89940500,108728158,0.28,0.3,0.27,0.25,352.52,352.53,0.0,0.0
1630605950.00019789,108828951,0.26,0.28,0.3,0.28,352.52,352.53,0.0,0.0
1630605950.10015798,108928911,0.23,0.24,0.32,0.31,352.52,352.53,0.0,0.0
1630605950.20011806,109028871,0.2,0.21,0.33,0.33,352.52,352.53,0.0,0.0
1630605950.30007792,109128831,0.22,0.2,0.32,0.34,352.52,352.53,0.0,0.0
1630605950.40003800,109228791,0.25,0.21,0.3,0.32,352.52,352.53,0.0,0.0
1630605950.49999809,109328751,0.28,0.24,0.26,0.28,352.52,352.53,0.0,0.0
1630605950.59995794,109428711,0.32,0.28,0.23,0.22,352.52,352.53,0.0,0.0
1630605950.69991803,109528671,0.33,0.31,0.23,0.2,352.52,352.53,0.0,0.0
1630605950.79987812,109628631,0.33,0.32,0.28,0.22,352.52,352.53,0.0,0.0
1630605950.89983797,109728591,0.31,0.32,0.33,0.28,352.52,352.52,0.0,0.0
1630605950.99979806,109828551,0.3,0.29,0.33,0.32,352.52,352.52,0.0,0.0
1630605951.09975791,109928511,0.29,0.27,0.28,0.31,352.52,352.52,0.0,0.0
1630605951.19971800,110028471,0.28,0.26,0.23,0.26,352.52,352.52,0.0,0.0
1630605951.29967809,110128431,0.29,0.27,0.18,0.2,352.52,352.52,0.0,0.0
1630605951.39963794,110228391,0.3,0.28,0.13,0.13,352.52,352.52,0.0,0.0
1630605951.49959803,110328351,0.28,0.29,0.1,0.07,352.52,352.52,0.0,0.0
1630605951.59955812,110428311,0.26,0.26,0.12,0.06,352.52,352.53,0.0,0.0
1630605951.69951797,110528271,0.25,0.24,0.16,0.1,352.52,352.53,0.0,0.0
1630605951.79947805,110628231,0.23,0.22,0.17,0.13,352.52,352.53,0.0,0.0
1630605951.89943790,110728191,0.21,0.2,0.17,0.16,352.52,352.53,0.0,0.0
1630605952.00023103,110828984,0.18,0.18,0.17,0.17,352.52,352.54,0.0,0.0
1630605952.10019112,110928944,0.17,0.16,0.18,0.18,352.52,352.54,0.0,0.0
1630605952.20015097,111028904,0.16,0.14,0.2,0.19,352.52,352.54,0.0,0.0
1630605952.30011106,111128864,0.17,0.13,0.18,0.19,352.52,352.54,0.0,0.0
1630605952.40007091,111228824,0.19,0.14,0.16,0.17,352.52,352.54,0.0,0.0
1630605952.50003099,111328784,0.2,0.17,0.15,0.15,352.52,352.54,0.0,0.0
1630605952.59999108,111428744,0.21,0.2,0.15,0.14,352.52,352.54,0.0,0.0
1630605952.69995093,111528704,0.17,0.19,0.16,0.15,352.52,352.54,0.0,0.0
1630605952.79991102,111628664,0.13,0.15,0.18,0.15,352.52,352.53,0.0,0.0
1630605952.89987111,111728624,0.13,0.13,0.19,0.17,352.52,352.53,0.0,0.0
1630605952.99983096,111828584,0.15,0.12,0.2,0.19,352.52,352.53,0.0,0.0
1630605953.09979105,111928544,0.16,0.13,0.19,0.19,352.52,352.53,0.0,0.0
1630605953.19975090,112028504,0.16,0.14,0.14,0.16,352.52,352.53,0.0,0.0
1630605953.29971099,112128464,0.18,0.15,0.12,0.13,352.52,352.53,0.0,0.0
1630605953.39967108,112228424,0.21,0.17,0.13,0.1,352.52,352.53,0.0,0.0
1630605953.49963093,112328384,0.23,0.2,0.17,0.12,352.52,352.53,0.0,0.0
1630605953.59959102,112428344,0.25,0.22,0.17,0.15,352.52,352.53,0.0,0.0
1630605953.69955111,112528304,0.25,0.25,0.15,0.16,352.52,352.53,0.0,0.0
1630605953.79951096,112628264,0.23,0.25,0.13,0.14,352.52,352.53,0.0,0.0
1630605953.89947104,112728224,0.18,0.21,0.13,0.13,352.52,352.53,0.0,0.0
1630605953.99943089,112828184,0.16,0.17,0.13,0.12,352.52,352.53,0.0,0.0
1630605954.10022402,112928977,0.15,0.15,0.14,0.13,352.52,352.53,0.0,0.0
1630605954.20018411,113028937,0.17,0.14,0.15,0.14,352.52,352.53,0.0,0.0
1630605954.30014396,113128897,0.19,0.16,0.14,0.14,352.52,352.53,0.0,0.0
1630605954.40010405,113228857,0.21,0.19,0.14,0.13,352.52,352.53,0.0,0.0
1630605954.50006390,113328817,0.22,0.21,0.17,0.15,352.52,352.53,0.0,0.0
1630605954.60002398,113428777,0.19,0.2,0.18,0.17,352.52,352.53,0.0,0.0
1630605954.69998407,113528737,0.16,0.17,0.18,0.17,352.52,352.53,0.0,0.0
1630605954.79994392,113628697,0.13,0.13,0.2,0.17,352.52,352.53,0.0,0.0
1630605954.89990401,113728657,0.12,0.1,0.23,0.19,352.52,352.54,0.0,0.0
1630605954.99986410,113828617,0.15,0.1,0.24,0.22,352.52,352.54,0.0,0.0
1630605955.09982395,113928577,0.2,0.15,0.25,0.24,352.52,352.54,0.0,0.0
1630605955.19978404,114028537,0.24,0.21,0.27,0.25,352.52,352.54,0.0,0.0
1630605955.29974389,114128497,0.24,0.24,0.24,0.26,352.52,352.54,0.0,0.0
1630605955.39970398,114228457,0.26,0.25,0.2,0.22,352.52,352.53,0.0,0.0
1630605955.49966407,114328417,0.27,0.27,0.17,0.17,352.52,352.53,0.0,0.0
1630605955.59962392,114428377,0.26,0.26,0.14,0.14,352.52,352.52,0.0,0.0
1630605955.69958401,114528337,0.28,0.27,0.1,0.1,352.52,352.52,0.0,0.0
1630605955.79954410,114628297,0.26,0.26,0.1,0.07,352.52,352.52,0.0,0.0
1630605955.89950395,114728257,0.24,0.25,0.1,0.07,352.52,352.52,0.0,0.0
1630605955.99946404,114828217,0.2,0.21,0.12,0.08,352.52,352.52,0.0,0.0
1630605956.09942412,114928177,0.17,0.18,0.16,0.11,352.52,352.52,0.0,0.0
1630605956.20021701,115028970,0.15,0.14,0.19,0.15,352.52,352.53,0.0,0.0
1630605956.30017710,115128930,0.15,0.13,0.19,0.18,352.52,352.53,0.0,0.0
1630605956.40013695,115228890,0.17,0.13,0.18,0.18,352.52,352.53,0.0,0.0
1630605956.50009704,115328850,0.21,0.17,0.17,0.18,352.52,352.53,0.0,0.0
1630605956.60005689,115428810,0.24,0.22,0.16,0.17,352.52,352.53,0.0,0.0
1630605956.70001698,115528770,0.25,0.25,0.14,0.15,352.52,352.54,0.0,0.0
1630605956.79997706,115628730,0.21,0.25,0.13,0.13,352.52,352.54,0.0,0.0
1630605956.89993691,115728690,0.17,0.21,0.15,0.12,352.52,352.55,0.0,0.0
1630605956.99989700,115828650,0.17,0.17,0.17,0.15,352.52,352.55,0.0,0.0
1630605957.09985709,115928610,0.2,0.17,0.18,0.17,352.52,352.55,0.0,0.0
1630605957.19981694,116028570,0.21,0.18,0.18,0.18,352.52,352.54,0.0,0.0
1630605957.29977703,116128530,0.19,0.18,0.16,0.17,352.52,352.54,0.0,0.0
1630605957.39973712,116228490,0.2,0.17,0.13,0.14,352.52,352.54,0.0,0.0
1630605957.49969697,116328450,0.2,0.18,0.15,0.14,352.52,352.54,0.0,0.0
1630605957.59965706,116428410,0.18,0.16,0.17,0.15,352.52,352.53,0.0,0.0
1630605957.69961691,116528370,0.16,0.14,0.17,0.16,352.52,352.53,0.0,0.0
1630605957.79957700,116628330,0.18,0.15,0.16,0.15,352.52,352.53,0.0,0.0
1630605957.89953709,116728290,0.21,0.18,0.19,0.17,352.52,352.53,0.0,0.0
1630605957.99949694,116828250,0.2,0.19,0.21,0.18,352.52,352.52,0.0,0.0
1630605958.09945703,116928210,0.21,0.21,0.21,0.21,352.52,352.52,0.0,0.0
1630605958.19941711,117028170,0.21,0.21,0.19,0.2,352.52,352.52,0.0,0.0
1630605958.30021000,117128963,0.22,0.21,0.2,0.2,352.52,352.52,0.0,0.0
1630605958.40017009,117228923,0.22,0.21,0.18,0.19,352.52,352.53,0.0,0.0
1630605958.50012994,117328883,0.23,0.21,0.15,0.17,352.52,352.53,0.0,0.0
1630605958.60009003,117428843,0.23,0.22,0.12,0.14,352.52,352.53,0.0,0.0
1630605958.70005012,117528803,0.22,0.21,0.16,0.14,352.52,352.53,0.0,0.0
1630605958.80000997,117628763,0.21,0.2,0.18,0.16,352.52,352.53,0.0,0.0
1630605958.89997005,117728723,0.2,0.19,0.18,0.18,352.52,352.53,0.0,0.0
1630605958.99992990,117828683,0.18,0.17,0.18,0.17,352.52,352.53,0.0,0.0
1630605959.09988999,117928643,0.16,0.15,0.16,0.16,352.52,352.53,0.0,0.0
1630605959.19985008,118028603,0.17,0.14,0.15,0.14,352.52,352.53,0.0,0.0
1630605959.29980993,118128563,0.18,0.15,0.17,0.14,352.52,352.53,0.0,0.0
1630605959.39977002,118228523,0.2,0.17,0.2,0.15,352.52,352.53,0.0,0.0
1630605959.49973011,118328483,0.22,0.2,0.24,0.19,352.52,352.53,0.0,0.0
1630605959.59968996,118428443,0.24,0.22,0.25,0.23,352.52,352.53,0.0,0.0
1630605959.69965005,118528403,0.23,0.24,0.23,0.24,352.52,352.53,0.0,0.0
1630605959.79960990,118628363,0.21,0.22,0.19,0.2,352.52,352.53,0.0,0.0
1630605959.89956999,118728323,0.18,0.2,0.18,0.17,352.52,352.53,0.0,0.0
1630605959.99953008,118828283,0.14,0.16,0.2,0.17,352.52,352.53,0.0,0.0
1630605960.09948993,118928243,0.14,0.13,0.2,0.18,352.52,352.53,0.0,0.0
1630605960.19945002,119028203,0.12,0.11,0.18,0.18,352.52,352.53,0.0,0.0
1630605960.29941010,119128163,0.08,0.08,0.15,0.17,352.52,352.53,0.0,0.0
1630605960.40020299,119228956,0.06,0.05,0.12,0.14,352.52,352.53,0.0,0.0
1630605960.50016308,119328916,0.07,0.04,0.17,0.14,352.52,352.53,0.0,0.0
1630605960.60012293,119428876,0.13,0.07,0.23,0.18,352.52,352.53,0.0,0.0
1630605960.70008302,119528836,0.2,0.14,0.22,0.21,352.52,352.53,0.0,0.0
1630605960.80004311,119628796,0.21,0.2,0.21,0.21,352.52,352.53,0.0,0.0
1630605960.90000296,119728756,0.21,0.22,0.21,0.2,352.52,352.54,0.0,0.0
1630605960.99996305,119828716,0.2,0.22,0.26,0.23,352.52,352.54,0.0,0.0
1630605961.09992290,119928676,0.2,0.2,0.28,0.27,352.52,352.54,0.0,0.0
1630605961.19988298,120028636,0.21,0.2,0.27,0.27,352.52,352.53,0.0,0.0
1630605961.29984307,120128596,0.21,0.2,0.24,0.25,352.52,352.53,0.0,0.0
1630605961.39980292,120228556,0.19,0.2,0.19,0.22,352.52,352.53,0.0,0.0
1630605961.49976301,120328516,0.18,0.18,0.16,0.18,352.52,352.53,0.0,0.0
1630605961.59972310,120428476,0.2,0.18,0.17,0.15,352.52,352.53,0.0,0.0
1630605961.69968295,120528436,0.23,0.2,0.21,0.17,352.52,352.53,0.0,0.0
1630605961.79964304,120628396,0.27,0.25,0.23,0.2,352.52,352.53,0.0,0.0
1630605961.89960289,120728356,0.26,0.27,0.2,0.2,352.52,352.53,0.0,0.0
1630605961.99956298,120828316,0.24,0.25,0.19,0.18,352.52,352.53,0.0,0.0
1630605962.09952307,120928276,0.22,0.23,0.18,0.17,352.52,352.53,0.0,0.0
1630605962.19948292,121028236,0.24,0.22,0.18,0.16,352.52,352.53,0.0,0.0
1630605962.29944301,121128196,0.23,0.21,0.19,0.16,352.52,352.53,0.0,0.0
1630605962.39940310,121228156,0.2,0.2,0.21,0.18,352.52,352.53,0.0,0.0
1630605962.50019598,121328949,0.18,0.17,0.23,0.2,352.52,352.53,0.0,0.0
1630605962.60015607,121428909,0.16,0.15,0.24,0.22,352.52,352.53,0.0,0.0
1630605962.70011592,121528869,0.18,0.15,0.23,0.23,352.52,352.53,0.0,0.0
1630605962.80007601,121628829,0.21,0.17,0.21,0.21,352.52,352.53,0.0,0.0
1630605962.90003610,121728789,0.25,0.22,0.2,0.19,352.52,352.53,0.0,0.0
1630605962.99999595,121828749,0.27,0.25,0.2,0.18,352.52,352.53,0.0,0.0
1630605963.09995604,121928709,0.24,0.25,0.19,0.18,352.52,352.53,0.0,0.0
1630605963.19991612,122028669,0.23,0.24,0.16,0.16,352.52,352.53,0.0,0.0
1630605963.29987597,122128629,0.2,0.21,0.14,0.14,352.52,352.53,0.0,0.0
1630605963.39983606,122228589,0.16,0.17,0.12,0.11,352.52,352.53,0.0,0.0
1630605963.49979591,122328549,0.15,0.13,0.11,0.09,352.52,352.53,0.0,0.0
1630605963.59975600,122428509,0.17,0.13,0.16,0.11,352.52,352.53,0.0,0.0
1630605963.69971609,122528469,0.22,0.16,0.22,0.16,352.52,352.53,0.0,0.0
1630605963.79967594,122628429,0.25,0.21,0.24,0.22,352.52,352.53,0.0,0.0
1630605963.89963603,122728389,0.25,0.25,0.22,0.24,352.52,352.53,0.0,0.0
1630605963.99959612,122828349,0.22,0.25,0.19,0.21,352.52,352.53,0.0,0.0
1630605964.09955597,122928309,0.16,0.2,0.15,0.17,352.52,352.53,0.0,0.0
1630605964.19951606,123028269,0.09,0.12,0.13,0.13,352.52,352.53,0.0,0.0
1630605964.29947591,123128229,0.1,0.08,0.13,0.11,352.52,352.53,0.0,0.0
1630605964.39943600,123228189,0.14,0.08,0.17,0.12,352.52,352.53,0.0,0.0
1630605964.50022912,123328982,0.17,0.12,0.17,0.15,352.52,352.53,0.0,0.0
1630605964.60018897,123428942,0.2,0.16,0.18,0.16,352.52,352.53,0.0,0.0
1630605964.70014906,123528902,0.24,0.21,0.19,0.18,352.52,352.53,0.0,0.0
1630605964.80010891,123628862,0.29,0.27,0.17,0.17,352.52,352.53,0.0,0.0
1630605964.90006900,123728822,0.29,0.31,0.17,0.17,352.52,352.53,0.0,0.0
1630605965.00002909,123828782,0.24,0.28,0.19,0.16,352.52,352.52,0.0,0.0
1630605965.09998894,123928742,0.19,0.23,0.21,0.18,352.52,352.52,0.0,0.0
1630605965.19994903,124028702,0.15,0.18,0.22,0.19,352.52,352.52,0.0,0.0
1630605965.29990911,124128662,0.14,0.14,0.25,0.23,352.52,352.53,0.0,0.0
1630605965.39986897,124228622,0.16,0.13,0.23,0.24,352.52,352.53,0.0,0.0
1630605965.49982905,124328582,0.17,0.14,0.2,0.23,352.52,352.53,0.0,0.0
1630605965.59978890,124428542,0.17,0.14,0.19,0.2,352.52,352.53,0.0,0.0
1630605965.69974899,124528502,0.2,0.17,0.22,0.2,352.52,352.53,0.0,0.0
1630605965.79970908,124628462,0.23,0.2,0.24,0.21,352.52,352.53,0.0,0.0
1630605965.89966893,124728422,0.27,0.25,0.25,0.24,352.52,352.53,0.0,0.0
1630605965.99962902,124828382,0.33,0.3,0.25,0.25,352.52,352.53,0.0,0.0
1630605966.09958911,124928342,0.35,0.34,0.26,0.26,352.52,352.53,0.0,0.0
1630605966.19954896,125028302,0.33,0.36,0.25,0.25,352.52,352.53,0.0,0.0
1630605966.29950905,125128262,0.3,0.34,0.25,0.24,352.52,352.53,0.0,0.0
1630605966.39946890,125228222,0.28,0.31,0.24,0.23,352.52,352.53,0.0,0.0
1630605966.49942899,125328182,0.25,0.27,0.23,0.22,352.52,352.53,0.0,0.0
1630605966.60022211,125428975,0.22,0.22,0.24,0.23,352.52,352.53,0.0,0.0
1630605966.70018196,125528935,0.2,0.18,0.26,0.24,352.52,352.53,0.0,0.0
1630605966.80014205,125628895,0.22,0.17,0.27,0.25,352.52,352.53,0.0,0.0
1630605966.90010190,125728855,0.26,0.21,0.28,0.26,352.52,352.53,0.0,0.0
1630605967.00006199,125828815,0.28,0.25,0.29,0.28,352.52,352.53,0.0,0.0
1630605967.10002208,125928775,0.29,0.28,0.27,0.28,352.52,352.53,0.0,0.0
1630605967.19998193,126028735,0.27,0.28,0.25,0.27,352.52,352.53,0.0,0.0
1630605967.29994202,126128695,0.26,0.26,0.23,0.24,352.52,352.53,0.0,0.0
1630605967.39990211,126228655,0.25,0.25,0.22,0.22,352.52,352.53,0.0,0.0
1630605967.49986196,126328615,0.24,0.23,0.2,0.2,352.52,352.53,0.0,0.0
1630605967.59982204,126428575,0.22,0.21,0.19,0.18,352.52,352.53,0.0,0.0
1630605967.69978189,126528535,0.18,0.18,0.17,0.16,352.52,352.53,0.0,0.0
1630605967.79974198,126628495,0.12,0.13,0.13,0.13,352.52,352.53,0.0,0.0
1630605967.89970207,126728455,0.11,0.1,0.11,0.1,352.52,352.53,0.0,0.0
1630605967.99966192,126828415,0.14,0.1,0.12,0.09,352.52,352.53,0.0,0.0
1630605968.09962201,126928375,0.16,0.12,0.13,0.1,352.52,352.53,0.0,0.0
1630605968.19958210,127028335,0.18,0.14,0.13,0.11,352.52,352.53,0.0,0.0
1630605968.29954195,127128295,0.17,0.15,0.11,0.12,352.52,352.53,0.0,0.0
1630605968.39950204,127228255,0.14,0.13,0.09,0.09,352.52,352.53,0.0,0.0
1630605968.49946189,127328215,0.11,0.11,0.09,0.07,352.52,352.53,0.0,0.0
1630605968.59942198,127428175,0.12,0.09,0.13,0.08,352.52,352.53,0.0,0.0
1630605968.70021510,127528968,0.14,0.11,0.18,0.13,352.52,352.53,0.0,0.0
1630605968.80017495,127628928,0.13,0.12,0.21,0.18,352.52,352.54,0.0,0.0
1630605968.90013504,127728888,0.12,0.13,0.21,0.22,352.52,352.54,0.0,0.0
1630605969.00009489,127828848,0.11,0.13,0.17,0.2,352.52,352.54,0.0,0.0
1630605969.10005498,127928808,0.11,0.12,0.14,0.16,352.52,352.54,0.0,0.0
1630605969.20001507,128028768,0.12,0.11,0.15,0.13,352.52,352.54,0.0,0.0
1630605969.29997492,128128728,0.14,0.11,0.16,0.14,352.52,352.53,0.0,0.0
1630605969.39993501,128228688,0.14,0.12,0.15,0.14,352.52,352.53,0.0,0.0
1630605969.49989510,128328648,0.13,0.12,0.17,0.15,352.52,352.53,0.0,0.0
1630605969.59985495,128428608,0.14,0.11,0.18,0.16,352.52,352.53,0.0,0.0
1630605969.69981503,128528568,0.18,0.14,0.2,0.17,352.52,352.53,0.0,0.0
1630605969.79977512,128628528,0.19,0.16,0.23,0.21,352.52,352.53,0.0,0.0
1630605969.89973497,128728488,0.22,0.2,0.27,0.24,352.52,352.53,0.0,0.0
1630605969.99969506,128828448,0.27,0.24,0.31,0.28,352.52,352.53,0.0,0.0
1630605970.09965491,128928408,0.29,0.28,0.3,0.3,352.52,352.53,0.0,0.0
1630605970.19961500,129028368,0.26,0.28,0.31,0.3,352.52,352.53,0.0,0.0
1630605970.29957509,129128328,0.22,0.25,0.29,0.3,352.52,352.53,0.0,0.0
1630605970.39953494,129228288,0.21,0.21,0.28,0.28,352.52,352.53,0.0,0.0
1630605970.49949503,129328248,0.2,0.19,0.3,0.28,352.52,352.53,0.0,0.0
1630605970.59945512,129428208,0.19,0.18,0.31,0.29,352.52,352.53,0.0,0.0
1630605970.69941497,129528168,0.19,0.18,0.27,0.27,352.52,352.53,0.0,0.0
1630605970.80020809,129628961,0.21,0.17,0.25,0.24,352.52,352.53,0.0,0.0
1630605970.90016794,129728921,0.23,0.2,0.23,0.22,352.52,352.53,0.0,0.0
1630605971.00012803,129828881,0.23,0.23,0.23,0.2,352.52,352.53,0.0,0.0
1630605971.10008812,129928841,0.19,0.22,0.23,0.2,352.52,352.53,0.0,0.0
1630605971.20004797,130028801,0.15,0.17,0.23,0.2,352.52,352.53,0.0,0.0
1630605971.30000806,130128761,0.17,0.14,0.25,0.21,352.52,352.53,0.0,0.0
1630605971.39996791,130228721,0.2,0.15,0.26,0.23,352.52,352.53,0.0,0.0
1630605971.49992800,130328681,0.21,0.17,0.26,0.25,352.52,352.53,0.0,0.0
1630605971.59988809,130428641,0.22,0.19,0.25,0.25,352.52,352.53,0.0,0.0
1630605971.69984794,130528601,0.23,0.21,0.24,0.25,352.52,352.53,0.0,0.0
1630605971.79980803,130628561,0.21,0.21,0.21,0.22,352.52,352.53,0.0,0.0
1630605971.89976811,130728521,0.18,0.19,0.2,0.19,352.52,352.52,0.0,0.0
1630605971.99972796,130828481,0.16,0.15,0.2,0.18,352.52,352.52,0.0,0.0
1630605972.09968805,130928441,0.16,0.13,0.21,0.18,352.52,352.52,0.0,0.0
1630605972.19964790,131028401,0.18,0.13,0.23,0.19,352.52,352.52,0.0,0.0
1630605972.29960799,131128361,0.19,0.15,0.25,0.22,352.52,352.52,0.0,0.0
1630605972.39956808,131228321,0.19,0.17,0.26,0.25,352.52,352.52,0.0,0.0
1630605972.49952793,131328281,0.17,0.18,0.25,0.27,352.52,352.52,0.0,0.0
1630605972.59948802,131428241,0.12,0.15,0.23,0.25,352.52,352.52,0.0,0.0
1630605972.69944811,131528201,0.12,0.12,0.23,0.23,352.52,352.52,0.0,0.0
1630605972.79940796,131628161,0.16,0.12,0.24,0.24,352.52,352.53,0.0,0.0
1630605972.90020108,131728954,0.18,0.15,0.25,0.25,352.52,352.53,0.0,0.0
1630605973.00016093,131828914,0.21,0.18,0.25,0.26,352.52,352.53,0.0,0.0
1630605973.10012102,131928874,0.22,0.2,0.26,0.27,352.52,352.53,0.0,0.0
1630605973.20008111,132028834,0.23,0.22,0.25,0.26,352.52,352.53,0.0,0.0
1630605973.30004096,132128794,0.22,0.22,0.26,0.26,352.52,352.53,0.0,0.0
1630605973.40000105,132228754,0.2,0.21,0.28,0.27,352.52,352.53,0.0,0.0
1630605973.49996090,132328714,0.22,0.21,0.3,0.29,352.52,352.53,0.0,0.0
1630605973.59992099,132428674,0.21,0.2,0.33,0.31,352.52,352.52,0.0,0.0
1630605973.69988108,132528634,0.25,0.22,0.32,0.32,352.52,352.52,0.0,0.0
1630605973.79984093,132628594,0.27,0.25,0.29,0.3,352.52,352.52,0.0,0.0
1630605973.89980102,132728554,0.25,0.25,0.24,0.26,352.52,352.52,0.0,0.0
1630605973.99976110,132828514,0.23,0.23,0.2,0.2,352.52,352.52,0.0,0.0
1630605974.09972095,132928474,0.24,0.24,0.19,0.17,352.52,352.52,0.0,0.0
1630605974.19968104,133028434,0.23,0.23,0.18,0.14,352.52,352.52,0.0,0.0
1630605974.29964089,133128394,0.24,0.23,0.2,0.15,352.52,352.52,0.0,0.0
1630605974.39960098,133228354,0.25,0.24,0.23,0.18,352.52,352.52,0.0,0.0
1630605974.49956107,133328314,0.24,0.23,0.24,0.22,352.52,352.52,0.0,0.0
1630605974.59952092,133428274,0.21,0.21,0.25,0.23,352.52,352.52,0.0,0.0
1630605974.69948101,133528234,0.18,0.18,0.26,0.25,352.52,352.52,0.0,0.0
1630605974.79944110,133628194,0.19,0.17,0.25,0.24,352.52,352.52,0.0,0.0
1630605974.89940095,133728154,0.23,0.19,0.23,0.23,352.52,352.52,0.0,0.0
1630605975.00019407,133828947,0.26,0.23,0.23,0.21,352.52,352.53,0.0,0.0
1630605975.10015392,133928907,0.26,0.26,0.25,0.21,352.52,352.53,0.0,0.0
1630605975.20011401,134028867,0.25,0.25,0.22,0.21,352.52,352.53,0.0,0.0
1630605975.30007410,134128827,0.26,0.25,0.2,0.19,352.52,352.53,0.0,0.0
1630605975.40003395,134228787,0.27,0.26,0.19,0.17,352.52,352.52,0.0,0.0
1630605975.49999404,134328747,0.27,0.26,0.21,0.18,352.52,352.52,0.0,0.0
1630605975.59995389,134428707,0.27,0.26,0.22,0.19,352.52,352.52,0.0,0.0
1630605975.69991398,134528667,0.28,0.27,0.19,0.2,352.52,352.53,0.0,0.0
1630605975.79987407,134628627,0.3,0.28,0.15,0.17,352.52,352.53,0.0,0.0
1630605975.89983392,134728587,0.3,0.29,0.13,0.13,352.52,352.53,0.0,0.0
1630605975.99979401,134828547,0.3,0.28,0.15,0.11,352.52,352.53,0.0,0.0
1630605976.09975410,134928507,0.26,0.27,0.18,0.13,352.52,352.53,0.0,0.0
1630605976.19971395,135028467,0.22,0.22,0.2,0.16,352.52,352.53,0.0,0.0
1630605976.29967403,135128427,0.2,0.18,0.2,0.19,352.52,352.53,0.0,0.0
1630605976.39963412,135228387,0.2,0.15,0.21,0.21,352.52,352.53,0.0,0.0
1630605976.49959397,135328347,0.21,0.17,0.22,0.23,352.52,352.53,0.0,0.0
1630605976.59955406,135428307,0.19,0.16,0.19,0.21,352.52,352.53,0.0,0.0
1630605976.69951391,135528267,0.16,0.15,0.16,0.17,352.52,352.53,0.0,0.0
1630605976.79947400,135628227,0.15,0.14,0.14,0.14,352.52,352.53,0.0,0.0
1630605976.89943409,135728187,0.16,0.13,0.12,0.11,352.52,352.53,0.0,0.0
1630605977.00022697,135828980,0.17,0.14,0.12,0.09,352.52,352.53,0.0,0.0
1630605977.10018706,135928940,0.19,0.16,0.15,0.11,352.52,352.53,0.0,0.0
1630605977.20014691,136028900,0.21,0.19,0.17,0.14,352.52,352.53,0.0,0.0
1630605977.30010700,136128860,0.21,0.22,0.2,0.17,352.52,352.53,0.0,0.0
1630605977.40006709,136228820,0.19,0.21,0.21,0.19,352.52,352.52,0.0,0.0
1630605977.50002694,136328780,0.15,0.17,0.21,0.2,352.52,352.52,0.0,0.0
1630605977.59998703,136428740,0.11,0.13,0.21,0.21,352.52,352.52,0.0,0.0
1630605977.69994712,136528700,0.11,0.09,0.21,0.21,352.52,352.52,0.0,0.0
1630605977.79990697,136628660,0.15,0.1,0.2,0.2,352.52,352.52,0.0,0.0
1630605977.89986706,136728620,0.18,0.14,0.16,0.17,352.52,352.52,0.0,0.0
1630605977.99982691,136828580,0.19,0.17,0.15,0.13,352.52,352.52,0.0,0.0
1630605978.09978700,136928540,0.2,0.19,0.16,0.13,352.52,352.52,0.0,0.0
1630605978.19974709,137028500,0.2,0.2,0.16,0.13,352.52,352.52,0.0,0.0
1630605978.29970694,137128460,0.18,0.18,0.17,0.15,352.52,352.52,0.0,0.0
1630605978.39966702,137228420,0.18,0.17,0.17,0.17,352.52,352.52,0.0,0.0
1630605978.49962711,137328380,0.21,0.19,0.19,0.18,352.52,352.52,0.0,0.0
1630605978.59958696,137428340,0.21,0.2,0.26,0.22,352.52,352.52,0.0,0.0
1630605978.69954705,137528300,0.21,0.2,0.28,0.28,352.52,352.52,0.0,0.0
1630605978.79950690,137628260,0.22,0.2,0.27,0.28,352.52,352.52,0.0,0.0
1630605978.89946699,137728220,0.21,0.21,0.24,0.26,352.52,352.52,0.0,0.0
1630605978.99942708,137828180,0.2,0.2,0.23,0.23,352.52,352.52,0.0,0.0
1630605979.10021996,137928973,0.2,0.2,0.22,0.21,352.52,352.52,0.0,0.0
1630605979.20018005,138028933,0.18,0.18,0.23,0.2,352.52,352.52,0.0,0.0
1630605979.30013990,138128893,0.16,0.15,0.27,0.23,352.52,352.52,0.0,0.0
1630605979.40009999,138228853,0.15,0.14,0.28,0.26,352.52,352.52,0.0,0.0
1630605979.50006008,138328813,0.15,0.13,0.24,0.25,352.52,352.52,0.0,0.0
1630605979.60001993,138428773,0.18,0.14,0.23,0.23,352.52,352.52,0.0,0.0
1630605979.69998002,138528733,0.22,0.18,0.24,0.23,352.52,352.52,0.0,0.0
1630605979.79994011,138628693,0.24,0.22,0.24,0.23,352.52,352.51,0.0,0.0
1630605979.89989996,138728653,0.26,0.25,0.26,0.24,352.52,352.51,0.0,0.0
1630605979.99986005,138828613,0.26,0.26,0.29,0.26,352.52,352.51,0.0,0.0
1630605980.09981990,138928573,0.25,0.26,0.3,0.28,352.52,352.52,0.0,0.0
1630605980.19977999,139028533,0.24,0.24,0.29,0.28,352.52,352.52,0.0,0.0
1630605980.29974008,139128493,0.25,0.24,0.26,0.26,352.52,352.52,0.0,0.0
1630605980.39969993,139228453,0.27,0.25,0.24,0.22,352.52,352.52,0.0,0.0
1630605980.49966002,139328413,0.26,0.25,0.22,0.21,352.52,352.52,0.0,0.0
1630605980.59962010,139428373,0.23,0.23,0.21,0.19,352.52,352.52,0.0,0.0
1630605980.69957995,139528333,0.19,0.2,0.21,0.19,352.52,352.52,0.0,0.0
1630605980.79954004,139628293,0.18,0.16,0.25,0.21,352.52,352.52,0.0,0.0
1630605980.89949989,139728253,0.21,0.17,0.28,0.25,352.52,352.52,0.0,0.0
1630605980.99945998,139828213,0.26,0.21,0.3,0.28,352.52,352.52,0.0,0.0
1630605981.09942007,139928173,0.28,0.26,0.29,0.3,352.52,352.52,0.0,0.0
1630605981.20021296,140028966,0.26,0.27,0.29,0.29,352.52,352.52,0.0,0.0
1630605981.30017304,140128926,0.2,0.24,0.29,0.28,352.52,352.52,0.0,0.0
1630605981.40013289,140228886,0.14,0.18,0.29,0.27,352.52,352.52,0.0,0.0
1630605981.50009298,140328846,0.13,0.13,0.27,0.26,352.52,352.52,0.0,0.0
1630605981.60005307,140428806,0.14,0.11,0.24,0.24,352.52,352.52,0.0,0.0
1630605981.70001292,140528766,0.15,0.11,0.23,0.21,352.52,352.53,0.0,0.0
1630605981.79997301,140628726,0.18,0.12,0.24,0.2,352.52,352.53,0.0,0.0
1630605981.89993310,140728686,0.21,0.16,0.24,0.21,352.52,352.53,0.0,0.0
1630605981.99989295,140828646,0.22,0.19,0.24,0.22,352.52,352.53,0.0,0.0
1630605982.09985304,140928606,0.23,0.22,0.24,0.23,352.52,352.53,0.0,0.0
1630605982.19981289,141028566,0.23,0.22,0.24,0.23,352.52,352.53,0.0,0.0
1630605982.29977298,141128526,0.22,0.23,0.25,0.24,352.52,352.53,0.0,0.0
1630605982.39973307,141228486,0.19,0.2,0.26,0.25,352.52,352.52,0.0,0.0
1630605982.49969292,141328446,0.2,0.19,0.29,0.28,352.52,352.52,0.0,0.0
1630605982.59965301,141428406,0.19,0.18,0.3,0.3,352.52,352.52,0.0,0.0
1630605982.69961309,141528366,0.18,0.17,0.28,0.3,352.52,352.52,0.0,0.0
1630605982.79957294,141628326,0.16,0.16,0.24,0.26,352.52,352.52,0.0,0.0
1630605982.89953303,141728286,0.15,0.14,0.22,0.22,352.52,352.52,0.0,0.0
1630605982.99949312,141828246,0.15,0.12,0.22,0.2,352.52,352.52,0.0,0.0
1630605983.09945297,141928206,0.17,0.13,0.23,0.2,352.52,352.52,0.0,0.0
1630605983.19941306,142028166,0.2,0.16,0.23,0.2,352.52,352.52,0.0,0.0
1630605983.30020595,142128959,0.23,0.2,0.22,0.21,352.52,352.52,0.0,0.0
1630605983.40016603,142228919,0.25,0.23,0.21,0.2,352.52,352.52,0.0,0.0
1630605983.50012612,142328879,0.27,0.26,0.21,0.2,352.52,352.52,0.0,0.0
1630605983.60008597,142428839,0.27,0.27,0.2,0.19,352.52,352.52,0.0,0.0
1630605983.70004606,142528799,0.28,0.27,0.21,0.2,352.52,352.52,0.0,0.0
1630605983.80000591,142628759,0.29,0.28,0.23,0.21,352.52,352.52,0.0,0.0
1630605983.89996600,142728719,0.3,0.29,0.22,0.22,352.52,352.52,0.0,0.0
1630605983.99992609,142828679,0.31,0.29,0.24,0.22,352.52,352.52,0.0,0.0
1630605984.09988594,142928639,0.34,0.32,0.26,0.24,352.52,352.52,0.0,0.0
1630605984.19984603,143028599,0.35,0.34,0.27,0.25,352.52,352.52,0.0,0.0
1630605984.29980612,143128559,0.32,0.33,0.28,0.27,352.52,352.52,0.0,0.0
1630605984.39976597,143228519,0.28,0.3,0.3,0.28,352.52,352.52,0.0,0.0
1630605984.49972606,143328479,0.24,0.25,0.31,0.3,352.52,352.52,0.0,0.0
1630605984.59968591,143428439,0.24,0.22,0.3,0.29,352.52,352.52,0.0,0.0
1630605984.69964600,143528399,0.24,0.22,0.3,0.29,352.52,352.52,0.0,0.0
1630605984.79960608,143628359,0.25,0.22,0.3,0.29,352.52,352.52,0.0,0.0
1630605984.89956594,143728319,0.26,0.23,0.31,0.29,352.52,352.52,0.0,0.0
1630605984.99952602,143828279,0.24,0.23,0.31,0.3,352.52,352.52,0.0,0.0
1630605985.09948611,143928239,0.2,0.2,0.31,0.3,352.52,352.52,0.0,0.0
1630605985.19944596,144028199,0.17,0.16,0.3,0.29,352.52,352.52,0.0,0.0
1630605985.29940605,144128159,0.14,0.12,0.3,0.29,352.52,352.52,0.0,0.0
1630605985.40019894,144228952,0.14,0.1,0.29,0.28,352.52,352.52,0.0,0.0
1630605985.50015903,144328912,0.14,0.1,0.28,0.28,352.52,352.52,0.0,0.0
1630605985.60011911,144428872,0.16,0.13,0.28,0.26,352.52,352.52,0.0,0.0
1630605985.70007896,144528832,0.2,0.17,0.29,0.27,352.52,352.52,0.0,0.0
1630605985.80003905,144628792,0.2,0.2,0.33,0.29,352.52,352.52,0.0,0.0
1630605985.89999890,144728752,0.2,0.22,0.34,0.32,352.52,352.52,0.0,0.0
1630605985.99995899,144828712,0.2,0.21,0.31,0.32,352.52,352.52,0.0,0.0
1630605986.09991908,144928672,0.21,0.21,0.28,0.3,352.52,352.52,0.0,0.0
1630605986.19987893,145028632,0.21,0.2,0.29,0.28,352.52,352.52,0.0,0.0
1630605986.29983902,145128592,0.2,0.19,0.29,0.28,352.52,352.52,0.0,0.0
1630605986.39979911,145228552,0.2,0.18,0.26,0.27,352.52,352.53,0.0,0.0
1630605986.49975896,145328512,0.2,0.18,0.23,0.25,352.52,352.53,0.0,0.0
1630605986.59971905,145428472,0.2,0.18,0.19,0.2,352.52,352.53,0.0,0.0
1630605986.69967890,145528432,0.19,0.17,0.18,0.16,352.52,352.52,0.0,0.0
1630605986.79963899,145628392,0.18,0.16,0.2,0.16,352.52,352.52,0.0,0.0
1630605986.89959908,145728352,0.19,0.16,0.25,0.2,352.52,352.52,0.0,0.0
1630605986.99955893,145828312,0.2,0.17,0.27,0.24,352.52,352.51,0.0,0.0
1630605987.09951901,145928272,0.22,0.19,0.26,0.26,352.52,352.51,0.0,0.0
1630605987.19947910,146028232,0.24,0.21,0.24,0.25,352.52,352.51,0.0,0.0
1630605987.29943895,146128192,0.27,0.24,0.2,0.21,352.52,352.51,0.0,0.0
1630605987.40023208,146228985,0.27,0.26,0.18,0.17,352.52,352.52,0.0,0.0
1630605987.50019193,146328945,0.27,0.26,0.17,0.16,352.52,352.52,0.0,0.0
1630605987.60015202,146428905,0.26,0.24,0.17,0.14,352.52,352.52,0.0,0.0
1630605987.70011210,146528865,0.26,0.24,0.21,0.17,352.52,352.52,0.0,0.0
1630605987.80007195,146628825,0.25,0.23,0.27,0.22,352.52,352.52,0.0,0.0
1630605987.90003204,146728785,0.26,0.24,0.28,0.27,352.52,352.52,0.0,0.0
1630605987.99999189,146828745,0.28,0.25,0.26,0.28,352.52,352.52,0.0,0.0
1630605988.09995198,146928705,0.31,0.28,0.21,0.25,352.52,352.53,0.0,0.0
1630605988.19991207,147028665,0.34,0.31,0.18,0.2,352.52,352.53,0.0,0.0
1630605988.29987192,147128625,0.33,0.34,0.17,0.15,352.52,352.53,0.0,0.0
1630605988.39983201,147228585,0.31,0.32,0.2,0.15,352.52,352.53,0.0,0.0
1630605988.49979210,147328545,0.28,0.3,0.22,0.17,352.52,352.53,0.0,0.0
1630605988.59975195,147428505,0.27,0.27,0.21,0.18,352.52,352.53,0.0,0.0
1630605988.69971204,147528465,0.26,0.25,0.22,0.19,352.52,352.53,0.0,0.0
1630605988.79967189,147628425,0.25,0.23,0.24,0.21,352.52,352.53,0.0,0.0
1630605988.89963198,147728385,0.28,0.25,0.24,0.22,352.52,352.53,0.0,0.0
1630605988.99959207,147828345,0.31,0.28,0.21,0.21,352.52,352.52,0.0,0.0
1630605989.09955192,147928305,0.32,0.31,0.18,0.18,352.52,352.52,0.0,0.0
1630605989.19951200,148028265,0.32,0.32,0.17,0.16,352.52,352.51,0.0,0.0
1630605989.29947209,148128225,0.3,0.31,0.19,0.16,352.52,352.51,0.0,0.0
1630605989.39943194,148228185,0.28,0.28,0.23,0.2,352.52,352.51,0.0,0.0
1630605989.50022507,148328978,0.26,0.25,0.26,0.23,352.52,352.51,0.0,0.0
1630605989.60018492,148428938,0.25,0.23,0.29,0.27,352.52,352.52,0.0,0.0
1630605989.70014501,148528898,0.24,0.22,0.3,0.3,352.52,352.52,0.0,0.0
1630605989.80010509,148628858,0.23,0.21,0.29,0.31,352.52,352.52,0.0,0.0
1630605989.90006495,148728818,0.22,0.2,0.27,0.29,352.52,352.52,0.0,0.0
1630605990.00002503,148828778,0.22,0.2,0.25,0.25,352.52,352.53,0.0,0.0
1630605990.09998512,148928738,0.24,0.22,0.25,0.24,352.52,352.52,0.0,0.0
1630605990.19994497,149028698,0.27,0.24,0.25,0.23,352.52,352.52,0.0,0.0
1630605990.29990506,149128658,0.3,0.28,0.26,0.24,352.52,352.52,0.0,0.0
1630605990.39986491,149228618,0.31,0.32,0.27,0.25,352.52,352.52,0.0,0.0
1630605990.49982500,149328578,0.33,0.34,0.28,0.26,352.52,352.52,0.0,0.0
1630605990.59978509,149428538,0.31,0.32,0.27,0.25,352.52,352.52,0.0,0.0
1630605990.69974494,149528498,0.27,0.28,0.26,0.24,352.52,352.52,0.0,0.0
1630605990.79970503,149628458,0.22,0.23,0.25,0.23,352.52,352.52,0.0,0.0
1630605990.89966512,149728418,0.21,0.2,0.23,0.22,352.52,352.52,0.0,0.0
1630605990.99962497,149828378,0.21,0.18,0.24,0.2,352.52,352.52,0.0,0.0
1630605991.09958506,149928338,0.21,0.17,0.27,0.22,352.52,352.52,0.0,0.0
1630605991.19954491,150028298,0.21,0.17,0.31,0.26,352.52,352.52,0.0,0.0
1630605991.29950500,150128258,0.21,0.19,0.31,0.3,352.52,352.52,0.0,0.0
1630605991.39946508,150228218,0.21,0.2,0.27,0.29,352.52,352.52,0.0,0.0
1630605991.49942493,150328178,0.22,0.21,0.25,0.26,352.52,352.52,0.0,0.0
1630605991.60021806,150428971,0.2,0.2,0.22,0.22,352.52,352.52,0.0,0.0
1630605991.70017791,150528931,0.19,0.19,0.2,0.19,352.52,352.52,0.0,0.0
1630605991.80013800,150628891,0.2,0.17,0.21,0.17,352.52,352.52,0.0,0.0
1630605991.90009809,150728851,0.2,0.18,0.23,0.19,352.52,352.52,0.0,0.0
1630605992.00005794,150828811,0.19,0.17,0.26,0.22,352.52,352.52,0.0,0.0
1630605992.10001802,150928771,0.17,0.16,0.3,0.27,352.52,352.52,0.0,0.0
1630605992.19997811,151028731,0.14,0.13,0.32,0.31,352.52,352.51,0.0,0.0
1630605992.29993796,151128691,0.13,0.11,0.31,0.32,352.52,352.51,0.0,0.0
1630605992.39989805,151228651,0.16,0.11,0.29,0.31,352.52,352.52,0.0,0.0
1630605992.49985790,151328611,0.18,0.14,0.25,0.28,352.52,352.52,0.0,0.0
1630605992.59981799,151428571,0.2,0.17,0.23,0.25,352.52,352.52,0.0,0.0
1630605992.69977808,151528531,0.23,0.21,0.22,0.22,352.52,352.52,0.0,0.0
1630605992.79973793,151628491,0.27,0.25,0.23,0.2,352.52,352.52,0.0,0.0
1630605992.89969802,151728451,0.32,0.29,0.25,0.22,352.52,352.52,0.0,0.0
1630605992.99965811,151828411,0.32,0.31,0.27,0.24,352.52,352.52,0.0,0.0
1630605993.09961796,151928371,0.31,0.32,0.27,0.26,352.52,352.52,0.0,0.0
1630605993.19957805,152028331,0.3,0.31,0.27,0.27,352.52,352.52,0.0,0.0
1630605993.29953790,152128291,0.28,0.29,0.26,0.26,352.52,352.52,0.0,0.0
1630605993.39949799,152228251,0.24,0.25,0.26,0.24,352.52,352.52,0.0,0.0
1630605993.49945807,152328211,0.23,0.23,0.25,0.23,352.52,352.52,0.0,0.0
1630605993.59941792,152428171,0.22,0.2,0.23,0.21,352.52,352.52,0.0,0.0
1630605993.70021105,152528964,0.22,0.2,0.25,0.21,352.52,352.52,0.0,0.0
1630605993.80017090,152628924,0.21,0.2,0.27,0.22,352.52,352.52,0.0,0.0
1630605993.90013099,152728884,0.22,0.2,0.27,0.24,352.52,352.52,0.0,0.0
1630605994.00009108,152828844,0.23,0.21,0.25,0.25,352.52,352.52,0.0,0.0
1630605994.10005093,152928804,0.24,0.22,0.24,0.24,352.52,352.52,0.0,0.0
1630605994.20001101,153028764,0.25,0.23,0.25,0.24,352.52,352.52,0.0,0.0
1630605994.29997110,153128724,0.25,0.24,0.26,0.25,352.52,352.52,0.0,0.0
1630605994.39993095,153228684,0.25,0.23,0.28,0.26,352.52,352.52,0.0,0.0
1630605994.49989104,153328644,0.24,0.23,0.3,0.29,352.52,352.52,0.0,0.0
1630605994.59985089,153428604,0.25,0.23,0.3,0.3,352.52,352.52,0.0,0.0
1630605994.69981098,153528564,0.27,0.24,0.28,0.29,352.52,352.52,0.0,0.0
1630605994.79977107,153628524,0.29,0.26,0.27,0.27,352.52,352.52,0.0,0.0
1630605994.89973092,153728484,0.29,0.28,0.24,0.25,352.52,352.52,0.0,0.0
1630605994.99969101,153828444,0.27,0.27,0.22,0.22,352.52,352.52,0.0,0.0
1630605995.09965110,153928404,0.25,0.25,0.18,0.18,352.52,352.52,0.0,0.0
1630605995.19961095,154028364,0.28,0.25,0.16,0.14,352.52,352.53,0.0,0.0
1630605995.29957104,154128324,0.3,0.27,0.18,0.13,352.52,352.53,0.0,0.0
1630605995.39953089,154228284,0.3,0.27,0.21,0.16,352.52,352.53,0.0,0.0
1630605995.49949098,154328244,0.29,0.28,0.23,0.21,352.52,352.53,0.0,0.0
1630605995.59945107,154428204,0.27,0.28,0.22,0.22,352.52,352.52,0.0,0.0
1630605995.69941092,154528164,0.24,0.25,0.21,0.21,352.52,352.52,0.0,0.0
1630605995.80020404,154628957,0.23,0.22,0.21,0.21,352.52,352.52,0.0,0.0
1630605995.90016389,154728917,0.23,0.21,0.21,0.2,352.52,352.51,0.0,0.0
1630605996.00012398,154828877,0.23,0.2,0.21,0.19,352.52,352.51,0.0,0.0
1630605996.10008407,154928837,0.23,0.2,0.19,0.19,352.52,352.51,0.0,0.0
1630605996.20004392,155028797,0.25,0.2,0.18,0.18,352.52,352.52,0.0,0.0
1630605996.30000401,155128757,0.28,0.24,0.17,0.16,352.52,352.52,0.0,0.0
1630605996.39996409,155228717,0.28,0.27,0.18,0.16,352.52,352.52,0.0,0.0
1630605996.49992394,155328677,0.28,0.27,0.21,0.18,352.52,352.52,0.0,0.0
1630605996.59988403,155428637,0.27,0.26,0.23,0.2,352.52,352.52,0.0,0.0
1630605996.69984412,155528597,0.25,0.25,0.24,0.22,352.52,352.52,0.0,0.0
1630605996.79980397,155628557,0.25,0.24,0.24,0.23,352.52,352.52,0.0,0.0
1630605996.89976406,155728517,0.23,0.24,0.23,0.24,352.52,352.52,0.0,0.0
1630605996.99972391,155828477,0.22,0.23,0.21,0.23,352.52,352.52,0.0,0.0
1630605997.09968400,155928437,0.23,0.22,0.19,0.21,352.52,352.52,0.0,0.0
1630605997.19964409,156028397,0.23,0.22,0.21,0.2,352.52,352.52,0.0,0.0
1630605997.29960394,156128357,0.23,0.22,0.25,0.21,352.52,352.52,0.0,0.0
1630605997.39956403,156228317,0.21,0.21,0.27,0.24,352.52,352.52,0.0,0.0
1630605997.49952412,156328277,0.2,0.19,0.27,0.26,352.52,352.52,0.0,0.0
1630605997.59948397,156428237,0.21,0.18,0.27,0.27,352.52,352.51,0.0,0.0
1630605997.69944406,156528197,0.24,0.2,0.28,0.27,352.52,352.51,0.0,0.0
1630605997.79940391,156628157,0.26,0.22,0.27,0.27,352.52,352.51,0.0,0.0
1630605997.90019703,156728950,0.27,0.25,0.25,0.25,352.52,352.51,0.0,0.0
1630605998.00015712,156828910,0.27,0.25,0.23,0.22,352.52,352.52,0.0,0.0
1630605998.10011697,156928870,0.24,0.23,0.23,0.2,352.52,352.52,0.0,0.0
1630605998.20007706,157028830,0.23,0.21,0.24,0.21,352.52,352.52,0.0,0.0
1630605998.30003691,157128790,0.24,0.21,0.26,0.23,352.52,352.52,0.0,0.0
1630605998.39999700,157228750,0.24,0.22,0.27,0.25,352.52,352.53,0.0,0.0
1630605998.49995708,157328710,0.24,0.23,0.27,0.26,352.52,352.52,0.0,0.0
1630605998.59991693,157428670,0.25,0.24,0.28,0.26,352.52,352.52,0.0,0.0
1630605998.69987702,157528630,0.29,0.26,0.29,0.27,352.52,352.52,0.0,0.0
1630605998.79983711,157628590,0.3,0.29,0.28,0.28,352.52,352.52,0.0,0.0
1630605998.89979696,157728550,0.33,0.31,0.28,0.28,352.52,352.52,0.0,0.0
1630605998.99975705,157828510,0.35,0.34,0.27,0.26,352.52,352.52,0.0,0.0
1630605999.09971690,157928470,0.34,0.35,0.22,0.23,352.52,352.52,0.0,0.0
1630605999.19967699,158028430,0.33,0.33,0.21,0.19,352.52,352.52,0.0,0.0
1630605999.29963708,158128390,0.33,0.32,0.24,0.19,352.52,352.52,0.0,0.0
1630605999.39959693,158228350,0.34,0.32,0.3,0.24,352.52,352.52,0.0,0.0
1630605999.49955702,158328310,0.34,0.33,0.32,0.29,352.52,352.52,0.0,0.0
1630605999.59951711,158428270,0.33,0.32,0.32,0.31,352.52,352.52,0.0,0.0
1630605999.69947696,158528230,0.31,0.3,0.3,0.29,352.52,352.52,0.0,0.0
1630605999.79943705,158628190,0.3,0.28,0.29,0.27,352.52,352.52,0.0,0.0
1630605999.90022993,158728983,0.3,0.27,0.28,0.26,352.52,352.52,0.0,0.0
1630606000.00019002,158828943,0.32,0.29,0.27,0.25,352.52,352.52,0.0,0.0
1630606000.10015011,158928903,0.29,0.29,0.27,0.25,352.52,352.52,0.0,0.0
1630606000.20010996,159028863,0.27,0.26,0.25,0.23,352.52,352.52,0.0,0.0
1630606000.30007005,159128823,0.25,0.25,0.23,0.21,352.52,352.52,0.0,0.0
1630606000.40002990,159228783,0.22,0.22,0.23,0.2,352.52,352.52,0.0,0.0
1630606000.49998999,159328743,0.24,0.21,0.24,0.21,352.52,352.52,0.0,0.0
1630606000.59995008,159428703,0.29,0.25,0.25,0.22,352.52,352.52,0.0,0.0
1630606000.69990993,159528663,0.33,0.3,0.3,0.26,352.52,352.52,0.0,0.0
1630606000.79987001,159628623,0.31,0.32,0.35,0.32,352.52,352.52,0.0,0.0
1630606000.89983010,159728583,0.3,0.3,0.36,0.36,352.52,352.52,0.0,0.0
1630606000.99978995,159828543,0.27,0.27,0.32,0.35,352.52,352.51,0.0,0.0
1630606001.09975004,159928503,0.26,0.25,0.3,0.32,352.52,352.51,0.0,0.0
1630606001.19970989,160028463,0.25,0.23,0.29,0.3,352.52,352.51,0.0,0.0
1630606001.29966998,160128423,0.22,0.2,0.28,0.28,352.52,352.51,0.0,0.0
1630606001.39963007,160228383,0.18,0.16,0.26,0.25,352.52,352.51,0.0,0.0
1630606001.49958992,160328343,0.19,0.15,0.26,0.24,352.52,352.51,0.0,0.0
1630606001.59955001,160428303,0.22,0.16,0.25,0.23,352.52,352.51,0.0,0.0
1630606001.69951010,160528263,0.23,0.19,0.27,0.23,352.52,352.51,0.0,0.0
1630606001.79946995,160628223,0.23,0.21,0.3,0.26,352.52,352.52,0.0,0.0
1630606001.89943004,160728183,0.2,0.2,0.3,0.29,352.52,352.52,0.0,0.0
1630606002.00022292,160828976,0.18,0.17,0.28,0.28,352.52,352.52,0.0,0.0
1630606002.10018301,160928936,0.19,0.17,0.25,0.25,352.52,352.52,0.0,0.0
1630606002.20014310,161028896,0.21,0.19,0.25,0.23,352.52,352.52,0.0,0.0
1630606002.30010295,161128856,0.26,0.22,0.26,0.24,352.52,352.52,0.0,0.0
1630606002.40006304,161228816,0.28,0.26,0.29,0.25,352.52,352.52,0.0,0.0
1630606002.50002289,161328776,0.28,0.28,0.28,0.27,352.52,352.52,0.0,0.0
1630606002.59998298,161428736,0.26,0.27,0.28,0.26,352.52,352.52,0.0,0.0
1630606002.69994307,161528696,0.22,0.23,0.29,0.27,352.52,352.52,0.0,0.0
1630606002.79990292,161628656,0.18,0.18,0.29,0.28,352.52,352.52,0.0,0.0
1630606002.89986300,161728616,0.19,0.16,0.27,0.27,352.52,352.52,0.0,0.0
1630606002.99982309,161828576,0.25,0.19,0.27,0.25,352.52,352.52,0.0,0.0
1630606003.09978294,161928536,0.29,0.25,0.26,0.25,352.52,352.52,0.0,0.0
1630606003.19974303,162028496,0.27,0.27,0.23,0.22,352.52,352.52,0.0,0.0
1630606003.29970312,162128456,0.27,0.28,0.22,0.19,352.52,352.52,0.0,0.0
1630606003.39966297,162228416,0.29,0.28,0.24,0.19,352.52,352.52,0.0,0.0
1630606003.49962306,162328376,0.28,0.29,0.27,0.22,352.52,352.52,0.0,0.0
1630606003.59958291,162428336,0.26,0.28,0.29,0.25,352.52,352.52,0.0,0.0
1630606003.69954300,162528296,0.22,0.24,0.29,0.27,352.52,352.52,0.0,0.0
1630606003.79950309,162628256,0.21,0.2,0.25,0.25,352.52,352.52,0.0,0.0
1630606003.89946294,162728216,0.21,0.19,0.23,0.23,352.52,352.52,0.0,0.0
1630606003.99942303,162828176,0.21,0.18,0.24,0.22,352.52,352.52,0.0,0.0
1630606004.10021591,162928969,0.21,0.19,0.25,0.23,352.52,352.52,0.0,0.0
1630606004.20017600,163028929,0.22,0.19,0.24,0.24,352.52,352.52,0.0,0.0
1630606004.30013609,163128889,0.24,0.21,0.23,0.24,352.52,352.52,0.0,0.0
1630606004.40009594,163228849,0.26,0.23,0.21,0.21,352.52,352.52,0.0,0.0
1630606004.50005603,163328809,1.74,0.93,-5.65,-2.15,352.52,352.5,0.0,0.0
1630606004.60001612,163428769,2.82,2.38,-17.85,-12.21,352.52,352.27,0.0,0.0
1630606004.69997597,163528729,2.85,3.23,-20.51,-20.84,352.52,352.03,0.0,0.01
1630606004.79993606,163628689,2.3,3.09,-16.97,-22.12,352.52,352.24,0.0,0.01
1630606004.89989591,163728649,1.57,2.28,-11.75,-17.94,352.52,352.7,0.0,0.01
1630606004.99985600,163828609,0.98,1.31,-7.02,-11.44,352.52,353.05,0.0,0.01
1630606005.09981608,163928569,0.68,0.6,-3.96,-5.49,352.52,353.17,0.0,0.02
1630606005.19977593,164028529,0.62,0.26,-2.69,-1.74,352.52,353.14,0.0,0.02
1630606005.29973602,164128489,0.71,0.26,-2.67,-0.41,352.52,353.02,0.01,0.02
1630606005.39969611,164228449,0.81,0.44,-3.08,-0.77,352.52,352.86,0.01,0.02
1630606005.49965596,164328409,0.89,0.66,-3.31,-1.71,352.52,352.68,0.01,0.01
1630606005.59961605,164428369,0.87,0.81,-3.07,-2.41,352.52,352.51,0.01,0.01
1630606005.69957590,164528329,0.78,0.83,-2.3,-2.4,352.52,352.38,0.01,0.01
1630606005.79953599,164628289,0.65,0.74,-1.31,-1.73,352.52,352.29,0.01,0.0
1630606005.89949608,164728249,0.51,0.59,-0.33,-0.71,352.52,352.24,0.0,0.0
1630606005.99945593,164828209,0.39,0.43,0.43,0.3,352.52,352.23,0.0,0.0
1630606006.09941602,164928169,0.28,0.29,0.96,1.1,352.52,352.25,0.0,0.0
1630606006.20020890,165028962,0.24,0.19,1.3,1.59,352.52,352.3,0.0,0.0
1630606006.30016899,165128922,0.23,0.16,1.49,1.84,352.52,352.36,0.0,0.0
1630606006.40012908,165228882,0.22,0.15,1.61,1.92,352.52,352.42,0.0,0.0
1630606006.50008893,165328842,0.21,0.16,1.7,1.91,352.52,352.48,0.0,0.0
1630606006.60004902,165428802,0.17,0.15,1.79,1.89,352.52,352.53,0.0,0.0
1630606006.70000911,165528762,0.14,0.13,1.9,1.92,352.52,352.57,0.0,0.0
1630606006.79996896,165628722,0.13,0.11,2.02,1.98,352.52,352.6,0.0,0.0
1630606006.89992905,165728682,0.12,0.1,2.09,2.06,352.52,352.61,0.0,0.0
1630606006.99988890,165828642,0.11,0.09,2.13,2.12,352.52,352.61,0.0,0.0
1630606007.09984899,165928602,0.1,0.08,2.15,2.16,352.52,352.59,0.0,0.0
1630606007.19980907,166028562,0.1,0.07,2.15,2.16,352.52,352.57,0.0,0.0
1630606007.29976892,166128522,0.1,0.07,2.09,2.11,352.52,352.55,0.0,0.0
1630606007.39972901,166228482,0.1,0.07,2.01,2.02,352.52,352.53,0.0,0.0
1630606007.49968910,166328442,0.1,0.07,1.91,1.92,352.52,352.51,0.0,0.0
1630606007.59964895,166428402,0.12,0.08,1.82,1.81,352.52,352.49,0.0,0.0
1630606007.69960904,166528362,0.12,0.09,1.76,1.72,352.52,352.48,0.0,0.0
1630606007.79956889,166628322,0.13,0.1,1.69,1.64,352.52,352.47,0.0,0.0
1630606007.89952898,166728282,0.15,0.13,1.64,1.58,352.52,352.47,0.0,0.0
1630606007.99948907,166828242,0.15,0.14,1.57,1.53,352.52,352.48,0.0,0.0
1630606008.09944892,166928202,0.14,0.14,1.47,1.45,352.52,352.48,0.0,0.0
1630606008.19940901,167028162,0.11,0.13,1.33,1.33,352.52,352.49,0.0,0.0
1630606008.30020189,167128955,0.11,0.12,1.2,1.21,352.52,352.5,0.0,0.0
1630606008.40016198,167228915,0.11,0.11,1.08,1.07,352.52,352.51,0.0,0.0
1630606008.50012207,167328875,0.08,0.09,0.97,0.95,352.52,352.51,0.0,0.0
1630606008.60008192,167428835,0.09,0.08,0.88,0.84,352.52,352.52,0.0,0.0
1630606008.70004201,167528795,0.1,0.09,0.8,0.75,352.52,352.52,0.0,0.0
1630606008.80000210,167628755,0.11,0.1,0.76,0.69,352.52,352.52,0.0,0.0
1630606008.89996195,167728715,0.14,0.12,0.69,0.65,352.52,352.52,0.0,0.0
1630606008.99992204,167828675,0.18,0.16,0.6,0.58,352.52,352.52,0.0,0.0
1630606009.09988189,167928635,0.18,0.18,0.51,0.51,352.52,352.51,0.0,0.0
1630606009.19984198,168028595,0.19,0.18,0.43,0.42,352.52,352.51,0.0,0.0
1630606009.29980206,168128555,0.17,0.17,0.35,0.34,352.52,352.51,0.0,0.0
1630606009.39976192,168228515,0.15,0.14,0.32,0.28,352.52,352.5,0.0,0.0
1630606009.49972200,168328475,0.14,0.12,0.29,0.24,352.52,352.5,0.0,0.0
1630606009.59968209,168428435,0.14,0.11,0.24,0.21,352.52,352.5,0.0,0.0
1630606009.69964194,168528395,0.17,0.13,0.22,0.19,352.52,352.5,0.0,0.0
1630606009.79960203,168628355,0.22,0.18,0.2,0.17,352.52,352.5,0.0,0.0
1630606009.89956212,168728315,0.23,0.23,0.17,0.16,352.52,352.5,0.0,0.0
1630606009.99952197,168828275,0.22,0.23,0.15,0.15,352.52,352.5,0.0,0.0
1630606010.09948206,168928235,0.22,0.23,0.14,0.13,352.52,352.51,0.0,0.0
1630606010.19944191,169028195,0.22,0.21,0.14,0.13,352.52,352.51,0.0,0.0
1630606010.29940200,169128155,0.22,0.21,0.15,0.13,352.52,352.51,0.0,0.0
1630606010.40019512,169228948,0.22,0.2,0.12,0.12,352.52,352.51,0.0,0.0
1630606010.50015497,169328908,0.22,0.2,0.11,0.1,352.52,352.51,0.0,0.0
1630606010.60011506,169428868,0.21,0.2,0.1,0.08,352.52,352.51,0.0,0.0
1630606010.70007491,169528828,0.21,0.2,0.13,0.08,352.52,352.51,0.0,0.0
1630606010.80003500,169628788,0.22,0.2,0.15,0.11,352.52,352.51,0.0,0.0
1630606010.89999509,169728748,0.24,0.21,0.15,0.13,352.52,352.51,0.0,0.0
1630606010.99995494,169828708,0.27,0.24,0.15,0.13,352.52,352.5,0.0,0.0
1630606011.09991503,169928668,0.31,0.28,0.14,0.12,352.52,352.5,0.0,0.0
1630606011.19987512,170028628,0.33,0.32,0.14,0.12,352.52,352.5,0.0,0.0
1630606011.29983497,170128588,0.32,0.33,0.15,0.13,352.52,352.5,0.0,0.0
1630606011.39979506,170228548,0.31,0.32,0.14,0.14,352.52,352.5,0.0,0.0
1630606011.49975491,170328508,0.31,0.32,0.15,0.14,352.52,352.5,0.0,0.0
1630606011.59971499,170428468,0.31,0.31,0.13,0.14,352.52,352.5,0.0,0.0
1630606011.69967508,170528428,0.27,0.28,0.12,0.12,352.52,352.49,0.0,0.0
1630606011.79963493,170628388,0.24,0.24,0.11,0.11,352.52,352.5,0.0,0.0
1630606011.89959502,170728348,0.23,0.22,0.13,0.12,352.52,352.5,0.0,0.0
1630606011.99955511,170828308,0.23,0.19,0.13,0.12,352.52,352.5,0.0,0.0
1630606012.09951496,170928268,0.24,0.19,0.12,0.12,352.52,352.5,0.0,0.0
1630606012.19947505,171028228,0.27,0.21,0.12,0.11,352.52,352.5,0.0,0.0
1630606012.29943490,171128188,0.29,0.25,0.16,0.12,352.52,352.5,0.0,0.0
1630606012.40022802,171228981,0.31,0.27,0.19,0.16,352.52,352.51,0.0,0.0
1630606012.50018811,171328941,0.32,0.31,0.2,0.2,352.52,352.51,0.0,0.0
1630606012.60014796,171428901,0.32,0.32,0.21,0.21,352.52,352.51,0.0,0.0
1630606012.70010805,171528861,0.29,0.3,0.23,0.23,352.52,352.5,0.0,0.0
1630606012.80006790,171628821,0.28,0.27,0.25,0.24,352.52,352.5,0.0,0.0
1630606012.90002799,171728781,0.29,0.27,0.27,0.25,352.52,352.5,0.0,0.0
1630606012.99998808,171828741,0.3,0.28,0.29,0.27,352.52,352.5,0.0,0.0
1630606013.09994793,171928701,0.27,0.28,0.31,0.29,352.52,352.5,0.0,0.0
1630606013.19990802,172028661,0.22,0.23,0.32,0.31,352.52,352.5,0.0,0.0
1630606013.29986811,172128621,0.19,0.18,0.32,0.31,352.52,352.5,0.0,0.0
1630606013.39982796,172228581,0.19,0.15,0.29,0.3,352.52,352.5,0.0,0.0
1630606013.49978805,172328541,0.19,0.16,0.27,0.27,352.52,352.5,0.0,0.0
1630606013.59974790,172428501,0.2,0.17,0.27,0.25,352.52,352.5,0.0,0.0
1630606013.69970798,172528461,0.24,0.2,0.26,0.23,352.52,352.5,0.0,0.0
1630606013.79966807,172628421,0.26,0.24,0.26,0.22,352.52,352.5,0.0,0.0
1630606013.89962792,172728381,0.25,0.26,0.28,0.23,352.52,352.5,0.0,0.0
1630606013.99958801,172828341,0.25,0.25,0.3,0.25,352.52,352.5,0.0,0.0
1630606014.09954810,172928301,0.27,0.25,0.32,0.27,352.52,352.5,0.0,0.0
1630606014.19950795,173028261,0.27,0.26,0.31,0.28,352.52,352.5,0.0,0.0
1630606014.29946804,173128221,0.25,0.25,0.33,0.3,352.52,352.5,0.0,0.0
1630606014.39942789,173228181,0.24,0.23,0.35,0.33,352.52,352.5,0.0,0.0
1630606014.50022101,173328974,0.25,0.23,0.36,0.36,352.52,352.5,0.0,0.0
1630606014.60018110,173428934,0.23,0.21,0.33,0.35,352.52,352.5,0.0,0.0
1630606014.70014095,173528894,0.2,0.19,0.32,0.32,352.52,352.5,0.0,0.0
1630606014.80010104,173628854,0.19,0.17,0.32,0.3,352.52,352.5,0.0,0.0
1630606014.90006089,173728814,0.22,0.18,0.34,0.32,352.52,352.5,0.0,0.0
1630606015.00002098,173828774,0.24,0.2,0.35,0.33,352.52,352.5,0.0,0.0
1630606015.09998107,173928734,0.25,0.22,0.33,0.33,352.52,352.5,0.0,0.0
1630606015.19994092,174028694,0.27,0.24,0.31,0.3,352.52,352.5,0.0,0.0
1630606015.29990101,174128654,0.27,0.26,0.31,0.29,352.52,352.5,0.0,0.0
1630606015.39986110,174228614,0.27,0.26,0.3,0.28,352.52,352.5,0.0,0.0
1630606015.49982095,174328574,0.28,0.26,0.29,0.27,352.52,352.5,0.0,0.0
1630606015.59978104,174428534,0.27,0.26,0.29,0.26,352.52,352.5,0.0,0.0
1630606015.69974089,174528494,0.28,0.26,0.31,0.27,352.52,352.5,0.0,0.0
1630606015.79970098,174628454,0.29,0.26,0.32,0.29,352.52,352.51,0.0,0.0
1630606015.89966106,174728414,0.29,0.27,0.31,0.31,352.52,352.51,0.0,0.0
1630606015.99962091,174828374,0.29,0.27,0.3,0.3,352.52,352.51,0.0,0.0
1630606016.09958100,174928334,0.3,0.28,0.28,0.28,352.52,352.51,0.0,0.0
1630606016.19954109,175028294,0.31,0.29,0.25,0.25,352.52,352.51,0.0,0.0
1630606016.29950094,175128254,0.29,0.28,0.23,0.22,352.52,352.51,0.0,0.0
1630606016.39946103,175228214,0.27,0.25,0.22,0.2,352.52,352.51,0.0,0.0
1630606016.49942112,175328174,0.27,0.24,0.24,0.2,352.52,352.51,0.0,0.0
1630606016.60021400,175428967,0.24,0.22,0.27,0.24,352.52,352.51,0.0,0.0
1630606016.70017409,175528927,0.24,0.22,0.28,0.27,352.52,352.51,0.0,0.0
1630606016.80013394,175628887,0.25,0.22,0.26,0.27,352.52,352.51,0.0,0.0
1630606016.90009403,175728847,0.25,0.23,0.26,0.26,352.52,352.51,0.0,0.0
1630606017.00005412,175828807,0.22,0.21,0.27,0.26,352.52,352.51,0.0,0.0
1630606017.10001397,175928767,0.21,0.2,0.28,0.27,352.52,352.51,0.0,0.0
1630606017.19997406,176028727,0.21,0.19,0.29,0.28,352.52,352.5,0.0,0.0
1630606017.29993391,176128687,0.22,0.2,0.28,0.28,352.52,352.5,0.0,0.0
1630606017.39989400,176228647,0.27,0.22,0.27,0.27,352.52,352.5,0.0,0.0
1630606017.49985409,176328607,0.3,0.27,0.29,0.27,352.52,352.5,0.0,0.0
1630606017.59981394,176428567,0.3,0.3,0.3,0.28,352.52,352.5,0.0,0.0
1630606017.69977403,176528527,0.31,0.31,0.32,0.29,352.52,352.5,0.0,0.0
1630606017.79973412,176628487,0.29,0.31,0.32,0.3,352.52,352.5,0.0,0.0
1630606017.89969397,176728447,0.28,0.28,0.3,0.29,352.52,352.5,0.0,0.0
1630606017.99965405,176828407,0.3,0.27,0.3,0.28,352.52,352.51,0.0,0.0
1630606018.09961390,176928367,0.32,0.29,0.26,0.25,352.52,352.51,0.0,0.0
1630606018.19957399,177028327,0.29,0.28,0.27,0.24,352.52,352.51,0.0,0.0
1630606018.29953408,177128287,0.28,0.26,0.29,0.27,352.52,352.51,0.0,0.0
1630606018.39949393,177228247,0.3,0.25,0.29,0.28,352.52,352.51,0.0,0.0
1630606018.49945402,177328207,0.33,0.29,0.27,0.27,352.52,352.51,0.0,0.0
1630606018.59941411,177428167,0.35,0.32,0.25,0.25,352.52,352.51,0.0,0.0
1630606018.70020700,177528960,0.37,0.36,0.24,0.22,352.52,352.51,0.0,0.0
1630606018.80016708,177628920,0.37,0.37,0.24,0.21,352.52,352.51,0.0,0.0
1630606018.90012693,177728880,0.34,0.35,0.23,0.21,352.52,352.51,0.0,0.0
1630606019.00008702,177828840,0.29,0.29,0.23,0.21,352.52,352.5,0.0,0.0
1630606019.10004711,177928800,0.26,0.26,0.25,0.23,352.52,352.5,0.0,0.0
1630606019.20000696,178028760,0.24,0.22,0.24,0.23,352.52,352.5,0.0,0.0
1630606019.29996705,178128720,0.25,0.22,0.21,0.22,352.52,352.5,0.0,0.0
1630606019.39992690,178228680,0.27,0.24,0.16,0.17,352.52,352.51,0.0,0.0
1630606019.49988699,178328640,0.27,0.25,0.13,0.13,352.52,352.51,0.0,0.0
1630606019.59984708,178428600,0.27,0.25,0.15,0.11,352.52,352.51,0.0,0.0
1630606019.69980693,178528560,1.36,0.84,-5.15,-1.96,352.51,352.5,0.0,0.0
1630606019.79976702,178628520,1.89,1.67,-12.41,-9.07,352.51,352.38,0.0,0.0
1630606019.89972711,178728480,1.86,2.11,-15.54,-15.13,352.51,352.27,0.0,0.0
1630606019.99968696,178828440,1.39,1.94,-15.73,-17.97,352.51,352.3,0.0,0.01
1630606020.09964705,178928400,0.62,1.24,-14.08,-17.53,352.51,352.45,0.0,0.01
1630606020.19960690,179028360,-0.26,0.21,-11.79,-14.95,352.51,352.6,0.0,0.01
1630606020.29956698,179128320,-1.1,-0.86,-9.8,-11.71,352.51,352.65,0.0,0.01
1630606020.39952707,179228280,-1.83,-1.84,-8.61,-9.05,352.51,352.64,0.0,0.0
1630606020.49948692,179328240,-2.44,-2.62,-8.25,-7.56,352.51,352.61,0.0,0.0
1630606020.59944701,179428200,-2.96,-3.22,-8.43,-7.23,352.51,352.6,0.0,0.0
1630606020.69940710,179528160,-3.44,-3.7,-8.81,-7.65,352.51,352.62,0.0,0.0
1630606020.80019999,179628953,-3.97,-4.15,-9.13,-8.33,352.51,352.64,0.0,0.0
1630606020.90016007,179728913,-4.53,-4.64,-9.25,-8.91,352.51,352.64,0.0,0.0
1630606021.00011992,179828873,-5.09,-5.16,-9.19,-9.19,352.51,352.61,0.0,0.0
1630606021.10008001,179928833,-5.62,-5.67,-9.05,-9.22,352.51,352.55,0.0,0.0
1630606021.20004010,180028793,-6.1,-6.16,-8.93,-9.1,352.51,352.49,0.0,0.0
1630606021.29999995,180128753,-6.51,-6.59,-8.86,-8.96,352.51,352.44,0.0,0.0
1630606021.39996004,180228713,-6.85,-6.95,-8.9,-8.88,352.51,352.42,0.0,0.0
1630606021.49991989,180328673,-7.14,-7.31,-9.07,-8.89,351.19,352.39,0.0,0.0
