timestamp,TimeUS,DesRoll,Roll,DesPitch,Pitch,DesYaw,Yaw,ErrRP,ErrYaw
1630611862.20000005,52628940,0.0,0.09,0.0,0.07,352.89,352.9,0.0,0.0
1630611862.29995990,52728900,0.0,0.09,0.0,0.07,352.89,352.9,0.0,0.0
1630611862.39991999,52828860,0.0,0.09,0.0,0.07,352.89,352.9,0.0,0.0
1630611862.49987984,52928820,0.0,0.09,0.0,0.07,352.89,352.9,0.0,0.0
1630611862.59983993,53028780,0.0,0.09,0.0,0.07,352.89,352.9,0.0,0.0
1630611862.69980001,53128740,0.0,0.09,0.0,0.07,352.89,352.9,0.0,0.0
1630611862.79975986,53228700,0.0,0.09,0.0,0.07,352.9,352.91,0.0,0.0
1630611862.89971995,53328660,0.0,0.09,0.0,0.07,352.9,352.91,0.0,0.0
1630611862.99968004,53428620,0.0,0.09,0.0,0.07,352.9,352.91,0.0,0.0
1630611863.09963989,53528580,0.0,0.09,0.0,0.07,352.9,352.91,0.0,0.0
1630611863.19959998,53628540,0.0,0.09,0.0,0.08,352.9,352.91,0.0,0.0
1630611863.29955983,53728500,0.0,0.09,0.0,0.08,352.9,352.91,0.0,0.0
1630611863.39951992,53828460,0.0,0.09,0.0,0.08,352.9,352.91,0.0,0.0
1630611863.49948001,53928420,0.0,0.09,0.0,0.08,352.9,352.91,0.0,0.0
1630611863.59943986,54028380,0.0,0.09,0.0,0.08,352.9,352.91,0.0,0.0
1630611863.69939995,54128340,0.0,0.09,0.0,0.08,352.9,352.91,0.0,0.0
1630611863.79936004,54228300,0.0,0.09,0.0,0.08,352.9,352.91,0.0,0.0
1630611863.89931989,54328260,0.0,0.09,0.0,0.08,352.9,352.91,0.0,0.0
1630611863.99927998,54428220,0.0,0.09,0.0,0.08,352.9,352.91,0.0,0.0
1630611864.09923983,54528180,0.0,0.09,0.0,0.08,352.9,352.91,0.0,0.0
1630611864.20003295,54628973,0.0,0.09,0.0,0.08,352.9,352.91,0.0,0.0
1630611864.29999304,54728933,0.0,0.09,0.0,0.08,352.9,352.91,0.0,0.0
1630611864.39995289,54828893,-0.01,0.09,-0.02,0.08,352.9,352.91,0.0,0.0
1630611864.49991298,54928853,-0.11,0.09,-0.12,0.08,352.9,352.91,0.0,0.0
1630611864.59987283,55028813,-0.17,0.09,-0.18,0.08,352.9,352.91,0.0,0.0
1630611864.69983292,55128773,-0.2,0.09,-0.22,0.08,352.9,352.91,0.0,0.0
1630611864.79979300,55228733,-0.23,0.09,-0.25,0.08,352.9,352.92,0.0,0.0
1630611864.89975286,55328693,-0.25,0.09,-0.26,0.08,352.9,352.92,0.0,0.0
1630611864.99971294,55428653,-0.26,0.09,-0.28,0.08,352.9,352.92,0.0,0.0
1630611865.09967303,55528613,-0.28,0.09,-0.31,0.08,352.9,352.92,0.0,0.0
1630611865.19963288,55628573,-0.3,0.09,-0.33,0.08,352.9,352.92,0.0,0.0
1630611865.29959297,55728533,-0.33,0.09,-0.35,0.08,352.9,352.92,0.0,0.0
1630611865.39955306,55828493,-0.35,0.09,-0.35,0.08,352.9,352.92,0.0,0.0
1630611865.49951291,55928453,-0.35,0.09,-0.37,0.08,352.9,352.92,0.0,0.0
1630611865.59947300,56028413,-0.36,0.09,-0.38,0.08,352.9,352.92,0.0,0.0
1630611865.69943285,56128373,-0.39,0.09,-0.39,0.08,352.9,352.92,0.0,0.0
1630611865.79939294,56228333,-0.4,0.09,-0.43,0.08,352.9,352.92,0.0,0.0
1630611865.89935303,56328293,-0.43,0.09,-0.46,0.08,352.9,352.92,0.0,0.0
1630611865.99931288,56428253,-0.47,0.0,-0.47,0.0,352.9,352.92,0.0,0.0
1630611866.09927297,56528213,-0.47,-0.29,-0.49,-0.3,352.9,352.92,0.0,0.0
1630611866.19923306,56628173,-0.41,-0.56,-0.47,-0.61,352.9,352.92,0.0,0.0
1630611866.30002594,56728966,-0.28,-0.67,-0.37,-0.76,352.9,352.92,0.0,0.0
1630611866.39998603,56828926,-0.11,-0.62,-0.2,-0.73,352.9,352.92,0.0,0.0
1630611866.49994588,56928886,0.05,-0.46,0.02,-0.54,352.9,352.91,0.0,0.0
1630611866.59990597,57028846,0.23,-0.24,0.23,-0.28,352.9,352.91,0.0,0.0
1630611866.69986606,57128806,0.35,-0.03,0.4,-0.01,352.9,352.91,0.0,0.0
1630611866.79982591,57228766,0.41,0.12,0.47,0.18,352.9,352.9,0.0,0.0
1630611866.89978600,57328726,0.43,0.2,0.5,0.29,352.9,352.9,0.0,0.0
1630611866.99974585,57428686,0.4,0.23,0.49,0.33,352.9,352.9,0.0,0.0
1630611867.09970593,57528646,0.35,0.19,0.47,0.32,352.9,352.9,0.0,0.0
1630611867.19966602,57628606,0.32,0.14,0.42,0.27,352.9,352.9,0.0,0.0
1630611867.29962587,57728566,0.36,0.13,0.43,0.25,352.9,352.9,0.0,0.0
1630611867.39958596,57828526,0.39,0.16,0.45,0.25,352.9,352.9,0.0,0.0
1630611867.49954605,57928486,0.41,0.21,0.45,0.27,352.9,352.9,0.0,0.0
1630611867.59950590,58028446,0.41,0.25,0.43,0.28,352.9,352.9,0.0,0.0
1630611867.69946599,58128406,0.37,0.25,0.4,0.28,352.73,352.73,0.0,0.0
1630611867.79942584,58228366,0.34,0.23,0.38,0.26,352.73,352.74,0.0,0.0
1630611867.89938593,58328326,0.29,0.2,0.36,0.24,352.73,352.74,0.0,0.0
1630611867.99934602,58428286,0.27,0.17,0.34,0.23,352.73,352.74,0.0,0.0
1630611868.09930587,58528246,0.26,0.15,0.33,0.22,352.73,352.74,0.0,0.0
1630611868.19926596,58628206,0.25,0.14,0.31,0.21,352.73,352.74,0.0,0.0
1630611868.29922605,58728166,0.24,0.15,0.31,0.22,352.73,352.75,0.0,0.0
1630611868.40001893,58828959,0.22,0.14,0.3,0.22,352.73,352.74,0.0,0.0
1630611868.49997902,58928919,0.22,0.14,0.25,0.2,352.73,352.74,0.0,0.0
1630611868.59993887,59028879,0.23,0.15,0.19,0.14,352.73,352.74,0.0,0.0
1630611868.69989896,59128839,0.23,0.17,0.15,0.1,352.73,352.74,0.0,0.0
1630611868.79985905,59228799,0.22,0.17,0.12,0.06,352.73,352.74,0.0,0.0
1630611868.89981890,59328759,0.22,0.17,0.14,0.06,352.73,352.74,0.0,0.0
1630611868.99977899,59428719,0.21,0.17,0.15,0.08,352.73,352.74,0.0,0.0
1630611869.09973884,59528679,0.18,0.16,0.13,0.09,352.73,352.74,0.0,0.0
1630611869.19969893,59628639,0.16,0.14,0.11,0.08,352.73,352.74,0.0,0.0
1630611869.29965901,59728599,0.12,0.12,0.08,0.06,352.73,352.74,0.0,0.0
1630611869.39961886,59828559,0.09,0.08,0.06,0.04,352.73,352.74,0.0,0.0
1630611869.49957895,59928519,0.08,0.05,0.04,0.01,352.73,352.74,0.0,0.0
1630611869.59953904,60028479,0.1,0.05,0.02,0.0,352.73,352.74,0.0,0.0
1630611869.69949889,60128439,0.09,0.06,0.01,-0.01,352.73,352.74,0.0,0.0
1630611869.79945898,60228399,0.08,0.05,0.03,0.0,352.73,352.73,0.0,0.0
1630611869.89941883,60328359,0.07,0.04,0.06,0.01,352.73,352.73,0.0,0.0
1630611869.99937892,60428319,0.07,0.04,0.07,0.04,352.73,352.74,0.0,0.0
1630611870.09933901,60528279,0.07,0.06,0.07,0.06,352.73,352.74,0.0,0.0
1630611870.19929886,60628239,0.07,0.05,0.04,0.05,352.73,352.74,0.0,0.0
1630611870.29925895,60728199,0.09,0.07,0.01,0.02,352.73,352.74,0.0,0.0
1630611870.39921904,60828159,0.13,0.1,0.02,0.01,352.73,352.74,0.0,0.0
1630611870.50001192,60928952,0.13,0.13,0.0,0.0,352.73,352.74,0.0,0.0
1630611870.59997201,61028912,0.1,0.13,0.0,-0.01,352.73,352.74,0.0,0.0
1630611870.69993186,61128872,0.07,0.09,0.0,-0.01,352.73,352.74,0.0,0.0
1630611870.79989195,61228832,0.09,0.07,0.03,0.0,352.73,352.74,0.0,0.0
1630611870.89985204,61328792,0.13,0.09,0.04,0.02,352.73,352.74,0.0,0.0
1630611870.99981189,61428752,0.15,0.12,0.06,0.05,352.73,352.74,0.0,0.0
1630611871.09977198,61528712,0.14,0.15,0.06,0.06,352.73,352.74,0.0,0.0
1630611871.19973183,61628672,0.15,0.15,0.06,0.06,352.73,352.74,0.0,0.0
1630611871.29969192,61728632,0.16,0.15,0.09,0.07,352.73,352.74,0.0,0.0
1630611871.39965200,61828592,0.16,0.15,0.13,0.1,352.73,352.74,0.0,0.0
1630611871.49961185,61928552,0.18,0.15,0.13,0.12,352.73,352.74,0.0,0.0
1630611871.59957194,62028512,0.18,0.17,0.09,0.11,352.73,352.74,0.0,0.0
1630611871.69953203,62128472,0.15,0.16,0.07,0.09,352.73,352.75,0.0,0.0
1630611871.79949188,62228432,0.15,0.14,0.09,0.08,352.73,352.75,0.0,0.0
1630611871.89945197,62328392,0.19,0.16,0.12,0.11,352.73,352.75,0.0,0.0
1630611871.99941206,62428352,0.21,0.19,0.15,0.13,352.73,352.75,0.0,0.0
1630611872.09937191,62528312,0.21,0.2,0.17,0.16,352.73,352.75,0.0,0.0
1630611872.19933200,62628272,0.18,0.19,0.16,0.16,352.73,352.75,0.0,0.0
1630611872.29929185,62728232,0.13,0.15,0.14,0.15,352.73,352.74,0.0,0.0
1630611872.39925194,62828192,0.12,0.11,0.13,0.12,352.73,352.74,0.0,0.0
1630611872.50004506,62928985,0.12,0.11,0.13,0.12,352.73,352.74,0.0,0.0
1630611872.60000491,63028945,0.12,0.11,0.13,0.11,352.73,352.73,0.0,0.0
1630611872.69996500,63128905,0.1,0.1,0.15,0.12,352.73,352.73,0.0,0.0
1630611872.79992485,63228865,0.1,0.09,0.16,0.13,352.73,352.73,0.0,0.0
1630611872.89988494,63328825,0.07,0.08,0.2,0.16,352.73,352.73,0.0,0.0
1630611872.99984503,63428785,0.08,0.07,0.25,0.21,352.73,352.73,0.0,0.0
1630611873.09980488,63528745,0.1,0.07,0.25,0.24,352.73,352.74,0.0,0.0
1630611873.19976497,63628705,0.12,0.09,0.23,0.25,352.73,352.74,0.0,0.0
1630611873.29972506,63728665,0.14,0.13,0.22,0.24,352.73,352.74,0.0,0.0
1630611873.39968491,63828625,0.15,0.14,0.2,0.22,352.73,352.74,0.0,0.0
1630611873.49964499,63928585,0.15,0.15,0.18,0.2,352.73,352.74,0.0,0.0
1630611873.59960485,64028545,0.13,0.14,0.15,0.16,352.73,352.75,0.0,0.0
1630611873.69956493,64128505,0.11,0.13,0.16,0.14,352.73,352.75,0.0,0.0
1630611873.79952502,64228465,0.1,0.1,0.15,0.14,352.73,352.75,0.0,0.0
1630611873.89948487,64328425,0.09,0.08,0.12,0.13,352.73,352.75,0.0,0.0
1630611873.99944496,64428385,0.09,0.07,0.1,0.11,352.73,352.75,0.0,0.0
1630611874.09940505,64528345,0.09,0.07,0.09,0.09,352.73,352.75,0.0,0.0
1630611874.19936490,64628305,0.12,0.08,0.08,0.07,352.73,352.75,0.0,0.0
1630611874.29932499,64728265,0.15,0.12,0.08,0.07,352.73,352.74,0.0,0.0
1630611874.39928484,64828225,0.14,0.14,0.07,0.06,352.73,352.74,0.0,0.0
1630611874.49924493,64928185,0.16,0.16,0.06,0.05,352.73,352.74,0.0,0.0
1630611874.60003805,65028978,0.16,0.17,0.07,0.04,352.73,352.74,0.0,0.0
1630611874.69999790,65128938,0.16,0.17,0.08,0.05,352.73,352.74,0.0,0.0
1630611874.79995799,65228898,0.18,0.18,0.08,0.07,352.73,352.73,0.0,0.0
1630611874.89991784,65328858,0.14,0.17,0.1,0.08,352.73,352.73,0.0,0.0
1630611874.99987793,65428818,0.08,0.11,0.13,0.11,352.73,352.74,0.0,0.0
1630611875.09983802,65528778,0.05,0.05,0.16,0.14,352.73,352.74,0.0,0.0
1630611875.19979787,65628738,0.03,0.01,0.16,0.17,352.73,352.74,0.0,0.0
1630611875.29975796,65728698,0.05,0.01,0.11,0.15,352.73,352.74,0.0,0.0
1630611875.39971805,65828658,0.06,0.01,0.08,0.11,352.73,352.74,0.0,0.0
1630611875.49967790,65928618,0.07,0.03,0.05,0.07,352.73,352.74,0.0,0.0
1630611875.59963799,66028578,0.08,0.05,0.01,0.03,352.73,352.74,0.0,0.0
1630611875.69959784,66128538,0.07,0.07,-0.01,-0.01,352.73,352.74,0.0,0.0
1630611875.79955792,66228498,0.05,0.07,-0.01,-0.04,352.73,352.74,0.0,0.0
1630611875.89951801,66328458,0.04,0.05,0.01,-0.03,352.73,352.74,0.0,0.0
1630611875.99947786,66428418,0.05,0.05,0.04,0.01,352.73,352.74,0.0,0.0
1630611876.09943795,66528378,0.05,0.05,0.06,0.04,352.73,352.74,0.0,0.0
1630611876.19939804,66628338,0.05,0.04,0.07,0.06,352.73,352.74,0.0,0.0
1630611876.29935789,66728298,0.05,0.05,0.06,0.07,352.73,352.74,0.0,0.0
1630611876.39931798,66828258,0.06,0.04,0.06,0.07,352.73,352.74,0.0,0.0
1630611876.49927783,66928218,0.07,0.05,0.03,0.06,352.73,352.74,0.0,0.0
1630611876.59923792,67028178,0.06,0.05,0.0,0.02,352.73,352.74,0.0,0.0
1630611876.70003104,67128971,0.05,0.05,0.0,0.0,352.73,352.74,0.0,0.0
1630611876.79999089,67228931,0.06,0.04,0.03,0.0,352.73,352.73,0.0,0.0
1630611876.89995098,67328891,0.12,0.08,0.07,0.03,352.73,352.73,0.0,0.0
1630611876.99991083,67428851,0.16,0.13,0.1,0.08,352.73,352.73,0.0,0.0
1630611877.09987092,67528811,0.19,0.18,0.11,0.11,352.73,352.73,0.0,0.0
1630611877.19983101,67628771,0.17,0.18,0.12,0.12,352.73,352.73,0.0,0.0
1630611877.29979086,67728731,0.16,0.17,0.14,0.13,352.73,352.73,0.0,0.0
1630611877.39975095,67828691,0.15,0.16,0.13,0.14,352.73,352.74,0.0,0.0
1630611877.49971104,67928651,0.13,0.14,0.12,0.13,352.73,352.74,0.0,0.0
1630611877.59967089,68028611,0.11,0.11,0.14,0.13,352.73,352.74,0.0,0.0
1630611877.69963098,68128571,0.08,0.08,0.15,0.14,352.73,352.73,0.0,0.0
1630611877.79959083,68228531,0.08,0.06,0.16,0.14,352.73,352.74,0.0,0.0
1630611877.89955091,68328491,0.11,0.08,0.17,0.16,352.73,352.74,0.0,0.0
1630611877.99951100,68428451,0.15,0.12,0.17,0.16,352.73,352.74,0.0,0.0
1630611878.09947085,68528411,0.17,0.17,0.17,0.17,352.73,352.74,0.0,0.0
1630611878.19943094,68628371,0.16,0.18,0.16,0.17,352.73,352.74,0.0,0.0
1630611878.29939103,68728331,0.14,0.17,0.13,0.16,352.73,352.74,0.0,0.0
1630611878.39935088,68828291,0.1,0.13,0.09,0.12,352.73,352.73,0.0,0.0
1630611878.49931097,68928251,0.1,0.1,0.09,0.08,352.73,352.73,0.0,0.0
1630611878.59927106,69028211,0.12,0.09,0.11,0.08,352.73,352.73,0.0,0.0
1630611878.69923091,69128171,0.14,0.1,0.13,0.1,352.73,352.74,0.0,0.0
1630611878.80002403,69228964,0.17,0.13,0.14,0.11,352.73,352.74,0.0,0.0
1630611878.89998388,69328924,0.18,0.17,0.18,0.15,352.73,352.74,0.0,0.0
1630611878.99994397,69428884,0.14,0.15,0.18,0.17,352.73,352.74,0.0,0.0
1630611879.09990406,69528844,0.12,0.13,0.17,0.17,352.73,352.74,0.0,0.0
1630611879.19986391,69628804,0.14,0.13,0.16,0.15,352.73,352.74,0.0,0.0
1630611879.29982400,69728764,0.17,0.15,0.14,0.14,352.73,352.74,0.0,0.0
1630611879.39978385,69828724,0.17,0.16,0.14,0.12,352.73,352.74,0.0,0.0
1630611879.49974394,69928684,0.15,0.16,0.16,0.13,352.73,352.74,0.0,0.0
1630611879.59970403,70028644,0.11,0.15,0.17,0.15,352.73,352.74,0.0,0.0
1630611879.69966388,70128604,0.1,0.12,0.13,0.15,352.73,352.74,0.0,0.0
1630611879.79962397,70228564,0.12,0.1,0.1,0.13,352.73,352.74,0.0,0.0
1630611879.89958405,70328524,0.17,0.12,0.09,0.1,352.73,352.74,0.0,0.0
1630611879.99954391,70428484,0.18,0.15,0.06,0.07,352.73,352.74,0.0,0.0
1630611880.09950399,70528444,0.16,0.17,0.06,0.05,352.73,352.74,0.0,0.0
1630611880.19946384,70628404,0.15,0.16,0.08,0.06,352.73,352.74,0.0,0.0
1630611880.29942393,70728364,0.12,0.13,0.07,0.06,352.73,352.74,0.0,0.0
1630611880.39938402,70828324,0.1,0.11,0.05,0.04,352.73,352.74,0.0,0.0
1630611880.49934387,70928284,0.1,0.1,0.07,0.05,352.73,352.74,0.0,0.0
1630611880.59930396,71028244,0.09,0.08,0.08,0.06,352.73,352.74,0.0,0.0
1630611880.69926405,71128204,0.06,0.06,0.1,0.08,352.73,352.74,0.0,0.0
1630611880.79922390,71228164,0.04,0.03,0.09,0.08,352.73,352.74,0.0,0.0
1630611880.90001702,71328957,0.05,0.03,0.07,0.07,352.73,352.74,0.0,0.0
1630611880.99997687,71428917,0.07,0.04,0.06,0.05,352.73,352.74,0.0,0.0
1630611881.09993696,71528877,0.11,0.07,0.04,0.03,352.73,352.74,0.0,0.0
1630611881.19989705,71628837,0.12,0.1,0.06,0.03,352.73,352.74,0.0,0.0
1630611881.29985690,71728797,0.14,0.13,0.07,0.04,352.73,352.74,0.0,0.0
1630611881.39981699,71828757,0.16,0.15,0.1,0.07,352.73,352.74,0.0,0.0
1630611881.49977684,71928717,0.14,0.16,0.11,0.11,352.73,352.74,0.0,0.0
1630611881.59973693,72028677,0.08,0.11,0.06,0.1,352.73,352.74,0.0,0.0
1630611881.69969702,72128637,0.06,0.07,0.03,0.06,352.73,352.74,0.0,0.0
1630611881.79965687,72228597,0.05,0.03,0.03,0.02,352.73,352.73,0.0,0.0
1630611881.89961696,72328557,0.05,0.02,0.03,0.01,352.73,352.73,0.0,0.0
1630611881.99957705,72428517,0.08,0.04,0.04,0.01,352.73,352.73,0.0,0.0
1630611882.09953690,72528477,0.1,0.07,0.07,0.04,352.73,352.73,0.0,0.0
1630611882.19949698,72628437,0.09,0.09,0.08,0.06,352.73,352.73,0.0,0.0
1630611882.29945683,72728397,0.04,0.07,0.12,0.09,352.73,352.73,0.0,0.0
1630611882.39941692,72828357,-0.01,0.01,0.16,0.14,352.73,352.73,0.0,0.0
1630611882.49937701,72928317,-0.02,-0.04,0.14,0.16,352.73,352.73,0.0,0.0
1630611882.59933686,73028277,0.01,-0.04,0.12,0.15,352.73,352.74,0.0,0.0
1630611882.69929695,73128237,0.06,0.0,0.11,0.14,352.73,352.74,0.0,0.0
1630611882.79925704,73228197,0.08,0.03,0.09,0.12,352.73,352.74,0.0,0.0
1630611882.89921689,73328157,0.1,0.07,0.07,0.09,352.73,352.74,0.0,0.0
1630611883.00001001,73428950,0.13,0.11,0.09,0.08,352.73,352.74,0.0,0.0
1630611883.09996986,73528910,0.14,0.14,0.11,0.09,352.73,352.74,0.0,0.0
1630611883.19992995,73628870,0.14,0.14,0.11,0.1,352.73,352.74,0.0,0.0
1630611883.29989004,73728830,0.17,0.16,0.08,0.09,352.73,352.74,0.0,0.0
1630611883.39984989,73828790,0.19,0.19,0.06,0.07,352.73,352.74,0.0,0.0
1630611883.49980998,73928750,0.18,0.2,0.07,0.06,352.73,352.74,0.0,0.0
1630611883.59976983,74028710,0.15,0.18,0.08,0.07,352.73,352.74,0.0,0.0
1630611883.69972992,74128670,0.16,0.16,0.1,0.08,352.73,352.74,0.0,0.0
1630611883.79969001,74228630,0.18,0.16,0.14,0.11,352.73,352.74,0.0,0.0
1630611883.89964986,74328590,0.19,0.17,0.14,0.13,352.73,352.74,0.0,0.0
1630611883.99960995,74428550,0.18,0.17,0.12,0.13,352.73,352.74,0.0,0.0
1630611884.09957004,74528510,0.19,0.18,0.09,0.11,352.73,352.74,0.0,0.0
1630611884.19952989,74628470,0.18,0.18,0.04,0.06,352.73,352.74,0.0,0.0
1630611884.29948997,74728430,0.19,0.19,0.02,0.03,352.73,352.74,0.0,0.0
1630611884.39944983,74828390,0.19,0.19,0.01,0.0,352.73,352.74,0.0,0.0
1630611884.49940991,74928350,0.15,0.17,0.0,-0.01,352.73,352.74,0.0,0.0
1630611884.59937000,75028310,0.1,0.12,0.03,0.0,352.73,352.74,0.0,0.0
1630611884.69932985,75128270,0.1,0.09,0.04,0.01,352.73,352.74,0.0,0.0
1630611884.79928994,75228230,0.13,0.12,0.04,0.02,352.73,352.74,0.0,0.0
1630611884.89925003,75328190,0.15,0.14,0.05,0.04,352.73,352.74,0.0,0.0
1630611885.00004292,75428983,0.19,0.17,0.07,0.06,352.73,352.74,0.0,0.0
1630611885.10000300,75528943,0.21,0.21,0.07,0.07,352.73,352.73,0.0,0.0
1630611885.19996285,75628903,0.2,0.22,0.03,0.05,352.73,352.73,0.0,0.0
1630611885.29992294,75728863,0.15,0.19,0.03,0.03,352.73,352.73,0.0,0.0
1630611885.39988303,75828823,0.12,0.14,0.05,0.03,352.73,352.73,0.0,0.0
1630611885.49984288,75928783,0.13,0.11,0.05,0.03,352.73,352.73,0.0,0.0
1630611885.59980297,76028743,0.15,0.11,0.07,0.04,352.73,352.74,0.0,0.0
1630611885.69976306,76128703,0.15,0.12,0.09,0.06,352.73,352.74,0.0,0.0
1630611885.79972291,76228663,0.16,0.13,0.11,0.09,352.73,352.74,0.0,0.0
1630611885.89968300,76328623,0.19,0.16,0.1,0.1,352.73,352.74,0.0,0.0
1630611885.99964285,76428583,0.22,0.2,0.1,0.09,352.73,352.74,0.0,0.0
1630611886.09960294,76528543,0.23,0.23,0.13,0.12,352.73,352.74,0.0,0.0
1630611886.19956303,76628503,0.23,0.24,0.15,0.14,352.73,352.74,0.0,0.0
1630611886.29952288,76728463,0.2,0.22,0.14,0.15,352.73,352.74,0.0,0.0
1630611886.39948297,76828423,0.16,0.19,0.14,0.15,352.73,352.74,0.0,0.0
1630611886.49944305,76928383,0.13,0.14,0.16,0.15,352.73,352.74,0.0,0.0
1630611886.59940290,77028343,0.11,0.11,0.14,0.15,352.73,352.75,0.0,0.0
1630611886.69936299,77128303,0.14,0.11,0.13,0.14,352.73,352.74,0.0,0.0
1630611886.79932284,77228263,0.18,0.14,0.15,0.14,352.73,352.74,0.0,0.0
1630611886.89928293,77328223,0.22,0.19,0.14,0.15,352.73,352.74,0.0,0.0
1630611886.99924302,77428183,0.21,0.22,0.12,0.13,352.73,352.74,0.0,0.0
1630611887.10003591,77528976,0.17,0.19,0.13,0.13,352.73,352.73,0.0,0.0
1630611887.19999599,77628936,0.14,0.15,0.12,0.13,352.73,352.73,0.0,0.0
1630611887.29995584,77728896,0.14,0.12,0.09,0.11,352.73,352.73,0.0,0.0
1630611887.39991593,77828856,0.16,0.13,0.09,0.08,352.73,352.73,0.0,0.0
1630611887.49987602,77928816,0.17,0.15,0.12,0.09,352.73,352.73,0.0,0.0
1630611887.59983587,78028776,0.18,0.16,0.14,0.12,352.73,352.73,0.0,0.0
1630611887.69979596,78128736,0.19,0.17,0.11,0.12,352.73,352.73,0.0,0.0
1630611887.79975605,78228696,0.17,0.17,0.05,0.07,352.73,352.73,0.0,0.0
1630611887.89971590,78328656,0.13,0.16,0.01,0.01,352.73,352.73,0.0,0.0
1630611887.99967599,78428616,0.11,0.12,0.03,0.0,352.73,352.74,0.0,0.0
1630611888.09963584,78528576,0.1,0.1,0.1,0.04,352.73,352.74,0.0,0.0
1630611888.19959593,78628536,0.1,0.08,0.15,0.1,352.73,352.74,0.0,0.0
1630611888.29955602,78728496,0.08,0.07,0.18,0.16,352.73,352.74,0.0,0.0
1630611888.39951587,78828456,0.06,0.05,0.17,0.18,352.73,352.74,0.0,0.0
1630611888.49947596,78928416,0.07,0.05,0.16,0.17,352.73,352.74,0.0,0.0
1630611888.59943604,79028376,0.07,0.06,0.14,0.14,352.73,352.74,0.0,0.0
1630611888.69939590,79128336,0.09,0.06,0.12,0.12,352.73,352.74,0.0,0.0
1630611888.79935598,79228296,0.1,0.09,0.1,0.1,352.73,352.73,0.0,0.0
1630611888.89931583,79328256,0.08,0.09,0.1,0.08,352.73,352.73,0.0,0.0
1630611888.99927592,79428216,0.05,0.06,0.14,0.1,352.73,352.73,0.0,0.0
1630611889.09923601,79528176,0.04,0.04,0.17,0.14,352.73,352.73,0.0,0.0
1630611889.20002890,79628969,0.07,0.05,0.18,0.17,352.73,352.73,0.0,0.0
1630611889.29998899,79728929,0.1,0.08,0.18,0.18,352.73,352.73,0.0,0.0
1630611889.39994884,79828889,0.1,0.11,0.16,0.18,352.73,352.74,0.0,0.0
1630611889.49990892,79928849,0.06,0.1,0.13,0.16,352.73,352.74,0.0,0.0
1630611889.59986901,80028809,0.02,0.05,0.1,0.12,352.73,352.74,0.0,0.0
1630611889.69982886,80128769,0.01,0.01,0.09,0.09,352.73,352.74,0.0,0.0
1630611889.79978895,80228729,0.03,0.0,0.1,0.07,352.73,352.73,0.0,0.0
1630611889.89974904,80328689,0.06,0.01,0.13,0.08,352.73,352.73,0.0,0.0
1630611889.99970889,80428649,0.1,0.05,0.15,0.11,352.73,352.73,0.0,0.0
1630611890.09966898,80528609,0.13,0.1,0.13,0.11,352.73,352.73,0.0,0.0
1630611890.19962883,80628569,0.16,0.14,0.13,0.11,352.73,352.73,0.0,0.0
1630611890.29958892,80728529,0.19,0.18,0.14,0.12,352.73,352.74,0.0,0.0
1630611890.39954901,80828489,0.18,0.19,0.15,0.14,352.73,352.74,0.0,0.0
1630611890.49950886,80928449,0.16,0.18,0.15,0.15,352.73,352.74,0.0,0.0
1630611890.59946895,81028409,0.15,0.16,0.16,0.16,352.73,352.74,0.0,0.0
1630611890.69942904,81128369,0.14,0.15,0.14,0.15,352.73,352.74,0.0,0.0
1630611890.79938889,81228329,0.14,0.14,0.11,0.13,352.73,352.74,0.0,0.0
1630611890.89934897,81328289,0.13,0.14,0.08,0.1,352.73,352.74,0.0,0.0
1630611890.99930882,81428249,0.13,0.14,0.07,0.07,352.73,352.74,0.0,0.0
1630611891.09926891,81528209,0.15,0.14,0.09,0.06,352.73,352.74,0.0,0.0
1630611891.19922900,81628169,0.17,0.15,0.1,0.07,352.73,352.75,0.0,0.0
1630611891.30002189,81728962,0.18,0.16,0.13,0.1,352.73,352.75,0.0,0.0
1630611891.39998198,81828922,0.18,0.17,0.17,0.15,352.73,352.75,0.0,0.0
1630611891.49994183,81928882,0.17,0.16,0.2,0.2,352.73,352.74,0.0,0.0
1630611891.59990191,82028842,0.18,0.16,0.2,0.23,352.73,352.74,0.0,0.0
1630611891.69986200,82128802,0.15,0.15,0.18,0.22,352.73,352.74,0.0,0.0
1630611891.79982185,82228762,0.1,0.11,0.13,0.18,352.73,352.73,0.0,0.0
1630611891.89978194,82328722,0.1,0.08,0.08,0.12,352.73,352.73,0.0,0.0
1630611891.99974203,82428682,0.1,0.07,0.09,0.08,352.73,352.73,0.0,0.0
1630611892.09970188,82528642,0.11,0.07,0.13,0.09,352.73,352.73,0.0,0.0
1630611892.19966197,82628602,0.14,0.09,0.15,0.11,352.73,352.73,0.0,0.0
1630611892.29962206,82728562,0.16,0.12,0.16,0.14,352.73,352.73,0.0,0.0
1630611892.39958191,82828522,0.17,0.16,0.14,0.15,352.73,352.73,0.0,0.0
1630611892.49954200,82928482,0.18,0.19,0.11,0.13,352.73,352.73,0.0,0.0
1630611892.59950185,83028442,0.17,0.19,0.1,0.11,352.73,352.73,0.0,0.0
1630611892.69946194,83128402,0.12,0.16,0.09,0.09,352.73,352.73,0.0,0.0
1630611892.79942203,83228362,0.09,0.11,0.09,0.08,352.73,352.73,0.0,0.0
1630611892.89938188,83328322,0.08,0.08,0.1,0.08,352.73,352.73,0.0,0.0
1630611892.99934196,83428282,0.08,0.08,0.11,0.09,352.73,352.73,0.0,0.0
1630611893.09930205,83528242,0.08,0.07,0.14,0.11,352.73,352.74,0.0,0.0
1630611893.19926190,83628202,0.09,0.07,0.16,0.13,352.73,352.74,0.0,0.0
1630611893.29922199,83728162,0.1,0.08,0.18,0.15,352.73,352.74,0.0,0.0
1630611893.40001488,83828955,0.13,0.1,0.18,0.17,352.73,352.74,0.0,0.0
1630611893.49997497,83928915,0.15,0.12,0.17,0.17,352.73,352.74,0.0,0.0
1630611893.59993505,84028875,0.17,0.14,0.17,0.16,352.73,352.74,0.0,0.0
1630611893.69989491,84128835,0.2,0.18,0.15,0.15,352.73,352.74,0.0,0.0
1630611893.79985499,84228795,0.21,0.21,0.11,0.13,352.73,352.74,0.0,0.0
1630611893.89981484,84328755,0.18,0.21,0.11,0.11,352.73,352.74,0.0,0.0
1630611893.99977493,84428715,0.17,0.19,0.12,0.1,352.73,352.73,0.0,0.0
1630611894.09973502,84528675,0.14,0.16,0.11,0.1,352.73,352.73,0.0,0.0
1630611894.19969487,84628635,0.14,0.13,0.08,0.08,352.73,352.73,0.0,0.0
1630611894.29965496,84728595,0.14,0.12,0.06,0.06,352.73,352.73,0.0,0.0
1630611894.39961505,84828555,0.16,0.12,0.07,0.05,352.73,352.73,0.0,0.0
1630611894.49957490,84928515,0.17,0.14,0.1,0.06,352.73,352.72,0.0,0.0
1630611894.59953499,85028475,0.15,0.15,0.11,0.08,352.73,352.72,0.0,0.0
1630611894.69949484,85128435,0.13,0.14,0.15,0.12,352.73,352.72,0.0,0.0
1630611894.79945493,85228395,0.11,0.11,0.19,0.16,352.73,352.72,0.0,0.0
1630611894.89941502,85328355,0.11,0.09,0.22,0.21,352.73,352.73,0.0,0.0
1630611894.99937487,85428315,0.13,0.08,0.22,0.25,352.73,352.73,0.0,0.0
1630611895.09933496,85528275,0.17,0.12,0.17,0.23,352.73,352.73,0.0,0.0
1630611895.19929504,85628235,0.16,0.15,0.09,0.15,352.73,352.73,0.0,0.0
1630611895.29925489,85728195,0.14,0.15,0.05,0.07,352.73,352.73,0.0,0.0
1630611895.39921498,85828155,0.13,0.14,0.04,0.02,352.73,352.73,0.0,0.0
1630611895.50000787,85928948,0.13,0.14,0.06,0.02,352.73,352.73,0.0,0.0
1630611895.59996796,86028908,0.13,0.13,0.08,0.03,352.73,352.73,0.0,0.0
1630611895.69992805,86128868,0.12,0.12,0.11,0.07,352.73,352.73,0.0,0.0
1630611895.79988790,86228828,0.14,0.12,0.13,0.11,352.73,352.73,0.0,0.0
1630611895.89984798,86328788,0.16,0.13,0.11,0.12,352.73,352.73,0.0,0.0
1630611895.99980783,86428748,0.17,0.15,0.11,0.11,352.73,352.73,0.0,0.0
1630611896.09976792,86528708,0.17,0.17,0.07,0.09,352.73,352.73,0.0,0.0
1630611896.19972801,86628668,0.15,0.16,0.05,0.06,352.73,352.73,0.0,0.0
1630611896.29968786,86728628,0.1,0.12,0.1,0.07,352.73,352.73,0.0,0.0
1630611896.39964795,86828588,0.05,0.07,0.13,0.1,352.73,352.73,0.0,0.0
1630611896.49960804,86928548,0.04,0.02,0.14,0.14,352.73,352.73,0.0,0.0
1630611896.59956789,87028508,0.07,0.01,0.12,0.14,352.73,352.73,0.0,0.0
1630611896.69952798,87128468,0.13,0.06,0.12,0.15,352.73,352.73,0.0,0.0
1630611896.79948783,87228428,0.18,0.14,0.13,0.14,352.73,352.73,0.0,0.0
1630611896.89944792,87328388,0.16,0.17,0.1,0.12,352.73,352.73,0.0,0.0
1630611896.99940801,87428348,0.15,0.17,0.07,0.07,352.73,352.73,0.0,0.0
1630611897.09936786,87528308,0.13,0.16,0.04,0.03,352.73,352.73,0.0,0.0
1630611897.19932795,87628268,0.12,0.13,0.05,0.01,352.73,352.74,0.0,0.0
1630611897.29928803,87728228,0.12,0.12,0.07,0.02,352.73,352.74,0.0,0.0
1630611897.39924788,87828188,0.13,0.11,0.11,0.06,352.73,352.74,0.0,0.0
1630611897.50004101,87928981,0.09,0.1,0.14,0.11,352.73,352.74,0.0,0.0
1630611897.60000086,88028941,0.06,0.07,0.14,0.14,352.73,352.74,0.0,0.0
1630611897.69996095,88128901,0.06,0.04,0.14,0.15,352.73,352.74,0.0,0.0
1630611897.79992104,88228861,0.1,0.05,0.14,0.15,352.73,352.74,0.0,0.0
1630611897.89988089,88328821,0.11,0.08,0.14,0.14,352.73,352.74,0.0,0.0
1630611897.99984097,88428781,0.12,0.11,0.11,0.13,352.73,352.74,0.0,0.0
1630611898.09980083,88528741,0.11,0.12,0.1,0.11,352.73,352.74,0.0,0.0
1630611898.19976091,88628701,0.08,0.1,0.1,0.1,352.73,352.74,0.0,0.0
1630611898.29972100,88728661,0.09,0.08,0.08,0.08,352.73,352.74,0.0,0.0
1630611898.39968085,88828621,0.1,0.08,0.08,0.07,352.73,352.74,0.0,0.0
1630611898.49964094,88928581,0.12,0.09,0.13,0.08,352.73,352.74,0.0,0.0
1630611898.59960103,89028541,0.16,0.12,0.17,0.13,352.73,352.74,0.0,0.0
1630611898.69956088,89128501,0.2,0.17,0.19,0.17,352.73,352.73,0.0,0.0
1630611898.79952097,89228461,0.21,0.2,0.19,0.19,352.73,352.73,0.0,0.0
1630611898.89948106,89328421,0.19,0.21,0.19,0.19,352.73,352.73,0.0,0.0
1630611898.99944091,89428381,0.17,0.2,0.18,0.19,352.73,352.73,0.0,0.0
1630611899.09940100,89528341,0.17,0.18,0.17,0.18,352.73,352.73,0.0,0.0
1630611899.19936085,89628301,0.19,0.18,0.15,0.16,352.73,352.73,0.0,0.0
1630611899.29932094,89728261,0.17,0.18,0.16,0.15,352.73,352.73,0.0,0.0
1630611899.39928102,89828221,0.14,0.15,0.17,0.15,352.73,352.73,0.0,0.0
1630611899.49924088,89928181,0.15,0.14,0.18,0.16,352.73,352.73,0.0,0.0
1630611899.60003400,90028974,0.18,0.15,0.18,0.17,352.73,352.73,0.0,0.0
1630611899.69999385,90128934,0.19,0.16,0.17,0.18,352.73,352.74,0.0,0.0
1630611899.79995394,90228894,0.2,0.17,0.18,0.18,352.73,352.74,0.0,0.0
1630611899.89991403,90328854,0.22,0.2,0.18,0.18,352.73,352.74,0.0,0.0
1630611899.99987388,90428814,0.19,0.19,0.19,0.17,352.73,352.74,0.0,0.0
1630611900.09983397,90528774,0.17,0.17,0.19,0.18,352.73,352.73,0.0,0.0
1630611900.19979405,90628734,0.16,0.16,0.17,0.16,352.73,352.73,0.0,0.0
1630611900.29975390,90728694,0.15,0.14,0.15,0.14,352.73,352.73,0.0,0.0
1630611900.39971399,90828654,0.17,0.15,0.13,0.12,352.73,352.73,0.0,0.0
1630611900.49967384,90928614,0.19,0.18,0.14,0.1,352.73,352.73,0.0,0.0
1630611900.59963393,91028574,0.17,0.2,0.16,0.12,352.73,352.73,0.0,0.0
1630611900.69959402,91128534,0.11,0.16,0.17,0.13,352.73,352.73,0.0,0.0
1630611900.79955387,91228494,0.06,0.09,0.2,0.16,352.73,352.73,0.0,0.0
1630611900.89951396,91328454,0.07,0.04,0.2,0.19,352.73,352.73,0.0,0.0
1630611900.99947405,91428414,0.07,0.03,0.17,0.18,352.73,352.73,0.0,0.0
1630611901.09943390,91528374,0.07,0.04,0.14,0.17,352.73,352.73,0.0,0.0
1630611901.19939399,91628334,0.09,0.05,0.13,0.14,352.73,352.73,0.0,0.0
1630611901.29935384,91728294,0.09,0.07,0.15,0.14,352.73,352.73,0.0,0.0
1630611901.39931393,91828254,0.11,0.09,0.14,0.14,352.73,352.73,0.0,0.0
1630611901.49927402,91928214,0.16,0.14,0.12,0.13,352.73,352.73,0.0,0.0
1630611901.59923387,92028174,0.19,0.18,0.11,0.11,352.73,352.73,0.0,0.0
1630611901.70002699,92128967,0.17,0.2,0.11,0.1,352.73,352.73,0.0,0.0
1630611901.79998684,92228927,0.16,0.18,0.13,0.11,352.73,352.73,0.0,0.0
1630611901.89994693,92328887,0.16,0.17,0.17,0.14,352.73,352.73,0.0,0.0
1630611901.99990702,92428847,0.17,0.16,0.17,0.16,352.73,352.73,0.0,0.0
1630611902.09986687,92528807,0.18,0.16,0.15,0.16,352.73,352.73,0.0,0.0
1630611902.19982696,92628767,0.18,0.16,0.16,0.16,352.73,352.73,0.0,0.0
1630611902.29978704,92728727,0.19,0.17,0.17,0.17,352.73,352.73,0.0,0.0
1630611902.39974689,92828687,0.17,0.17,0.11,0.13,352.73,352.73,0.0,0.0
1630611902.49970698,92928647,0.17,0.16,0.07,0.09,352.73,352.73,0.0,0.0
1630611902.59966683,93028607,0.18,0.16,0.07,0.06,352.73,352.74,0.0,0.0
1630611902.69962692,93128567,0.16,0.15,0.06,0.04,352.73,352.74,0.0,0.0
1630611902.79958701,93228527,0.15,0.14,0.09,0.05,352.73,352.74,0.0,0.0
1630611902.89954686,93328487,0.15,0.14,0.11,0.08,352.73,352.74,0.0,0.0
1630611902.99950695,93428447,0.18,0.15,0.11,0.1,352.73,352.74,0.0,0.0
1630611903.09946704,93528407,0.22,0.19,0.1,0.1,352.73,352.74,0.0,0.0
1630611903.19942689,93628367,0.2,0.2,0.09,0.1,352.73,352.74,0.0,0.0
1630611903.29938698,93728327,0.17,0.18,0.09,0.1,352.73,352.73,0.0,0.0
1630611903.39934683,93828287,0.16,0.16,0.11,0.1,352.73,352.73,0.0,0.0
1630611903.49930692,93928247,0.17,0.16,0.11,0.1,352.73,352.73,0.0,0.0
1630611903.59926701,94028207,0.17,0.16,0.12,0.11,352.73,352.73,0.0,0.0
1630611903.69922686,94128167,0.18,0.16,0.13,0.12,352.73,352.73,0.0,0.0
1630611903.80001998,94228960,0.2,0.17,0.14,0.14,352.73,352.73,0.0,0.0
1630611903.89997983,94328920,0.24,0.2,0.15,0.14,352.73,352.73,0.0,0.0
1630611903.99993992,94428880,0.25,0.23,0.16,0.15,352.73,352.73,0.0,0.0
1630611904.09990001,94528840,0.23,0.24,0.17,0.16,352.73,352.73,0.0,0.0
1630611904.19985986,94628800,0.21,0.23,0.18,0.17,352.73,352.73,0.0,0.0
1630611904.29981995,94728760,0.21,0.21,0.16,0.17,352.73,352.73,0.0,0.0
1630611904.39978004,94828720,0.22,0.21,0.13,0.14,352.73,352.73,0.0,0.0
1630611904.49973989,94928680,0.22,0.2,0.1,0.11,352.73,352.73,0.0,0.0
1630611904.59969997,95028640,0.2,0.19,0.1,0.08,352.73,352.73,0.0,0.0
1630611904.69965982,95128600,0.18,0.18,0.1,0.07,352.73,352.73,0.0,0.0
1630611904.79961991,95228560,0.16,0.16,0.09,0.07,352.73,352.73,0.0,0.0
1630611904.89958000,95328520,0.17,0.15,0.11,0.08,352.73,352.73,0.0,0.0
1630611904.99953985,95428480,0.2,0.16,0.12,0.09,352.73,352.74,0.0,0.0
1630611905.09949994,95528440,0.19,0.18,0.16,0.13,352.73,352.74,0.0,0.0
1630611905.19946003,95628400,0.16,0.17,0.21,0.18,352.73,352.74,0.0,0.0
1630611905.29941988,95728360,0.14,0.15,0.23,0.22,352.73,352.74,0.0,0.0
1630611905.39937997,95828320,0.12,0.12,0.24,0.24,352.73,352.74,0.0,0.0
1630611905.49934006,95928280,0.12,0.11,0.21,0.24,352.73,352.74,0.0,0.0
1630611905.59929991,96028240,0.14,0.11,0.16,0.2,352.73,352.74,0.0,0.0
1630611905.69926000,96128200,0.16,0.14,0.14,0.15,352.73,352.74,0.0,0.0
1630611905.79921985,96228160,0.15,0.15,0.16,0.14,352.73,352.73,0.0,0.0
1630611905.90001297,96328953,0.17,0.16,0.18,0.15,352.73,352.73,0.0,0.0
1630611905.99997306,96428913,0.19,0.18,0.2,0.17,352.73,352.73,0.0,0.0
1630611906.09993291,96528873,0.21,0.2,0.23,0.21,352.73,352.73,0.0,0.0
1630611906.19989300,96628833,0.24,0.22,0.24,0.23,352.73,352.73,0.0,0.0
1630611906.29985285,96728793,0.25,0.24,0.26,0.25,352.73,352.73,0.0,0.0
1630611906.39981294,96828753,0.25,0.25,0.25,0.25,352.73,352.73,0.0,0.0
1630611906.49977303,96928713,0.22,0.24,0.26,0.26,352.73,352.73,0.0,0.0
1630611906.59973288,97028673,0.18,0.2,0.24,0.25,352.73,352.73,0.0,0.0
1630611906.69969296,97128633,0.15,0.15,0.23,0.23,352.73,352.73,0.0,0.0
1630611906.79965305,97228593,0.14,0.13,0.21,0.21,352.73,352.73,0.0,0.0
1630611906.89961290,97328553,0.15,0.13,0.22,0.2,352.73,352.73,0.0,0.0
1630611906.99957299,97428513,0.13,0.12,0.23,0.21,352.73,352.73,0.0,0.0
1630611907.09953284,97528473,0.12,0.11,0.22,0.21,352.73,352.73,0.0,0.0
1630611907.19949293,97628433,0.13,0.11,0.23,0.22,352.73,352.73,0.0,0.0
1630611907.29945302,97728393,0.13,0.12,0.22,0.22,352.73,352.73,0.0,0.0
1630611907.39941287,97828353,0.13,0.12,0.21,0.21,352.73,352.73,0.0,0.0
1630611907.49937296,97928313,0.13,0.12,0.17,0.19,352.73,352.73,0.0,0.0
1630611907.59933305,98028273,0.14,0.12,0.13,0.14,352.73,352.73,0.0,0.0
1630611907.69929290,98128233,0.15,0.14,0.12,0.1,352.73,352.73,0.0,0.0
1630611907.79925299,98228193,0.13,0.13,0.13,0.1,352.73,352.73,0.0,0.0
1630611907.90004587,98328986,0.12,0.11,0.13,0.11,352.73,352.73,0.0,0.0
1630611908.00000596,98428946,0.11,0.1,0.15,0.13,352.73,352.73,0.0,0.0
1630611908.09996605,98528906,0.11,0.09,0.16,0.16,352.73,352.73,0.0,0.0
1630611908.19992590,98628866,0.11,0.09,0.15,0.16,352.73,352.73,0.0,0.0
1630611908.29988599,98728826,0.11,0.1,0.13,0.15,352.73,352.73,0.0,0.0
1630611908.39984584,98828786,0.1,0.1,0.12,0.13,352.73,352.73,0.0,0.0
1630611908.49980593,98928746,0.11,0.09,0.1,0.11,352.73,352.73,0.0,0.0
1630611908.59976602,99028706,0.12,0.11,0.09,0.09,352.73,352.73,0.0,0.0
1630611908.69972587,99128666,0.11,0.11,0.08,0.08,352.73,352.73,0.0,0.0
1630611908.79968596,99228626,0.12,0.11,0.08,0.07,352.73,352.73,0.0,0.0
1630611908.89964604,99328586,0.13,0.12,0.1,0.08,352.73,352.73,0.0,0.0
1630611908.99960589,99428546,0.13,0.12,0.12,0.09,352.73,352.73,0.0,0.0
1630611909.09956598,99528506,0.15,0.14,0.1,0.1,352.73,352.73,0.0,0.0
1630611909.19952583,99628466,0.16,0.15,0.1,0.09,352.73,352.73,0.0,0.0
1630611909.29948592,99728426,0.17,0.16,0.11,0.1,352.73,352.74,0.0,0.0
1630611909.39944601,99828386,0.19,0.17,0.14,0.11,352.73,352.74,0.0,0.0
1630611909.49940586,99928346,0.19,0.19,0.15,0.13,352.73,352.74,0.0,0.0
1630611909.59936595,100028306,0.16,0.18,0.13,0.14,352.73,352.74,0.0,0.0
1630611909.69932604,100128266,0.13,0.16,0.13,0.14,352.73,352.74,0.0,0.0
1630611909.79928589,100228226,0.12,0.13,0.11,0.13,352.73,352.73,0.0,0.0
1630611909.89924598,100328186,0.13,0.12,0.1,0.11,352.73,352.73,0.0,0.0
1630611910.00003886,100428979,0.13,0.12,0.12,0.1,352.73,352.73,0.0,0.0
1630611910.09999895,100528939,0.14,0.13,0.16,0.11,352.73,352.73,0.0,0.0
1630611910.19995904,100628899,0.12,0.12,0.19,0.15,352.73,352.73,0.0,0.0
1630611910.29991889,100728859,0.12,0.11,0.18,0.17,352.73,352.73,0.0,0.0
1630611910.39987898,100828819,0.13,0.11,0.16,0.15,352.73,352.73,0.0,0.0
1630611910.49983883,100928779,0.16,0.14,0.15,0.14,352.73,352.73,0.0,0.0
1630611910.59979892,101028739,0.15,0.16,0.15,0.13,352.73,352.73,0.0,0.0
1630611910.69975901,101128699,0.13,0.14,0.17,0.14,352.73,352.73,0.0,0.0
1630611910.79971886,101228659,0.14,0.13,0.18,0.15,352.73,352.73,0.0,0.0
1630611910.89967895,101328619,0.16,0.13,0.17,0.16,352.73,352.73,0.0,0.0
1630611910.99963903,101428579,0.17,0.14,0.15,0.16,352.73,352.73,0.0,0.0
1630611911.09959888,101528539,0.16,0.15,0.14,0.15,352.73,352.73,0.0,0.0
1630611911.19955897,101628499,0.13,0.12,0.12,0.13,352.73,352.74,0.0,0.0
1630611911.29951882,101728459,0.14,0.11,0.14,0.12,352.73,352.74,0.0,0.0
1630611911.39947891,101828419,0.16,0.11,0.18,0.14,352.73,352.74,0.0,0.0
1630611911.49943900,101928379,0.2,0.15,0.23,0.2,352.73,352.74,0.0,0.0
1630611911.59939885,102028339,0.24,0.19,0.25,0.25,352.73,352.74,0.0,0.0
1630611911.69935894,102128299,0.25,0.23,0.23,0.25,352.73,352.74,0.0,0.0
1630611911.79931903,102228259,0.25,0.24,0.19,0.22,352.73,352.74,0.0,0.0
1630611911.89927888,102328219,0.24,0.25,0.15,0.18,352.73,352.73,0.0,0.0
1630611911.99923897,102428179,0.21,0.22,0.12,0.13,352.73,352.73,0.0,0.0
1630611912.10003185,102528972,0.17,0.18,0.12,0.1,352.73,352.73,0.0,0.0
1630611912.19999194,102628932,0.15,0.15,0.14,0.11,352.73,352.73,0.0,0.0
1630611912.29995203,102728892,0.14,0.12,0.15,0.13,352.73,352.73,0.0,0.0
1630611912.39991188,102828852,0.15,0.12,0.17,0.15,352.73,352.73,0.0,0.0
1630611912.49987197,102928812,0.18,0.15,0.17,0.17,352.73,352.73,0.0,0.0
1630611912.59983206,103028772,0.2,0.18,0.14,0.16,352.73,352.73,0.0,0.0
1630611912.69979191,103128732,0.22,0.2,0.13,0.15,352.73,352.73,0.0,0.0
1630611912.79975200,103228692,0.22,0.22,0.12,0.13,352.73,352.73,0.0,0.0
1630611912.89971185,103328652,0.22,0.22,0.13,0.13,352.73,352.73,0.0,0.0
1630611912.99967194,103428612,0.23,0.23,0.14,0.13,352.73,352.73,0.0,0.0
1630611913.09963202,103528572,0.25,0.24,0.16,0.14,352.73,352.73,0.0,0.0
1630611913.19959188,103628532,0.25,0.25,0.16,0.15,352.73,352.73,0.0,0.0
1630611913.29955196,103728492,0.22,0.23,0.18,0.16,352.73,352.73,0.0,0.0
1630611913.39951205,103828452,0.21,0.2,0.21,0.18,352.73,352.74,0.0,0.0
1630611913.49947190,103928412,0.21,0.19,0.24,0.21,352.73,352.74,0.0,0.0
1630611913.59943199,104028372,0.21,0.18,0.24,0.23,352.73,352.74,0.0,0.0
1630611913.69939184,104128332,0.22,0.19,0.23,0.24,352.73,352.74,0.0,0.0
1630611913.79935193,104228292,0.22,0.2,0.22,0.23,352.73,352.74,0.0,0.0
1630611913.89931202,104328252,0.21,0.21,0.2,0.21,352.73,352.74,0.0,0.0
1630611913.99927187,104428212,0.21,0.21,0.18,0.19,352.73,352.74,0.0,0.0
1630611914.09923196,104528172,0.2,0.2,0.17,0.17,352.73,352.73,0.0,0.0
1630611914.20002484,104628965,0.17,0.18,0.2,0.16,352.73,352.73,0.0,0.0
1630611914.29998493,104728925,0.15,0.15,0.22,0.19,352.73,352.73,0.0,0.0
1630611914.39994502,104828885,0.12,0.12,0.22,0.2,352.73,352.73,0.0,0.0
1630611914.49990487,104928845,0.12,0.1,0.22,0.21,352.73,352.73,0.0,0.0
1630611914.59986496,105028805,0.15,0.11,0.21,0.21,352.73,352.73,0.0,0.0
1630611914.69982505,105128765,0.2,0.16,0.22,0.21,352.73,352.74,0.0,0.0
1630611914.79978490,105228725,0.22,0.2,0.22,0.21,352.73,352.74,0.0,0.0
1630611914.89974499,105328685,0.23,0.23,0.21,0.2,352.73,352.74,0.0,0.0
1630611914.99970484,105428645,0.2,0.22,0.2,0.2,352.73,352.74,0.0,0.0
1630611915.09966493,105528605,0.17,0.2,0.19,0.18,352.73,352.74,0.0,0.0
1630611915.19962502,105628565,0.18,0.17,0.17,0.16,352.73,352.74,0.0,0.0
1630611915.29958487,105728525,0.2,0.17,0.19,0.16,352.73,352.74,0.0,0.0
1630611915.39954495,105828485,0.23,0.19,0.21,0.18,352.73,352.74,0.0,0.0
1630611915.49950504,105928445,0.24,0.22,0.23,0.21,352.73,352.73,0.0,0.0
1630611915.59946489,106028405,0.22,0.23,0.23,0.22,352.73,352.73,0.0,0.0
1630611915.69942498,106128365,0.21,0.22,0.2,0.21,352.73,352.73,0.0,0.0
1630611915.79938483,106228325,0.21,0.2,0.14,0.15,352.73,352.73,0.0,0.0
1630611915.89934492,106328285,0.2,0.2,0.11,0.11,352.73,352.73,0.0,0.0
1630611915.99930501,106428245,0.21,0.19,0.09,0.08,352.73,352.73,0.0,0.0
1630611916.09926486,106528205,0.21,0.2,0.11,0.08,352.73,352.73,0.0,0.0
1630611916.19922495,106628165,0.21,0.19,0.13,0.1,352.73,352.73,0.0,0.0
1630611916.30001783,106728958,0.21,0.19,0.18,0.14,352.73,352.73,0.0,0.0
1630611916.39997792,106828918,0.22,0.2,0.2,0.18,352.73,352.73,0.0,0.0
1630611916.49993801,106928878,0.22,0.2,0.2,0.2,352.73,352.73,0.0,0.0
1630611916.59989786,107028838,0.2,0.2,0.16,0.17,352.73,352.73,0.0,0.0
1630611916.69985795,107128798,0.18,0.19,0.13,0.14,352.73,352.73,0.0,0.0
1630611916.79981804,107228758,0.17,0.17,0.11,0.1,352.73,352.73,0.0,0.0
1630611916.89977789,107328718,0.15,0.15,0.12,0.09,352.73,352.73,0.0,0.0
1630611916.99973798,107428678,0.12,0.13,0.13,0.09,352.73,352.73,0.0,0.0
1630611917.09969783,107528638,0.12,0.11,0.15,0.11,352.73,352.73,0.0,0.0
1630611917.19965792,107628598,0.14,0.12,0.17,0.14,352.73,352.73,0.0,0.0
1630611917.29961801,107728558,0.14,0.13,0.18,0.17,352.73,352.73,0.0,0.0
1630611917.39957786,107828518,0.13,0.13,0.18,0.19,352.73,352.73,0.0,0.0
1630611917.49953794,107928478,0.1,0.11,0.19,0.2,352.73,352.74,0.0,0.0
1630611917.59949803,108028438,0.09,0.09,0.17,0.2,352.73,352.74,0.0,0.0
1630611917.69945788,108128398,0.1,0.09,0.15,0.18,352.73,352.74,0.0,0.0
1630611917.79941797,108228358,0.11,0.09,0.13,0.14,352.73,352.74,0.0,0.0
1630611917.89937806,108328318,0.1,0.09,0.13,0.11,352.73,352.74,0.0,0.0
1630611917.99933791,108428278,0.14,0.1,0.13,0.1,352.73,352.74,0.0,0.0
1630611918.09929800,108528238,0.18,0.15,0.13,0.1,352.73,352.74,0.0,0.0
1630611918.19925785,108628198,0.19,0.19,0.15,0.12,352.73,352.74,0.0,0.0
1630611918.29921794,108728158,0.18,0.2,0.17,0.15,352.73,352.73,0.0,0.0
1630611918.40001082,108828951,0.17,0.18,0.2,0.18,352.73,352.73,0.0,0.0
1630611918.49997091,108928911,0.14,0.16,0.22,0.21,352.73,352.73,0.0,0.0
1630611918.59993100,109028871,0.12,0.12,0.23,0.23,352.73,352.73,0.0,0.0
1630611918.69989085,109128831,0.14,0.11,0.23,0.24,352.73,352.73,0.0,0.0
1630611918.79985094,109228791,0.16,0.13,0.22,0.23,352.73,352.73,0.0,0.0
1630611918.89981103,109328751,0.19,0.16,0.19,0.2,352.73,352.73,0.0,0.0
1630611918.99977088,109428711,0.23,0.2,0.16,0.17,352.73,352.73,0.0,0.0
1630611919.09973097,109528671,0.26,0.24,0.16,0.15,352.73,352.73,0.0,0.0
1630611919.19969106,109628631,0.27,0.26,0.2,0.16,352.73,352.73,0.0,0.0
1630611919.29965091,109728591,0.27,0.27,0.25,0.2,352.73,352.73,0.0,0.0
1630611919.39961100,109828551,0.27,0.26,0.25,0.24,352.73,352.73,0.0,0.0
1630611919.49957085,109928511,0.27,0.26,0.22,0.24,352.73,352.73,0.0,0.0
1630611919.59953094,110028471,0.27,0.26,0.18,0.2,352.73,352.72,0.0,0.0
1630611919.69949102,110128431,0.28,0.26,0.15,0.16,352.73,352.72,0.0,0.0
1630611919.79945087,110228391,0.29,0.27,0.12,0.12,352.73,352.72,0.0,0.0
1630611919.89941096,110328351,0.27,0.27,0.11,0.08,352.73,352.72,0.0,0.0
1630611919.99937105,110428311,0.25,0.25,0.13,0.09,352.73,352.72,0.0,0.0
1630611920.09933090,110528271,0.24,0.23,0.16,0.12,352.73,352.73,0.0,0.0
1630611920.19929099,110628231,0.22,0.21,0.17,0.14,352.73,352.73,0.0,0.0
1630611920.29925084,110728191,0.2,0.19,0.18,0.16,352.73,352.73,0.0,0.0
1630611920.40004396,110828984,0.18,0.17,0.19,0.18,352.73,352.73,0.0,0.0
1630611920.50000405,110928944,0.16,0.15,0.21,0.2,352.73,352.73,0.0,0.0
1630611920.59996390,111028904,0.15,0.14,0.23,0.22,352.73,352.74,0.0,0.0
1630611920.69992399,111128864,0.15,0.13,0.22,0.22,352.73,352.74,0.0,0.0
1630611920.79988384,111228824,0.16,0.13,0.2,0.21,352.73,352.74,0.0,0.0
1630611920.89984393,111328784,0.18,0.15,0.19,0.2,352.73,352.74,0.0,0.0
1630611920.99980402,111428744,0.18,0.17,0.19,0.18,352.73,352.74,0.0,0.0
1630611921.09976387,111528704,0.16,0.17,0.19,0.18,352.73,352.74,0.0,0.0
1630611921.19972396,111628664,0.13,0.14,0.21,0.18,352.73,352.73,0.0,0.0
1630611921.29968405,111728624,0.14,0.13,0.22,0.2,352.73,352.73,0.0,0.0
1630611921.39964390,111828584,0.16,0.13,0.23,0.21,352.73,352.73,0.0,0.0
1630611921.49960399,111928544,0.16,0.14,0.22,0.21,352.73,352.73,0.0,0.0
1630611921.59956384,112028504,0.16,0.14,0.19,0.19,352.73,352.73,0.0,0.0
1630611921.69952393,112128464,0.17,0.15,0.17,0.17,352.73,352.73,0.0,0.0
1630611921.79948401,112228424,0.19,0.17,0.18,0.16,352.73,352.73,0.0,0.0
1630611921.89944386,112328384,0.21,0.19,0.2,0.17,352.73,352.73,0.0,0.0
1630611921.99940395,112428344,0.23,0.21,0.19,0.18,352.73,352.74,0.0,0.0
1630611922.09936404,112528304,0.24,0.23,0.16,0.17,352.73,352.74,0.0,0.0
1630611922.19932389,112628264,0.22,0.22,0.13,0.14,352.73,352.74,0.0,0.0
1630611922.29928398,112728224,0.19,0.2,0.12,0.12,352.73,352.74,0.0,0.0
1630611922.39924383,112828184,0.17,0.17,0.12,0.11,352.73,352.74,0.0,0.0
1630611922.50003695,112928977,0.17,0.16,0.13,0.11,352.73,352.74,0.0,0.0
1630611922.59999704,113028937,0.18,0.16,0.13,0.11,352.73,352.74,0.0,0.0
1630611922.69995689,113128897,0.19,0.18,0.12,0.11,352.73,352.74,0.0,0.0
1630611922.79991698,113228857,0.2,0.19,0.12,0.11,352.73,352.73,0.0,0.0
1630611922.89987683,113328817,0.2,0.2,0.14,0.13,352.73,352.73,0.0,0.0
1630611922.99983692,113428777,0.17,0.19,0.15,0.14,352.73,352.73,0.0,0.0
1630611923.09979701,113528737,0.13,0.16,0.15,0.16,352.73,352.73,0.0,0.0
1630611923.19975686,113628697,0.09,0.12,0.17,0.17,352.73,352.73,0.0,0.0
1630611923.29971695,113728657,0.07,0.08,0.19,0.18,352.73,352.73,0.0,0.0
1630611923.39967704,113828617,0.09,0.06,0.2,0.19,352.73,352.73,0.0,0.0
1630611923.49963689,113928577,0.14,0.09,0.21,0.21,352.73,352.73,0.0,0.0
1630611923.59959698,114028537,0.18,0.14,0.22,0.22,352.73,352.72,0.0,0.0
1630611923.69955683,114128497,0.18,0.16,0.23,0.23,352.73,352.72,0.0,0.0
1630611923.79951692,114228457,0.35,0.25,0.24,0.24,352.73,352.72,0.0,0.0
1630611923.89947701,114328417,0.77,0.54,0.27,0.26,352.73,352.72,0.0,0.0
1630611923.99943686,114428377,1.44,1.12,0.32,0.3,352.73,352.73,0.0,0.0
1630611924.09939694,114528337,2.3,1.96,0.39,0.35,352.73,352.73,0.0,0.0
1630611924.19935703,114628297,3.24,2.97,0.49,0.43,352.73,352.74,0.0,0.0
1630611924.29931688,114728257,4.17,4.04,0.61,0.55,352.73,352.74,0.0,0.01
1630611924.39927697,114828217,4.93,4.99,0.72,0.67,352.73,352.75,0.0,0.01
1630611924.49923706,114928177,5.51,5.73,0.83,0.81,352.73,352.75,0.0,0.01
1630611924.60002995,115028970,5.97,6.24,0.93,0.92,352.73,352.76,0.0,0.01
1630611924.69999003,115128930,6.4,6.63,0.98,1.0,352.73,352.75,0.0,0.01
1630611924.79994988,115228890,6.84,6.98,1.03,1.05,352.73,352.75,0.0,0.01
1630611924.89990997,115328850,7.3,7.36,1.08,1.1,352.73,352.75,0.0,0.01
1630611924.99986982,115428810,7.7,7.74,1.12,1.14,352.73,352.74,0.0,0.01
1630611925.09982991,115528770,7.99,8.08,1.13,1.15,352.73,352.74,0.0,0.01
1630611925.19979000,115628730,8.18,8.29,1.14,1.15,352.73,352.73,0.0,0.0
1630611925.29974985,115728690,8.33,8.44,1.17,1.16,352.73,352.73,0.0,0.0
1630611925.39970994,115828650,8.5,8.55,1.21,1.2,352.73,352.73,0.0,0.0
1630611925.49967003,115928610,8.74,8.71,1.23,1.25,353.24,352.74,0.0,0.0
1630611925.59962988,116028570,9.05,8.92,1.25,1.51,356.28,352.95,0.0,0.0
1630611925.69958997,116128530,9.42,9.21,1.19,2.05,1.82,353.97,0.0,0.0
1630611925.79955006,116228490,9.9,9.63,0.87,2.48,7.82,356.46,0.0,0.0
1630611925.89950991,116328450,10.39,10.2,0.16,2.38,13.82,0.6,0.0,0.01
1630611925.99947000,116428410,10.77,10.77,-1.01,1.56,19.82,6.24,0.0,0.02
1630611926.09942985,116528370,10.94,11.18,-2.62,0.0,25.82,13.05,0.0,0.03
1630611926.19938993,116628330,10.84,11.26,-4.5,-2.14,31.82,20.75,0.0,0.03
1630611926.29935002,116728290,10.4,10.94,-6.44,-4.62,37.82,29.08,0.0,0.04
1630611926.39930987,116828250,9.6,10.12,-8.29,-7.13,43.82,37.8,0.0,0.05
1630611926.49926996,116928210,8.5,8.82,-9.96,-9.45,49.82,46.66,0.0,0.05
1630611926.59923005,117028170,7.17,7.12,-11.39,-11.4,55.82,55.38,0.0,0.05
1630611926.70002294,117128963,5.72,5.21,-12.51,-12.86,61.82,63.69,0.0,0.06
1630611926.79998302,117228923,4.21,3.29,-13.38,-13.84,67.82,71.38,0.0,0.06
1630611926.89994287,117328883,2.76,1.52,-14.07,-14.43,73.82,78.33,0.0,0.05
1630611926.99990296,117428843,1.37,0.02,-14.57,-14.77,79.81,84.54,0.0,0.05
1630611927.09986305,117528803,0.06,-1.36,-14.84,-14.91,84.2,90.06,0.0,0.05
1630611927.19982290,117628763,-1.13,-2.93,-14.98,-14.9,86.51,94.7,0.0,0.04
1630611927.29978299,117728723,-2.08,-4.43,-15.04,-14.8,87.73,98.08,0.0,0.04
1630611927.39974284,117828683,-2.65,-5.54,-15.11,-14.67,88.4,100.02,0.0,0.03
1630611927.49970293,117928643,-2.77,-5.96,-15.24,-14.62,88.8,100.57,0.0,0.02
1630611927.59966302,118028603,-2.42,-5.62,-15.42,-14.69,89.09,99.95,0.0,0.02
1630611927.69962287,118128563,-1.76,-4.6,-15.64,-14.9,89.32,98.43,0.0,0.02
1630611927.79958296,118228523,-5.41,-4.8,-14.69,-14.94,89.55,96.28,0.0,0.02
1630611927.89954305,118328483,-11.83,-10.11,-14.01,-14.75,89.77,93.8,0.0,0.02
1630611927.99950290,118428443,-11.5,-12.98,-14.5,-14.96,90.03,91.4,0.0,0.03
1630611928.09946299,118528403,-8.23,-11.53,-15.22,-15.53,90.35,89.4,0.0,0.03
1630611928.19942284,118628363,-4.52,-7.34,-15.77,-16.17,90.78,87.93,0.0,0.02
1630611928.29938293,118728323,-1.74,-2.62,-16.07,-16.62,91.28,87.09,0.0,0.02
1630611928.39934301,118828283,-0.39,0.87,-16.19,-16.79,91.82,86.94,0.0,0.02
1630611928.49930286,118928243,-0.33,2.39,-16.23,-16.75,92.35,87.48,0.0,0.02
1630611928.59926295,119028203,-1.11,2.06,-16.24,-16.6,92.86,88.57,0.0,0.02
1630611928.69922304,119128163,-2.18,0.52,-16.25,-16.43,93.31,90.06,0.0,0.01
1630611928.80001593,119228956,-3.1,-1.42,-16.27,-16.29,93.72,91.74,0.0,0.01
1630611928.89997602,119328916,-3.63,-3.1,-16.26,-16.18,94.09,93.43,0.0,0.01
1630611928.99993587,119428876,-3.73,-4.15,-16.29,-16.12,94.44,94.98,0.0,0.01
1630611929.09989595,119528836,-3.56,-4.53,-16.4,-16.15,94.78,96.28,0.0,0.01
1630611929.19985604,119628796,-3.31,-4.44,-16.51,-16.25,95.12,97.25,0.0,0.01
1630611929.29981589,119728756,-3.06,-4.11,-16.59,-16.37,95.46,97.89,0.0,0.0
1630611929.39977598,119828716,-2.85,-3.71,-16.62,-16.46,95.8,98.21,0.0,0.0
1630611929.49973583,119928676,-2.68,-3.32,-16.66,-16.54,96.12,98.26,0.0,0.0
1630611929.59969592,120028636,-2.54,-2.97,-16.72,-16.62,96.44,98.13,0.0,0.0
1630611929.69965601,120128596,-2.44,-2.67,-16.8,-16.71,96.73,97.9,0.0,0.0
1630611929.79961586,120228556,-2.36,-2.44,-16.89,-16.83,97.02,97.64,0.0,0.0
1630611929.89957595,120328516,-2.27,-2.24,-16.96,-16.94,97.28,97.41,0.0,0.0
1630611929.99953604,120428476,-2.17,-2.05,-16.99,-17.02,97.53,97.27,0.0,0.0
1630611930.09949589,120528436,-2.09,-1.9,-17.0,-17.06,97.77,97.24,0.0,0.0
1630611930.19945598,120628396,-2.04,-1.81,-17.02,-17.06,97.98,97.33,0.0,0.01
1630611930.29941583,120728356,-2.07,-1.8,-17.06,-17.09,98.19,97.52,0.0,0.01
1630611930.39937592,120828316,-2.15,-1.9,-17.1,-17.12,98.37,97.81,0.0,0.01
1630611930.49933600,120928276,-2.24,-2.06,-17.11,-17.13,98.54,98.15,0.0,0.01
1630611930.59929585,121028236,-2.3,-2.23,-17.12,-17.14,98.7,98.52,0.0,0.01
1630611930.69925594,121128196,-2.39,-2.39,-17.14,-17.14,98.84,98.88,0.0,0.01
1630611930.79921603,121228156,-2.47,-2.55,-17.14,-17.14,98.97,99.22,0.0,0.0
1630611930.90000892,121328949,-2.54,-2.68,-17.14,-17.13,99.09,99.5,0.0,0.01
1630611930.99996901,121428909,-2.57,-2.77,-17.15,-17.13,99.21,99.72,0.0,0.01
1630611931.09992886,121528869,-2.57,-2.8,-17.18,-17.14,99.31,99.87,0.0,0.01
1630611931.19988894,121628829,-2.54,-2.78,-17.2,-17.17,99.4,99.97,0.0,0.01
1630611931.29984903,121728789,-2.5,-2.71,-17.24,-17.21,99.49,100.01,0.0,0.01
1630611931.39980888,121828749,-2.47,-2.63,-17.27,-17.25,99.57,100.02,0.0,0.01
1630611931.49976897,121928709,-2.47,-2.58,-17.31,-17.29,99.64,100.0,0.0,0.01
1630611931.59972906,122028669,-2.46,-2.54,-17.35,-17.33,99.71,99.96,0.0,0.01
1630611931.69968891,122128629,-2.47,-2.51,-17.38,-17.38,99.77,99.93,0.0,0.01
1630611931.79964900,122228589,-2.5,-2.52,-17.41,-17.41,99.83,99.91,0.0,0.01
1630611931.89960885,122328549,-2.51,-2.53,-17.42,-17.44,99.88,99.91,0.0,0.01
1630611931.99956894,122428509,-2.49,-2.51,-17.4,-17.44,99.92,99.92,0.0,0.01
1630611932.09952903,122528469,-2.47,-2.49,-17.38,-17.41,99.95,99.95,0.0,0.01
1630611932.19948888,122628429,-2.47,-2.48,-17.38,-17.39,99.98,99.99,0.0,0.01
1630611932.29944897,122728389,-2.5,-2.49,-17.42,-17.39,100.01,100.04,0.0,0.01
1630611932.39940906,122828349,-2.54,-2.53,-17.45,-17.43,100.03,100.09,0.0,0.01
1630611932.49936891,122928309,-2.61,-2.61,-17.49,-17.48,100.05,100.15,0.0,0.01
1630611932.59932899,123028269,-2.67,-2.7,-17.51,-17.51,100.06,100.19,0.0,0.01
1630611932.69928885,123128229,-2.67,-2.76,-17.51,-17.52,100.07,100.23,0.0,0.01
1630611932.79924893,123228189,-2.65,-2.76,-17.5,-17.53,100.08,100.25,0.0,0.01
1630611932.90004206,123328982,-2.63,-2.73,-17.52,-17.53,100.08,100.27,0.0,0.01
1630611933.00000191,123428942,-2.62,-2.69,-17.53,-17.53,100.09,100.27,0.0,0.01
1630611933.09996200,123528902,-2.59,-2.66,-17.53,-17.53,100.09,100.26,0.0,0.01
1630611933.19992185,123628862,-2.54,-2.61,-17.55,-17.54,100.09,100.24,0.0,0.01
1630611933.29988194,123728822,-2.54,-2.58,-17.56,-17.56,100.09,100.22,0.0,0.01
1630611933.39984202,123828782,-2.58,-2.59,-17.56,-17.58,100.09,100.2,0.0,0.01
1630611933.49980187,123928742,-2.62,-2.62,-17.56,-17.58,100.09,100.18,0.0,0.01
1630611933.59976196,124028702,-2.65,-2.66,-17.56,-17.59,100.08,100.17,0.0,0.01
1630611933.69972205,124128662,-2.66,-2.69,-17.56,-17.57,100.07,100.15,0.0,0.01
1630611933.79968190,124228622,-2.66,-2.7,-17.57,-17.58,100.06,100.14,0.0,0.01
1630611933.89964199,124328582,-2.65,-2.69,-17.61,-17.6,100.05,100.13,0.0,0.01
1630611933.99960184,124428542,-2.66,-2.7,-17.62,-17.62,100.03,100.12,0.0,0.01
1630611934.09956193,124528502,-2.65,-2.7,-17.61,-17.63,100.02,100.11,0.0,0.01
1630611934.19952202,124628462,-2.64,-2.69,-17.61,-17.62,100.01,100.1,0.0,0.01
1630611934.29948187,124728422,-2.61,-2.67,-17.6,-17.61,99.99,100.09,0.0,0.01
1630611934.39944196,124828382,-2.56,-2.63,-17.61,-17.61,99.98,100.07,0.0,0.01
1630611934.49940205,124928342,-2.55,-2.59,-17.62,-17.61,99.97,100.06,0.0,0.01
1630611934.59936190,125028302,-2.57,-2.57,-17.63,-17.62,99.96,100.05,0.0,0.01
1630611934.69932199,125128262,-2.58,-2.58,-17.64,-17.63,99.94,100.03,0.0,0.01
1630611934.79928184,125228222,-2.6,-2.61,-17.66,-17.66,99.93,100.02,0.0,0.01
1630611934.89924192,125328182,-2.62,-2.63,-17.68,-17.68,99.91,100.0,0.0,0.01
1630611935.00003505,125428975,-2.64,-2.66,-17.67,-17.69,99.9,99.98,0.0,0.01
1630611935.09999490,125528935,-2.65,-2.69,-17.66,-17.68,99.88,99.97,0.0,0.01
1630611935.19995499,125628895,-2.62,-2.68,-17.65,-17.66,99.87,99.95,0.0,0.01
1630611935.29991484,125728855,-2.58,-2.64,-17.65,-17.66,99.86,99.93,0.0,0.01
1630611935.39987493,125828815,-2.56,-2.6,-17.65,-17.65,99.84,99.91,0.0,0.01
1630611935.49983501,125928775,-2.55,-2.58,-17.67,-17.66,99.83,99.9,0.0,0.01
1630611935.59979486,126028735,-2.56,-2.57,-17.7,-17.68,99.82,99.89,0.0,0.01
1630611935.69975495,126128695,-2.55,-2.57,-17.72,-17.71,99.8,99.87,0.0,0.0
1630611935.79971504,126228655,-2.55,-2.56,-17.73,-17.74,99.79,99.86,0.0,0.0
1630611935.89967489,126328615,-2.56,-2.57,-17.74,-17.75,99.78,99.85,0.0,0.0
1630611935.99963498,126428575,-2.57,-2.59,-17.75,-17.76,99.76,99.84,0.0,0.0
1630611936.09959483,126528535,-2.6,-2.61,-17.77,-17.77,99.75,99.83,0.0,0.0
1630611936.19955492,126628495,-2.65,-2.66,-17.8,-17.79,99.73,99.81,0.0,0.0
1630611936.29951501,126728455,-2.65,-2.69,-17.83,-17.83,99.72,99.8,0.0,0.0
1630611936.39947486,126828415,-2.61,-2.68,-17.84,-17.86,99.7,99.79,0.0,0.0
1630611936.49943495,126928375,-2.59,-2.65,-17.84,-17.87,99.69,99.77,0.0,0.0
1630611936.59939504,127028335,-2.57,-2.62,-17.85,-17.88,99.67,99.75,0.0,0.0
1630611936.69935489,127128295,-2.57,-2.59,-17.87,-17.89,99.66,99.74,0.0,0.0
1630611936.79931498,127228255,-2.6,-2.61,-17.88,-17.89,99.65,99.72,0.0,0.0
1630611936.89927483,127328215,-2.61,-2.63,-17.88,-17.9,99.64,99.71,0.0,0.0
1630611936.99923491,127428175,-2.6,-2.64,-17.85,-17.88,99.63,99.69,0.0,0.0
1630611937.10002804,127528968,-2.59,-2.63,-17.82,-17.84,99.62,99.68,0.0,0.0
1630611937.19998789,127628928,-2.59,-2.62,-17.8,-17.81,99.61,99.66,0.0,0.0
1630611937.29994798,127728888,-2.59,-2.62,-17.81,-17.8,99.6,99.66,0.0,0.0
1630611937.39990783,127828848,-2.59,-2.62,-17.85,-17.82,99.59,99.65,0.0,0.0
1630611937.49986792,127928808,-2.58,-2.62,-17.88,-17.85,99.58,99.65,0.0,0.0
1630611937.59982800,128028768,-2.57,-2.61,-17.87,-17.87,99.57,99.64,0.0,0.0
1630611937.69978786,128128728,-2.56,-2.59,-17.88,-17.88,99.56,99.63,0.0,0.0
1630611937.79974794,128228688,-2.55,-2.59,-17.9,-17.91,99.56,99.62,0.0,0.0
1630611937.89970803,128328648,-2.56,-2.59,-17.89,-17.91,99.55,99.62,0.0,0.0
1630611937.99966788,128428608,-2.56,-2.59,-17.9,-17.91,99.55,99.61,0.0,0.0
1630611938.09962797,128528568,-2.53,-2.57,-17.89,-17.91,99.54,99.6,0.0,0.0
1630611938.19958806,128628528,-2.51,-2.56,-17.87,-17.9,99.54,99.59,0.0,0.0
1630611938.29954791,128728488,-2.49,-2.53,-17.85,-17.88,99.53,99.58,0.0,0.0
1630611938.39950800,128828448,-2.45,-2.5,-17.83,-17.85,99.53,99.58,0.0,0.0
1630611938.49946785,128928408,-2.43,-2.46,-17.83,-17.83,99.53,99.57,0.0,0.0
1630611938.59942794,129028368,-2.46,-2.45,-17.83,-17.82,99.52,99.56,0.0,0.0
1630611938.69938803,129128328,-2.49,-2.47,-17.84,-17.82,99.52,99.56,0.0,0.0
1630611938.79934788,129228288,-2.49,-2.5,-17.85,-17.85,99.52,99.56,0.0,0.0
1630611938.89930797,129328248,-2.5,-2.53,-17.83,-17.85,99.51,99.56,0.0,0.0
1630611938.99926805,129428208,-2.49,-2.55,-17.83,-17.84,99.51,99.56,0.0,0.0
1630611939.09922791,129528168,-2.49,-2.55,-17.87,-17.85,99.51,99.56,0.0,0.0
1630611939.20002103,129628961,-2.47,-2.53,-17.9,-17.88,99.51,99.56,0.0,0.0
1630611939.29998088,129728921,-2.45,-2.5,-17.92,-17.92,99.5,99.56,0.0,0.0
1630611939.39994097,129828881,-2.46,-2.49,-17.93,-17.94,99.5,99.56,0.0,0.0
1630611939.49990106,129928841,-2.49,-2.5,-17.93,-17.95,99.5,99.55,0.0,0.0
1630611939.59986091,130028801,-2.53,-2.53,-17.93,-17.96,99.49,99.55,0.0,0.0
1630611939.69982100,130128761,-2.51,-2.55,-17.93,-17.95,99.49,99.55,0.0,0.0
1630611939.79978085,130228721,-2.49,-2.53,-17.92,-17.95,99.49,99.54,0.0,0.0
1630611939.89974093,130328681,-2.49,-2.52,-17.93,-17.94,99.48,99.54,0.0,0.0
1630611939.99970102,130428641,-2.48,-2.51,-17.93,-17.95,99.48,99.53,0.0,0.0
1630611940.09966087,130528601,-2.48,-2.5,-17.94,-17.95,99.48,99.53,0.0,0.0
1630611940.19962096,130628561,-2.5,-2.5,-17.96,-17.96,99.47,99.53,0.0,0.0
1630611940.29958105,130728521,-2.52,-2.51,-17.96,-17.98,99.47,99.53,0.0,0.0
1630611940.39954090,130828481,-2.53,-2.53,-17.96,-17.98,99.47,99.52,0.0,0.0
1630611940.49950099,130928441,-2.53,-2.54,-17.96,-17.98,99.46,99.52,0.0,0.0
1630611940.59946084,131028401,-2.51,-2.54,-17.95,-17.97,99.46,99.51,0.0,0.0
1630611940.69942093,131128361,-2.5,-2.53,-17.94,-17.96,99.45,99.5,0.0,0.0
1630611940.79938102,131228321,-2.49,-2.51,-17.94,-17.95,99.45,99.5,0.0,0.0
1630611940.89934087,131328281,-2.5,-2.51,-17.94,-17.95,99.45,99.49,0.0,0.0
1630611940.99930096,131428241,-2.53,-2.53,-17.96,-17.97,99.45,99.49,0.0,0.0
1630611941.09926105,131528201,-2.52,-2.54,-17.95,-17.98,99.45,99.49,0.0,0.0
1630611941.19922090,131628161,-2.49,-2.52,-17.94,-17.96,99.45,99.48,0.0,0.0
1630611941.30001402,131728954,-2.47,-2.49,-17.92,-17.94,99.45,99.48,0.0,0.0
1630611941.39997387,131828914,-2.45,-2.47,-17.92,-17.93,99.45,99.48,0.0,0.0
1630611941.49993396,131928874,-2.44,-2.46,-17.91,-17.92,99.46,99.48,0.0,0.0
1630611941.59989405,132028834,-2.44,-2.46,-17.93,-17.94,99.46,99.49,0.0,0.0
1630611941.69985390,132128794,-2.45,-2.46,-17.93,-17.94,99.46,99.49,0.0,0.0
1630611941.79981399,132228754,-2.46,-2.47,-17.91,-17.93,99.46,99.5,0.0,0.0
1630611941.89977384,132328714,-2.44,-2.47,-17.9,-17.91,99.46,99.5,0.0,0.0
1630611941.99973392,132428674,-2.43,-2.47,-17.88,-17.88,99.46,99.5,0.0,0.0
1630611942.09969401,132528634,-2.4,-2.45,-17.88,-17.88,99.46,99.51,0.0,0.0
1630611942.19965386,132628594,-2.38,-2.41,-17.91,-17.9,99.47,99.51,0.0,0.0
1630611942.29961395,132728554,-2.39,-2.4,-17.94,-17.93,99.47,99.51,0.0,0.0
1630611942.39957404,132828514,-2.4,-2.4,-17.97,-17.97,99.47,99.52,0.0,0.0
1630611942.49953389,132928474,-2.39,-2.39,-17.99,-17.99,99.47,99.52,0.0,0.0
1630611942.59949398,133028434,-2.4,-2.4,-17.99,-18.01,99.47,99.52,0.0,0.0
1630611942.69945383,133128394,-2.39,-2.41,-17.99,-18.02,99.48,99.52,0.0,0.0
1630611942.79941392,133228354,-2.37,-2.4,-17.96,-18.0,99.48,99.52,0.0,0.0
1630611942.89937401,133328314,-2.38,-2.39,-17.96,-17.97,99.48,99.52,0.0,0.0
1630611942.99933386,133428274,-2.4,-2.4,-17.96,-17.96,99.48,99.52,0.0,0.0
1630611943.09929395,133528234,-2.42,-2.42,-17.95,-17.95,99.48,99.52,0.0,0.0
1630611943.19925404,133628194,-2.41,-2.44,-17.94,-17.94,99.48,99.52,0.0,0.0
1630611943.29921389,133728154,-2.38,-2.43,-17.95,-17.94,99.48,99.52,0.0,0.0
1630611943.40000701,133828947,-2.35,-2.39,-17.93,-17.94,99.48,99.52,0.0,0.0
1630611943.49996686,133928907,-2.35,-2.36,-17.92,-17.93,99.48,99.52,0.0,0.0
1630611943.59992695,134028867,-2.36,-2.37,-17.95,-17.96,99.48,99.52,0.0,0.0
1630611943.69988704,134128827,-2.35,-2.36,-17.98,-17.99,99.48,99.52,0.0,0.0
1630611943.79984689,134228787,-2.34,-2.36,-17.98,-18.02,99.48,99.52,0.0,0.0
1630611943.89980698,134328747,-2.34,-2.35,-17.95,-18.0,99.48,99.51,0.0,0.0
1630611943.99976683,134428707,-2.33,-2.35,-17.92,-17.97,99.48,99.51,0.0,0.0
1630611944.09972692,134528667,-2.32,-2.34,-17.94,-17.95,99.48,99.51,0.0,0.0
1630611944.19968700,134628627,-2.31,-2.33,-18.0,-17.98,99.48,99.51,0.0,0.0
1630611944.29964685,134728587,-2.3,-2.32,-18.03,-18.02,99.48,99.52,0.0,0.0
1630611944.39960694,134828547,-2.3,-2.32,-18.02,-18.04,99.48,99.52,0.0,0.0
1630611944.49956703,134928507,-2.32,-2.33,-17.96,-18.01,99.48,99.52,0.0,0.0
1630611944.59952688,135028467,-2.34,-2.36,-17.93,-17.96,99.48,99.51,0.0,0.0
1630611944.69948697,135128427,-2.35,-2.38,-17.93,-17.93,99.48,99.51,0.0,0.0
1630611944.79944706,135228387,-2.34,-2.38,-17.93,-17.92,99.47,99.51,0.0,0.0
1630611944.89940691,135328347,-2.34,-2.37,-17.93,-17.91,99.47,99.51,0.0,0.0
1630611944.99936700,135428307,-2.36,-2.37,-17.96,-17.93,99.47,99.5,0.0,0.0
1630611945.09932685,135528267,-2.39,-2.39,-18.01,-17.97,99.47,99.5,0.0,0.0
1630611945.19928694,135628227,-2.4,-2.42,-18.07,-18.05,99.46,99.5,0.0,0.0
1630611945.29924703,135728187,-2.39,-2.43,-18.1,-18.11,99.46,99.49,0.0,0.0
