timestamp,TimeUS,DesRoll,Roll,DesPitch,Pitch,DesYaw,Yaw,ErrRP,ErrYaw
1630604488.90003991,45928288,0.0,0.08,0.0,0.07,352.87,352.88,0.0,0.0
1630604489.00000000,46028248,0.0,0.08,0.0,0.07,352.87,352.88,0.0,0.0
1630604489.09995985,46128208,0.0,0.08,0.0,0.07,352.87,352.88,0.0,0.0
1630604489.19991994,46228168,0.0,0.08,0.0,0.07,352.87,352.88,0.0,0.0
1630604489.30071282,46328961,0.0,0.08,0.0,0.07,352.87,352.88,0.0,0.0
1630604489.40067291,46428921,0.0,0.08,0.0,0.07,352.87,352.88,0.0,0.0
1630604489.50063300,46528881,0.0,0.08,0.0,0.07,352.87,352.88,0.0,0.0
1630604489.60059285,46628841,0.0,0.08,0.0,0.07,352.87,352.88,0.0,0.0
1630604489.70055294,46728801,0.0,0.08,0.0,0.06,352.87,352.88,0.0,0.0
1630604489.80051303,46828761,0.0,0.08,0.0,0.06,352.87,352.88,0.0,0.0
1630604489.90047288,46928721,0.0,0.08,0.0,0.06,352.87,352.88,0.0,0.0
1630604490.00043297,47028681,0.0,0.08,0.0,0.06,352.87,352.88,0.0,0.0
1630604490.10039282,47128641,0.0,0.08,0.0,0.06,352.87,352.88,0.0,0.0
1630604490.20035291,47228601,0.0,0.08,0.0,0.06,352.87,352.88,0.0,0.0
1630604490.30031300,47328561,0.0,0.08,0.0,0.06,352.87,352.88,0.0,0.0
1630604490.40027285,47428521,0.0,0.08,0.0,0.06,352.87,352.88,0.0,0.0
1630604490.50023293,47528481,0.0,0.08,0.0,0.06,352.87,352.88,0.0,0.0
1630604490.60019302,47628441,0.0,0.08,0.0,0.06,352.87,352.88,0.0,0.0
1630604490.70015287,47728401,0.0,0.08,0.0,0.06,352.87,352.88,0.0,0.0
1630604490.80011296,47828361,0.0,0.08,0.0,0.06,352.87,352.88,0.0,0.0
1630604490.90007281,47928321,0.0,0.08,0.0,0.06,352.87,352.88,0.0,0.0
1630604491.00003290,48028281,0.0,0.08,0.0,0.06,352.87,352.88,0.0,0.0
1630604491.09999299,48128241,0.0,0.08,0.0,0.06,352.88,352.89,0.0,0.0
1630604491.19995284,48228201,0.0,0.08,0.0,0.06,352.88,352.89,0.0,0.0
1630604491.29991293,48328161,0.0,0.08,0.0,0.06,352.88,352.89,0.0,0.0
1630604491.40070581,48428954,0.0,0.08,0.0,0.06,352.88,352.89,0.0,0.0
1630604491.50066590,48528914,0.0,0.08,0.0,0.06,352.88,352.89,0.0,0.0
1630604491.60062599,48628874,0.0,0.08,0.0,0.06,352.88,352.89,0.0,0.0
1630604491.70058584,48728834,0.0,0.08,0.0,0.07,352.88,352.89,0.0,0.0
1630604491.80054593,48828794,0.0,0.08,0.0,0.07,352.88,352.89,0.0,0.0
1630604491.90050602,48928754,0.0,0.08,0.0,0.07,352.88,352.89,0.0,0.0
1630604492.00046587,49028714,0.0,0.08,0.0,0.07,352.88,352.89,0.0,0.0
1630604492.10042596,49128674,0.0,0.08,0.0,0.07,352.88,352.89,0.0,0.0
1630604492.20038605,49228634,0.0,0.08,0.0,0.07,352.88,352.89,0.0,0.0
1630604492.30034590,49328594,0.0,0.08,0.0,0.07,352.88,352.89,0.0,0.0
1630604492.40030599,49428554,0.0,0.08,0.0,0.07,352.88,352.89,0.0,0.0
1630604492.50026584,49528514,0.0,0.08,0.0,0.07,352.88,352.89,0.0,0.0
1630604492.60022593,49628474,0.0,0.08,0.0,0.07,352.88,352.89,0.0,0.0
1630604492.70018601,49728434,0.0,0.08,0.0,0.07,352.88,352.89,0.0,0.0
1630604492.80014586,49828394,0.0,0.08,0.0,0.07,352.88,352.89,0.0,0.0
1630604492.90010595,49928354,0.0,0.08,0.0,0.07,352.88,352.89,0.0,0.0
1630604493.00006604,50028314,0.0,0.08,0.0,0.07,352.88,352.89,0.0,0.0
1630604493.10002589,50128274,-0.04,0.08,-0.04,0.07,352.88,352.89,0.0,0.0
1630604493.19998598,50228234,-0.1,0.08,-0.1,0.07,352.88,352.89,0.0,0.0
1630604493.29994583,50328194,-0.13,0.08,-0.14,0.07,352.88,352.9,0.0,0.0
1630604493.39990592,50428154,-0.16,0.08,-0.17,0.07,352.88,352.9,0.0,0.0
1630604493.50069904,50528947,-0.18,0.08,-0.2,0.07,352.88,352.9,0.0,0.0
1630604493.60065889,50628907,-0.2,0.08,-0.21,0.07,352.88,352.9,0.0,0.0
1630604493.70061898,50728867,-0.21,0.08,-0.22,0.07,352.88,352.9,0.0,0.0
1630604493.80057883,50828827,-0.23,0.08,-0.23,0.07,352.88,352.9,0.0,0.0
1630604493.90053892,50928787,-0.23,0.08,-0.25,0.07,352.88,352.9,0.0,0.0
1630604494.00049901,51028747,-0.25,0.08,-0.29,0.07,352.88,352.9,0.0,0.0
1630604494.10045886,51128707,-0.27,0.08,-0.31,0.07,352.88,352.9,0.0,0.0
1630604494.20041895,51228667,-0.27,0.08,-0.32,0.07,352.88,352.9,0.0,0.0
1630604494.30037904,51328627,-0.27,0.08,-0.33,0.07,352.88,352.9,0.0,0.0
1630604494.40033889,51428587,-0.31,0.08,-0.35,0.07,352.88,352.9,0.0,0.0
1630604494.50029898,51528547,-0.34,0.08,-0.37,0.07,352.88,352.9,0.0,0.0
1630604494.60025883,51628507,-0.34,0.08,-0.41,0.07,352.88,352.9,0.0,0.0
1630604494.70021892,51728467,-0.34,-0.01,-0.45,-0.04,352.88,352.9,0.0,0.0
1630604494.80017900,51828427,-0.35,-0.25,-0.43,-0.31,352.88,352.9,0.0,0.0
1630604494.90013885,51928387,-0.32,-0.48,-0.35,-0.52,352.88,352.9,0.0,0.0
1630604495.00009894,52028347,-0.25,-0.59,-0.22,-0.6,352.88,352.9,0.0,0.0
1630604495.10005903,52128307,-0.13,-0.57,-0.08,-0.54,352.88,352.9,0.0,0.0
1630604495.20001888,52228267,0.0,-0.45,0.04,-0.4,352.88,352.89,0.0,0.0
1630604495.29997897,52328227,0.18,-0.25,0.19,-0.23,352.88,352.89,0.0,0.0
1630604495.39993882,52428187,0.32,-0.03,0.3,-0.04,352.88,352.89,0.0,0.0
1630604495.50073195,52528980,0.39,0.13,0.35,0.08,352.88,352.89,0.0,0.0
1630604495.60069203,52628940,0.38,0.22,0.34,0.14,352.88,352.89,0.0,0.0
1630604495.70065188,52728900,0.34,0.21,0.33,0.16,352.88,352.89,0.0,0.0
1630604495.80061197,52828860,0.32,0.17,0.33,0.14,352.88,352.89,0.0,0.0
1630604495.90057182,52928820,0.3,0.13,0.36,0.15,352.88,352.89,0.0,0.0
1630604496.00053191,53028780,0.29,0.1,0.39,0.17,352.88,352.89,0.0,0.0
1630604496.10049200,53128740,0.31,0.12,0.37,0.2,352.88,352.89,0.0,0.0
1630604496.20045185,53228700,0.32,0.15,0.36,0.21,352.88,352.89,0.0,0.0
1630604496.30041194,53328660,0.32,0.18,0.34,0.21,352.88,352.89,0.0,0.0
1630604496.40037203,53428620,0.32,0.21,0.32,0.2,352.76,352.77,0.0,0.0
1630604496.50033188,53528580,0.31,0.22,0.33,0.2,352.76,352.77,0.0,0.0
1630604496.60029197,53628540,0.29,0.22,0.36,0.22,352.76,352.77,0.0,0.0
1630604496.70025182,53728500,0.29,0.22,0.36,0.26,352.76,352.77,0.0,0.0
1630604496.80021191,53828460,0.3,0.22,0.38,0.29,352.76,352.77,0.0,0.0
1630604496.90017200,53928420,0.29,0.22,0.35,0.29,352.76,352.77,0.0,0.0
1630604497.00013185,54028380,0.27,0.21,0.3,0.26,352.76,352.77,0.0,0.0
1630604497.10009193,54128340,0.21,0.18,0.24,0.21,352.76,352.77,0.0,0.0
1630604497.20005202,54228300,0.15,0.12,0.19,0.15,352.76,352.77,0.0,0.0
1630604497.30001187,54328260,0.1,0.07,0.14,0.1,352.76,352.77,0.0,0.0
1630604497.39997196,54428220,0.09,0.03,0.15,0.08,352.76,352.77,0.0,0.0
1630604497.49993181,54528180,0.11,0.03,0.18,0.09,352.76,352.77,0.0,0.0
1630604497.60072494,54628973,0.11,0.05,0.18,0.12,352.76,352.77,0.0,0.0
1630604497.70068502,54728933,0.11,0.07,0.13,0.11,352.76,352.77,0.0,0.0
1630604497.80064487,54828893,0.14,0.1,0.1,0.08,352.76,352.78,0.0,0.0
1630604497.90060496,54928853,0.13,0.12,0.08,0.05,352.76,352.78,0.0,0.0
1630604498.00056481,55028813,0.1,0.1,0.06,0.03,352.76,352.78,0.0,0.0
1630604498.10052490,55128773,0.04,0.06,0.05,0.02,352.76,352.78,0.0,0.0
1630604498.20048499,55228733,0.0,0.0,0.03,0.0,352.76,352.78,0.0,0.0
1630604498.30044484,55328693,0.0,-0.04,0.05,0.0,352.76,352.77,0.0,0.0
1630604498.40040493,55428653,0.02,-0.04,0.11,0.04,352.76,352.77,0.0,0.0
1630604498.50036502,55528613,0.06,-0.01,0.11,0.1,352.76,352.77,0.0,0.0
1630604498.60032487,55628573,0.09,0.03,0.1,0.11,352.76,352.77,0.0,0.0
1630604498.70028496,55728533,0.08,0.06,0.08,0.09,352.76,352.77,0.0,0.0
1630604498.80024505,55828493,0.06,0.06,0.07,0.07,352.76,352.77,0.0,0.0
1630604498.90020490,55928453,0.07,0.06,0.07,0.06,352.76,352.77,0.0,0.0
1630604499.00016499,56028413,0.08,0.06,0.07,0.05,352.76,352.77,0.0,0.0
1630604499.10012484,56128373,0.08,0.07,0.07,0.05,352.76,352.77,0.0,0.0
1630604499.20008492,56228333,0.08,0.07,0.06,0.05,352.76,352.77,0.0,0.0
1630604499.30004501,56328293,0.08,0.07,0.05,0.04,352.76,352.77,0.0,0.0
1630604499.40000486,56428253,0.07,0.06,0.07,0.05,352.76,352.77,0.0,0.0
1630604499.49996495,56528213,0.08,0.06,0.07,0.06,352.76,352.77,0.0,0.0
1630604499.59992504,56628173,0.1,0.08,0.07,0.05,352.76,352.77,0.0,0.0
1630604499.70071793,56728966,0.13,0.1,0.05,0.04,352.76,352.77,0.0,0.0
1630604499.80067801,56828926,0.14,0.12,0.04,0.03,352.76,352.77,0.0,0.0
1630604499.90063787,56928886,0.13,0.12,0.05,0.03,352.76,352.77,0.0,0.0
1630604500.00059795,57028846,0.13,0.12,0.06,0.04,352.76,352.77,0.0,0.0
1630604500.10055804,57128806,0.12,0.12,0.09,0.07,352.76,352.77,0.0,0.0
1630604500.20051789,57228766,0.12,0.11,0.09,0.09,352.76,352.77,0.0,0.0
1630604500.30047798,57328726,0.13,0.12,0.11,0.11,352.76,352.77,0.0,0.0
1630604500.40043783,57428686,0.12,0.12,0.14,0.14,352.76,352.77,0.0,0.0
1630604500.50039792,57528646,0.1,0.11,0.16,0.16,352.76,352.77,0.0,0.0
1630604500.60035801,57628606,0.09,0.09,0.16,0.17,352.76,352.77,0.0,0.0
1630604500.70031786,57728566,0.13,0.1,0.18,0.19,352.76,352.77,0.0,0.0
1630604500.80027795,57828526,0.14,0.13,0.2,0.21,352.76,352.77,0.0,0.0
1630604500.90023804,57928486,0.14,0.14,0.19,0.2,352.76,352.77,0.0,0.0
1630604501.00019789,58028446,0.13,0.14,0.17,0.18,352.76,352.77,0.0,0.0
1630604501.10015798,58128406,0.1,0.12,0.14,0.14,352.76,352.77,0.0,0.0
1630604501.20011783,58228366,0.08,0.1,0.12,0.11,352.76,352.77,0.0,0.0
1630604501.30007792,58328326,0.06,0.07,0.12,0.1,352.76,352.77,0.0,0.0
1630604501.40003800,58428286,0.07,0.06,0.13,0.1,352.76,352.77,0.0,0.0
1630604501.49999785,58528246,0.08,0.06,0.14,0.12,352.76,352.77,0.0,0.0
1630604501.59995794,58628206,0.08,0.06,0.13,0.12,352.76,352.77,0.0,0.0
1630604501.69991803,58728166,0.09,0.08,0.15,0.14,352.76,352.77,0.0,0.0
1630604501.80071092,58828959,0.08,0.07,0.15,0.15,352.76,352.77,0.0,0.0
1630604501.90067101,58928919,0.09,0.07,0.11,0.13,352.76,352.77,0.0,0.0
1630604502.00063086,59028879,0.11,0.09,0.07,0.09,352.76,352.77,0.0,0.0
1630604502.10059094,59128839,0.14,0.12,0.05,0.05,352.76,352.77,0.0,0.0
1630604502.20055103,59228799,0.14,0.14,0.03,0.02,352.76,352.76,0.0,0.0
1630604502.30051088,59328759,0.16,0.16,0.06,0.02,352.76,352.77,0.0,0.0
1630604502.40047097,59428719,0.16,0.17,0.09,0.04,352.76,352.77,0.0,0.0
1630604502.50043082,59528679,0.15,0.16,0.09,0.07,352.76,352.77,0.0,0.0
1630604502.60039091,59628639,0.14,0.14,0.08,0.07,352.76,352.77,0.0,0.0
1630604502.70035100,59728599,0.1,0.12,0.05,0.06,352.76,352.77,0.0,0.0
1630604502.80031085,59828559,0.08,0.08,0.03,0.04,352.76,352.77,0.0,0.0
1630604502.90027094,59928519,0.09,0.06,0.01,0.02,352.76,352.77,0.0,0.0
1630604503.00023103,60028479,0.12,0.08,0.0,0.0,352.76,352.77,0.0,0.0
1630604503.10019088,60128439,0.12,0.1,-0.02,-0.02,352.76,352.76,0.0,0.0
1630604503.20015097,60228399,0.11,0.11,0.0,-0.02,352.76,352.76,0.0,0.0
1630604503.30011082,60328359,0.1,0.1,0.04,0.0,352.76,352.77,0.0,0.0
1630604503.40007091,60428319,0.09,0.09,0.07,0.05,352.76,352.77,0.0,0.0
1630604503.50003099,60528279,0.07,0.07,0.07,0.09,352.76,352.77,0.0,0.0
1630604503.59999084,60628239,0.06,0.06,0.05,0.08,352.76,352.77,0.0,0.0
1630604503.69995093,60728199,0.08,0.05,0.02,0.05,352.76,352.77,0.0,0.0
1630604503.79991102,60828159,0.12,0.07,0.03,0.03,352.76,352.77,0.0,0.0
1630604503.90070391,60928952,0.12,0.1,0.0,0.01,352.76,352.77,0.0,0.0
1630604504.00066400,61028912,0.1,0.1,0.0,-0.01,352.76,352.77,0.0,0.0
1630604504.10062385,61128872,0.08,0.09,0.01,-0.01,352.76,352.77,0.0,0.0
1630604504.20058393,61228832,0.09,0.09,0.04,0.01,352.76,352.77,0.0,0.0
1630604504.30054402,61328792,0.12,0.11,0.05,0.04,352.76,352.77,0.0,0.0
1630604504.40050387,61428752,0.13,0.13,0.06,0.06,352.76,352.77,0.0,0.0
1630604504.50046396,61528712,0.12,0.13,0.06,0.07,352.76,352.77,0.0,0.0
1630604504.60042381,61628672,0.11,0.12,0.05,0.07,352.76,352.77,0.0,0.0
1630604504.70038390,61728632,0.13,0.13,0.07,0.07,352.76,352.77,0.0,0.0
1630604504.80034399,61828592,0.12,0.13,0.09,0.08,352.76,352.77,0.0,0.0
1630604504.90030384,61928552,0.14,0.14,0.07,0.07,352.76,352.77,0.0,0.0
1630604505.00026393,62028512,0.13,0.14,0.02,0.04,352.76,352.77,0.0,0.0
1630604505.10022402,62128472,0.1,0.1,0.01,0.01,352.76,352.77,0.0,0.0
1630604505.20018387,62228432,0.1,0.07,0.04,0.01,352.76,352.77,0.0,0.0
1630604505.30014396,62328392,0.14,0.09,0.09,0.04,352.76,352.77,0.0,0.0
1630604505.40010405,62428352,0.16,0.13,0.12,0.09,352.76,352.77,0.0,0.0
1630604505.50006390,62528312,0.17,0.16,0.15,0.13,352.76,352.78,0.0,0.0
1630604505.60002398,62628272,0.13,0.16,0.13,0.14,352.76,352.78,0.0,0.0
1630604505.69998384,62728232,0.08,0.11,0.1,0.12,352.76,352.78,0.0,0.0
1630604505.79994392,62828192,0.06,0.07,0.09,0.08,352.76,352.77,0.0,0.0
1630604505.90073705,62928985,0.07,0.05,0.08,0.07,352.76,352.77,0.0,0.0
1630604506.00069690,63028945,0.07,0.04,0.09,0.06,352.76,352.77,0.0,0.0
1630604506.10065699,63128905,0.05,0.04,0.12,0.09,352.76,352.77,0.0,0.0
1630604506.20061684,63228865,0.05,0.04,0.13,0.11,352.76,352.77,0.0,0.0
1630604506.30057693,63328825,0.03,0.04,0.18,0.14,352.76,352.77,0.0,0.0
1630604506.40053701,63428785,0.04,0.03,0.23,0.18,352.76,352.77,0.0,0.0
1630604506.50049686,63528745,0.05,0.05,0.23,0.21,352.76,352.77,0.0,0.0
1630604506.60045695,63628705,0.06,0.06,0.22,0.22,352.76,352.77,0.0,0.0
1630604506.70041704,63728665,0.08,0.07,0.21,0.22,352.76,352.77,0.0,0.0
1630604506.80037689,63828625,0.09,0.08,0.2,0.22,352.76,352.77,0.0,0.0
1630604506.90033698,63928585,0.1,0.09,0.18,0.2,352.76,352.77,0.0,0.0
1630604507.00029683,64028545,0.1,0.09,0.15,0.17,352.76,352.77,0.0,0.0
1630604507.10025692,64128505,0.1,0.09,0.16,0.15,352.76,352.77,0.0,0.0
1630604507.20021701,64228465,0.09,0.09,0.15,0.15,352.76,352.77,0.0,0.0
1630604507.30017686,64328425,0.08,0.08,0.11,0.13,352.76,352.77,0.0,0.0
1630604507.40013695,64428385,0.08,0.07,0.09,0.1,352.76,352.77,0.0,0.0
1630604507.50009704,64528345,0.08,0.07,0.08,0.09,352.76,352.77,0.0,0.0
1630604507.60005689,64628305,0.11,0.08,0.08,0.07,352.76,352.77,0.0,0.0
1630604507.70001698,64728265,0.13,0.12,0.08,0.08,352.76,352.77,0.0,0.0
1630604507.79997683,64828225,0.12,0.13,0.07,0.07,352.76,352.77,0.0,0.0
1630604507.89993691,64928185,0.14,0.13,0.06,0.06,352.76,352.77,0.0,0.0
1630604508.00073004,65028978,0.14,0.15,0.06,0.05,352.76,352.77,0.0,0.0
1630604508.10068989,65128938,0.14,0.15,0.07,0.05,352.76,352.77,0.0,0.0
1630604508.20064998,65228898,0.16,0.15,0.08,0.06,352.76,352.77,0.0,0.0
1630604508.30060983,65328858,0.14,0.15,0.09,0.07,352.76,352.77,0.0,0.0
1630604508.40056992,65428818,0.08,0.1,0.13,0.1,352.76,352.77,0.0,0.0
1630604508.50053000,65528778,0.06,0.06,0.16,0.14,352.76,352.77,0.0,0.0
1630604508.60048985,65628738,0.06,0.03,0.16,0.18,352.76,352.77,0.0,0.0
1630604508.70044994,65728698,0.08,0.04,0.12,0.17,352.76,352.77,0.0,0.0
1630604508.80041003,65828658,0.08,0.05,0.1,0.14,352.76,352.76,0.0,0.0
1630604508.90036988,65928618,0.09,0.07,0.07,0.1,352.76,352.76,0.0,0.0
1630604509.00032997,66028578,0.1,0.09,0.04,0.06,352.76,352.76,0.0,0.0
1630604509.10028982,66128538,0.08,0.09,0.01,0.02,352.76,352.76,0.0,0.0
1630604509.20024991,66228498,0.06,0.07,0.01,0.0,352.76,352.76,0.0,0.0
1630604509.30021000,66328458,0.05,0.04,0.04,0.0,352.76,352.76,0.0,0.0
1630604509.40016985,66428418,0.06,0.03,0.08,0.02,352.76,352.77,0.0,0.0
1630604509.50012994,66528378,0.07,0.03,0.11,0.06,352.76,352.77,0.0,0.0
1630604509.60009003,66628338,0.08,0.05,0.12,0.09,352.76,352.77,0.0,0.0
1630604509.70004988,66728298,0.09,0.07,0.12,0.12,352.76,352.77,0.0,0.0
1630604509.80000997,66828258,0.09,0.08,0.12,0.13,352.76,352.77,0.0,0.0
1630604509.89996982,66928218,0.1,0.1,0.09,0.11,352.76,352.77,0.0,0.0
1630604509.99992990,67028178,0.08,0.09,0.05,0.07,352.76,352.77,0.0,0.0
1630604510.10072303,67128971,0.06,0.07,0.04,0.05,352.76,352.77,0.0,0.0
1630604510.20068288,67228931,0.06,0.06,0.07,0.06,352.76,352.77,0.0,0.0
1630604510.30064297,67328891,0.12,0.09,0.11,0.09,352.76,352.77,0.0,0.0
1630604510.40060282,67428851,0.16,0.12,0.13,0.12,352.76,352.77,0.0,0.0
1630604510.50056291,67528811,0.19,0.17,0.12,0.13,352.76,352.77,0.0,0.0
1630604510.60052299,67628771,0.17,0.18,0.12,0.12,352.76,352.77,0.0,0.0
1630604510.70048285,67728731,0.17,0.18,0.12,0.12,352.76,352.77,0.0,0.0
1630604510.80044293,67828691,0.17,0.18,0.11,0.11,352.76,352.77,0.0,0.0
1630604510.90040302,67928651,0.16,0.17,0.09,0.09,352.76,352.77,0.0,0.0
1630604511.00036287,68028611,0.13,0.15,0.12,0.08,352.76,352.77,0.0,0.0
1630604511.10032296,68128571,0.1,0.13,0.13,0.1,352.76,352.78,0.0,0.0
1630604511.20028281,68228531,0.1,0.1,0.15,0.12,352.76,352.78,0.0,0.0
1630604511.30024290,68328491,0.13,0.1,0.16,0.15,352.76,352.78,0.0,0.0
1630604511.40020299,68428451,0.17,0.12,0.16,0.16,352.76,352.78,0.0,0.0
1630604511.50016284,68528411,0.19,0.16,0.16,0.16,352.76,352.78,0.0,0.0
1630604511.60012293,68628371,0.19,0.19,0.14,0.15,352.76,352.78,0.0,0.0
1630604511.70008302,68728331,0.18,0.2,0.11,0.13,352.76,352.77,0.0,0.0
1630604511.80004287,68828291,0.14,0.17,0.07,0.09,352.76,352.77,0.0,0.0
1630604511.90000296,68928251,0.14,0.14,0.07,0.07,352.76,352.77,0.0,0.0
1630604511.99996305,69028211,0.14,0.13,0.1,0.08,352.76,352.77,0.0,0.0
1630604512.09992290,69128171,0.14,0.13,0.12,0.1,352.76,352.76,0.0,0.0
1630604512.20071602,69228964,0.15,0.14,0.12,0.11,352.76,352.76,0.0,0.0
1630604512.30067587,69328924,0.15,0.15,0.16,0.14,352.76,352.76,0.0,0.0
1630604512.40063596,69428884,0.11,0.13,0.16,0.16,352.76,352.76,0.0,0.0
1630604512.50059605,69528844,0.09,0.1,0.14,0.16,352.76,352.76,0.0,0.0
1630604512.60055590,69628804,0.11,0.1,0.14,0.14,352.76,352.77,0.0,0.0
1630604512.70051599,69728764,0.14,0.12,0.12,0.12,352.76,352.77,0.0,0.0
1630604512.80047584,69828724,0.15,0.15,0.11,0.11,352.76,352.77,0.0,0.0
1630604512.90043592,69928684,0.13,0.15,0.14,0.11,352.76,352.77,0.0,0.0
1630604513.00039601,70028644,0.09,0.12,0.15,0.13,352.76,352.77,0.0,0.0
1630604513.10035586,70128604,0.06,0.08,0.12,0.12,352.76,352.77,0.0,0.0
1630604513.20031595,70228564,0.08,0.06,0.08,0.09,352.76,352.77,0.0,0.0
1630604513.30027604,70328524,0.12,0.08,0.06,0.06,352.76,352.77,0.0,0.0
1630604513.40023589,70428484,0.14,0.11,0.03,0.03,352.76,352.77,0.0,0.0
1630604513.50019598,70528444,0.12,0.12,0.02,0.01,352.76,352.77,0.0,0.0
1630604513.60015583,70628404,0.12,0.12,0.04,0.01,352.76,352.77,0.0,0.0
1630604513.70011592,70728364,0.11,0.1,0.02,0.01,352.76,352.77,0.0,0.0
1630604513.80007601,70828324,0.09,0.09,0.0,0.0,352.76,352.77,0.0,0.0
1630604513.90003586,70928284,0.09,0.09,0.01,0.0,352.76,352.77,0.0,0.0
1630604513.99999595,71028244,0.09,0.08,0.03,0.01,352.76,352.77,0.0,0.0
1630604514.09995604,71128204,0.07,0.07,0.06,0.04,352.76,352.76,0.0,0.0
1630604514.19991589,71228164,0.04,0.05,0.06,0.05,352.76,352.76,0.0,0.0
1630604514.30070901,71328957,0.05,0.04,0.05,0.05,352.76,352.76,0.0,0.0
1630604514.40066886,71428917,0.07,0.04,0.04,0.04,352.76,352.76,0.0,0.0
1630604514.50062895,71528877,0.1,0.05,0.04,0.03,352.76,352.76,0.0,0.0
1630604514.60058904,71628837,0.11,0.07,0.05,0.03,352.76,352.76,0.0,0.0
1630604514.70054889,71728797,0.14,0.11,0.07,0.05,352.76,352.76,0.0,0.0
1630604514.80050898,71828757,0.16,0.14,0.1,0.08,352.76,352.76,0.0,0.0
1630604514.90046883,71928717,0.14,0.16,0.11,0.11,352.76,352.76,0.0,0.0
1630604515.00042892,72028677,0.09,0.12,0.07,0.09,352.76,352.76,0.0,0.0
1630604515.10038900,72128637,0.06,0.07,0.05,0.06,352.76,352.76,0.0,0.0
1630604515.20034885,72228597,0.04,0.03,0.06,0.05,352.76,352.77,0.0,0.0
1630604515.30030894,72328557,0.04,0.01,0.09,0.06,352.76,352.77,0.0,0.0
1630604515.40026903,72428517,0.07,0.03,0.1,0.08,352.76,352.77,0.0,0.0
1630604515.50022888,72528477,0.09,0.07,0.11,0.1,352.76,352.77,0.0,0.0
1630604515.60018897,72628437,0.08,0.09,0.11,0.12,352.76,352.77,0.0,0.0
1630604515.70014882,72728397,0.03,0.07,0.13,0.13,352.76,352.77,0.0,0.0
1630604515.80010891,72828357,-0.02,0.01,0.15,0.15,352.76,352.76,0.0,0.0
1630604515.90006900,72928317,-0.04,-0.03,0.13,0.15,352.76,352.76,0.0,0.0
1630604516.00002885,73028277,0.0,-0.04,0.1,0.11,352.76,352.76,0.0,0.0
1630604516.09998894,73128237,0.04,-0.01,0.1,0.09,352.76,352.76,0.0,0.0
1630604516.19994903,73228197,0.06,0.02,0.09,0.07,352.76,352.77,0.0,0.0
1630604516.29990888,73328157,0.08,0.05,0.09,0.06,352.76,352.77,0.0,0.0
1630604516.40070200,73428950,0.11,0.08,0.12,0.08,352.76,352.77,0.0,0.0
1630604516.50066185,73528910,0.13,0.11,0.15,0.12,352.76,352.77,0.0,0.0
1630604516.60062194,73628870,0.13,0.12,0.14,0.14,352.76,352.77,0.0,0.0
1630604516.70058203,73728830,0.17,0.16,0.11,0.13,352.76,352.77,0.0,0.0
1630604516.80054188,73828790,0.19,0.19,0.09,0.1,352.76,352.77,0.0,0.0
1630604516.90050197,73928750,0.19,0.2,0.09,0.09,352.76,352.77,0.0,0.0
1630604517.00046182,74028710,0.16,0.18,0.09,0.08,352.76,352.77,0.0,0.0
1630604517.10042191,74128670,0.17,0.16,0.12,0.09,352.76,352.77,0.0,0.0
1630604517.20038199,74228630,0.19,0.16,0.16,0.12,352.76,352.77,0.0,0.0
1630604517.30034184,74328590,0.19,0.18,0.15,0.14,352.76,352.77,0.0,0.0
1630604517.40030193,74428550,0.19,0.18,0.14,0.14,352.76,352.76,0.0,0.0
1630604517.50026202,74528510,0.18,0.18,0.1,0.13,352.76,352.76,0.0,0.0
1630604517.60022187,74628470,0.18,0.18,0.05,0.09,352.76,352.76,0.0,0.0
1630604517.70018196,74728430,0.2,0.19,0.03,0.05,352.76,352.76,0.0,0.0
1630604517.80014181,74828390,0.2,0.2,0.02,0.03,352.76,352.76,0.0,0.0
1630604517.90010190,74928350,0.17,0.19,0.01,0.0,352.76,352.76,0.0,0.0
1630604518.00006199,75028310,0.13,0.15,0.03,0.01,352.76,352.76,0.0,0.0
1630604518.10002184,75128270,0.13,0.14,0.04,0.02,352.76,352.76,0.0,0.0
1630604518.19998193,75228230,0.17,0.15,0.03,0.02,352.76,352.76,0.0,0.0
1630604518.29994202,75328190,0.18,0.17,0.04,0.03,352.76,352.76,0.0,0.0
1630604518.40073490,75428983,0.22,0.19,0.06,0.04,352.76,352.76,0.0,0.0
1630604518.50069499,75528943,0.25,0.23,0.06,0.06,352.76,352.76,0.0,0.0
1630604518.60065484,75628903,0.24,0.25,0.02,0.04,352.76,352.76,0.0,0.0
1630604518.70061493,75728863,0.2,0.22,0.02,0.02,352.76,352.76,0.0,0.0
1630604518.80057502,75828823,0.16,0.19,0.04,0.02,352.76,352.76,0.0,0.0
1630604518.90053487,75928783,0.17,0.17,0.04,0.02,352.76,352.76,0.0,0.0
1630604519.00049496,76028743,0.19,0.17,0.06,0.03,352.76,352.76,0.0,0.0
1630604519.10045505,76128703,0.17,0.18,0.08,0.05,352.76,352.76,0.0,0.0
1630604519.20041490,76228663,0.16,0.16,0.1,0.08,352.76,352.76,0.0,0.0
1630604519.30037498,76328623,0.17,0.16,0.08,0.08,352.76,352.76,0.0,0.0
1630604519.40033484,76428583,0.2,0.17,0.07,0.07,352.76,352.76,0.0,0.0
1630604519.50029492,76528543,0.2,0.19,0.1,0.08,352.76,352.76,0.0,0.0
1630604519.60025501,76628503,0.21,0.2,0.11,0.1,352.76,352.77,0.0,0.0
1630604519.70021486,76728463,0.19,0.19,0.11,0.11,352.76,352.77,0.0,0.0
1630604519.80017495,76828423,0.15,0.16,0.12,0.12,352.76,352.77,0.0,0.0
1630604519.90013504,76928383,0.13,0.12,0.14,0.13,352.76,352.77,0.0,0.0
1630604520.00009489,77028343,0.11,0.09,0.13,0.13,352.76,352.77,0.0,0.0
1630604520.10005498,77128303,0.14,0.1,0.13,0.13,352.76,352.77,0.0,0.0
1630604520.20001483,77228263,0.18,0.14,0.15,0.14,352.76,352.77,0.0,0.0
1630604520.29997492,77328223,0.22,0.19,0.14,0.15,352.76,352.77,0.0,0.0
1630604520.39993501,77428183,0.2,0.21,0.12,0.13,352.76,352.76,0.0,0.0
1630604520.50072789,77528976,0.15,0.19,0.12,0.11,352.76,352.76,0.0,0.0
1630604520.60068798,77628936,0.1,0.13,0.12,0.1,352.76,352.76,0.0,0.0
1630604520.70064783,77728896,0.09,0.08,0.09,0.08,352.76,352.76,0.0,0.0
1630604520.80060792,77828856,0.11,0.08,0.1,0.07,352.76,352.77,0.0,0.0
1630604520.90056801,77928816,0.11,0.09,0.14,0.1,352.76,352.77,0.0,0.0
1630604521.00052786,78028776,0.13,0.1,0.16,0.14,352.76,352.77,0.0,0.0
1630604521.10048795,78128736,0.13,0.12,0.12,0.15,352.76,352.77,0.0,0.0
1630604521.20044804,78228696,0.12,0.12,0.05,0.1,352.76,352.77,0.0,0.0
1630604521.30040789,78328656,0.09,0.11,0.0,0.04,352.76,352.77,0.0,0.0
1630604521.40036798,78428616,0.08,0.09,0.01,0.0,352.76,352.77,0.0,0.0
1630604521.50032783,78528576,0.09,0.08,0.07,0.03,352.76,352.77,0.0,0.0
1630604521.60028791,78628536,0.09,0.07,0.12,0.08,352.76,352.77,0.0,0.0
1630604521.70024800,78728496,0.08,0.07,0.15,0.14,352.76,352.77,0.0,0.0
1630604521.80020785,78828456,0.06,0.06,0.16,0.17,352.76,352.77,0.0,0.0
1630604521.90016794,78928416,0.07,0.06,0.14,0.16,352.76,352.77,0.0,0.0
1630604522.00012803,79028376,0.07,0.06,0.13,0.13,352.76,352.77,0.0,0.0
1630604522.10008788,79128336,0.09,0.07,0.11,0.11,352.76,352.76,0.0,0.0
1630604522.20004797,79228296,0.11,0.09,0.09,0.09,352.76,352.76,0.0,0.0
1630604522.30000782,79328256,0.08,0.09,0.09,0.07,352.76,352.76,0.0,0.0
1630604522.39996791,79428216,0.06,0.06,0.13,0.09,352.76,352.76,0.0,0.0
1630604522.49992800,79528176,0.05,0.04,0.17,0.13,352.76,352.76,0.0,0.0
1630604522.60072088,79628969,0.08,0.05,0.18,0.17,352.76,352.76,0.0,0.0
1630604522.70068097,79728929,0.11,0.08,0.18,0.18,352.76,352.76,0.0,0.0
1630604522.80064082,79828889,0.11,0.12,0.16,0.19,352.76,352.76,0.0,0.0
1630604522.90060091,79928849,0.07,0.1,0.13,0.17,352.76,352.76,0.0,0.0
1630604523.00056100,80028809,0.03,0.06,0.1,0.12,352.76,352.76,0.0,0.0
1630604523.10052085,80128769,0.01,0.01,0.08,0.09,352.76,352.76,0.0,0.0
1630604523.20048094,80228729,0.04,0.0,0.1,0.06,352.76,352.76,0.0,0.0
1630604523.30044103,80328689,0.08,0.03,0.13,0.08,352.76,352.76,0.0,0.0
1630604523.40040088,80428649,0.11,0.07,0.15,0.11,352.76,352.76,0.0,0.0
1630604523.50036097,80528609,0.15,0.12,0.13,0.12,352.76,352.76,0.0,0.0
1630604523.60032082,80628569,0.17,0.16,0.12,0.12,352.76,352.76,0.0,0.0
1630604523.70028090,80728529,0.19,0.19,0.14,0.12,352.76,352.77,0.0,0.0
1630604523.80024099,80828489,0.18,0.19,0.15,0.13,352.76,352.77,0.0,0.0
1630604523.90020084,80928449,0.15,0.18,0.15,0.14,352.76,352.77,0.0,0.0
1630604524.00016093,81028409,0.15,0.16,0.15,0.15,352.76,352.77,0.0,0.0
1630604524.10012102,81128369,0.15,0.15,0.13,0.15,352.76,352.77,0.0,0.0
1630604524.20008087,81228329,0.14,0.14,0.11,0.13,352.76,352.77,0.0,0.0
1630604524.30004096,81328289,0.13,0.14,0.08,0.1,352.76,352.77,0.0,0.0
1630604524.40000081,81428249,0.14,0.13,0.07,0.07,352.76,352.77,0.0,0.0
1630604524.49996090,81528209,0.15,0.14,0.09,0.06,352.76,352.77,0.0,0.0
1630604524.59992099,81628169,0.17,0.15,0.1,0.07,352.76,352.78,0.0,0.0
1630604524.70071387,81728962,0.17,0.16,0.13,0.1,352.76,352.78,0.0,0.0
1630604524.80067396,81828922,0.18,0.16,0.17,0.15,352.76,352.78,0.0,0.0
1630604524.90063381,81928882,0.16,0.15,0.2,0.2,352.76,352.77,0.0,0.0
1630604525.00059390,82028842,0.18,0.15,0.2,0.23,352.76,352.77,0.0,0.0
1630604525.10055399,82128802,0.15,0.15,0.18,0.23,352.76,352.77,0.0,0.0
1630604525.20051384,82228762,0.1,0.11,0.12,0.18,352.76,352.76,0.0,0.0
1630604525.30047393,82328722,0.09,0.08,0.08,0.12,352.76,352.76,0.0,0.0
1630604525.40043402,82428682,0.09,0.07,0.09,0.08,352.76,352.76,0.0,0.0
1630604525.50039387,82528642,0.1,0.06,0.12,0.09,352.76,352.76,0.0,0.0
1630604525.60035396,82628602,0.13,0.08,0.14,0.1,352.76,352.76,0.0,0.0
1630604525.70031404,82728562,0.15,0.11,0.16,0.13,352.76,352.76,0.0,0.0
1630604525.80027390,82828522,0.17,0.15,0.14,0.14,352.76,352.76,0.0,0.0
1630604525.90023398,82928482,0.18,0.17,0.11,0.12,352.76,352.76,0.0,0.0
1630604526.00019383,83028442,0.17,0.18,0.1,0.09,352.76,352.76,0.0,0.0
1630604526.10015392,83128402,0.12,0.15,0.1,0.08,352.76,352.76,0.0,0.0
1630604526.20011401,83228362,0.09,0.11,0.11,0.07,352.76,352.76,0.0,0.0
1630604526.30007386,83328322,0.08,0.08,0.13,0.09,352.76,352.76,0.0,0.0
1630604526.40003395,83428282,0.08,0.08,0.15,0.12,352.76,352.76,0.0,0.0
1630604526.49999404,83528242,0.08,0.07,0.17,0.15,352.76,352.76,0.0,0.0
1630604526.59995389,83628202,0.09,0.07,0.19,0.17,352.76,352.77,0.0,0.0
1630604526.69991398,83728162,0.09,0.08,0.2,0.19,352.76,352.77,0.0,0.0
1630604526.80070686,83828955,0.12,0.09,0.19,0.2,352.76,352.77,0.0,0.0
1630604526.90066695,83928915,0.14,0.11,0.17,0.19,352.76,352.77,0.0,0.0
1630604527.00062704,84028875,0.16,0.14,0.15,0.17,352.76,352.77,0.0,0.0
1630604527.10058689,84128835,0.2,0.18,0.13,0.14,352.76,352.77,0.0,0.0
1630604527.20054698,84228795,0.2,0.21,0.09,0.11,352.76,352.77,0.0,0.0
1630604527.30050683,84328755,0.18,0.21,0.09,0.08,352.76,352.76,0.0,0.0
1630604527.40046692,84428715,0.16,0.18,0.1,0.08,352.76,352.76,0.0,0.0
1630604527.50042701,84528675,0.14,0.15,0.09,0.08,352.76,352.76,0.0,0.0
1630604527.60038686,84628635,0.13,0.13,0.07,0.07,352.76,352.76,0.0,0.0
1630604527.70034695,84728595,0.13,0.12,0.05,0.05,352.76,352.76,0.0,0.0
1630604527.80030704,84828555,0.15,0.12,0.05,0.04,352.76,352.76,0.0,0.0
1630604527.90026689,84928515,0.16,0.14,0.08,0.05,352.76,352.76,0.0,0.0
1630604528.00022697,85028475,0.13,0.14,0.1,0.07,352.76,352.76,0.0,0.0
1630604528.10018682,85128435,0.12,0.12,0.14,0.11,352.76,352.76,0.0,0.0
1630604528.20014691,85228395,0.1,0.1,0.19,0.16,352.76,352.76,0.0,0.0
1630604528.30010700,85328355,0.1,0.08,0.22,0.21,352.76,352.76,0.0,0.0
1630604528.40006685,85428315,0.13,0.08,0.22,0.25,352.76,352.76,0.0,0.0
1630604528.50002694,85528275,0.17,0.12,0.17,0.22,352.76,352.76,0.0,0.0
1630604528.59998703,85628235,0.16,0.14,0.09,0.14,352.76,352.76,0.0,0.0
1630604528.69994688,85728195,0.13,0.14,0.05,0.07,352.76,352.76,0.0,0.0
1630604528.79990697,85828155,0.13,0.13,0.04,0.02,352.76,352.76,0.0,0.0
1630604528.90069985,85928948,0.13,0.13,0.05,0.01,352.76,352.76,0.0,0.0
1630604529.00065994,86028908,0.13,0.13,0.08,0.03,352.76,352.76,0.0,0.0
1630604529.10062003,86128868,0.12,0.12,0.11,0.07,352.76,352.76,0.0,0.0
1630604529.20057988,86228828,0.14,0.12,0.13,0.1,352.76,352.76,0.0,0.0
1630604529.30053997,86328788,0.15,0.13,0.11,0.12,352.76,352.76,0.0,0.0
1630604529.40049982,86428748,0.16,0.15,0.11,0.11,352.76,352.76,0.0,0.0
1630604529.50045991,86528708,0.17,0.17,0.06,0.09,352.76,352.76,0.0,0.0
1630604529.60042000,86628668,0.14,0.16,0.05,0.05,352.76,352.76,0.0,0.0
1630604529.70037985,86728628,0.1,0.12,0.1,0.07,352.76,352.76,0.0,0.0
1630604529.80033994,86828588,0.05,0.06,0.13,0.1,352.76,352.76,0.0,0.0
1630604529.90030003,86928548,0.03,0.02,0.13,0.14,352.76,352.76,0.0,0.0
1630604530.00025988,87028508,0.07,0.01,0.12,0.14,352.76,352.76,0.0,0.0
1630604530.10021996,87128468,0.13,0.06,0.12,0.15,352.76,352.76,0.0,0.0
1630604530.20017982,87228428,0.17,0.14,0.12,0.14,352.76,352.76,0.0,0.0
1630604530.30013990,87328388,0.15,0.17,0.1,0.11,352.76,352.76,0.0,0.0
1630604530.40009999,87428348,0.15,0.17,0.07,0.07,352.76,352.76,0.0,0.0
1630604530.50005984,87528308,0.13,0.15,0.04,0.03,352.76,352.76,0.0,0.0
1630604530.60001993,87628268,0.13,0.13,0.05,0.01,352.76,352.76,0.0,0.0
1630604530.69998002,87728228,0.14,0.13,0.07,0.02,352.76,352.77,0.0,0.0
1630604530.79993987,87828188,0.15,0.14,0.11,0.06,352.76,352.77,0.0,0.0
1630604530.90073299,87928981,0.11,0.13,0.13,0.1,352.76,352.77,0.0,0.0
1630604531.00069284,88028941,0.06,0.09,0.14,0.13,352.76,352.77,0.0,0.0
1630604531.10065293,88128901,0.06,0.06,0.14,0.15,352.76,352.77,0.0,0.0
1630604531.20061302,88228861,0.09,0.06,0.14,0.14,352.76,352.77,0.0,0.0
1630604531.30057287,88328821,0.1,0.08,0.14,0.14,352.76,352.77,0.0,0.0
1630604531.40053296,88428781,0.11,0.1,0.12,0.14,352.76,352.77,0.0,0.0
1630604531.50049281,88528741,0.1,0.11,0.1,0.11,352.76,352.77,0.0,0.0
1630604531.60045290,88628701,0.07,0.08,0.11,0.11,352.76,352.77,0.0,0.0
1630604531.70041299,88728661,0.08,0.06,0.09,0.1,352.76,352.77,0.0,0.0
1630604531.80037284,88828621,0.09,0.06,0.09,0.08,352.76,352.76,0.0,0.0
1630604531.90033293,88928581,0.11,0.07,0.13,0.09,352.76,352.76,0.0,0.0
1630604532.00029302,89028541,0.16,0.12,0.17,0.13,352.76,352.76,0.0,0.0
1630604532.10025287,89128501,0.2,0.17,0.19,0.17,352.76,352.76,0.0,0.0
1630604532.20021296,89228461,0.21,0.2,0.19,0.19,352.76,352.76,0.0,0.0
1630604532.30017304,89328421,0.19,0.21,0.19,0.19,352.76,352.76,0.0,0.0
1630604532.40013289,89428381,0.17,0.2,0.18,0.19,352.76,352.76,0.0,0.0
1630604532.50009298,89528341,0.17,0.18,0.18,0.19,352.76,352.76,0.0,0.0
1630604532.60005283,89628301,0.18,0.18,0.15,0.17,352.76,352.77,0.0,0.0
1630604532.70001292,89728261,0.16,0.17,0.16,0.16,352.76,352.77,0.0,0.0
1630604532.79997301,89828221,0.14,0.14,0.17,0.15,352.76,352.77,0.0,0.0
1630604532.89993286,89928181,0.15,0.13,0.17,0.16,352.76,352.77,0.0,0.0
1630604533.00072598,90028974,0.18,0.15,0.17,0.16,352.76,352.77,0.0,0.0
1630604533.10068583,90128934,0.19,0.16,0.17,0.17,352.76,352.77,0.0,0.0
1630604533.20064592,90228894,0.2,0.18,0.18,0.17,352.76,352.77,0.0,0.0
1630604533.30060601,90328854,0.22,0.2,0.18,0.18,352.76,352.77,0.0,0.0
1630604533.40056586,90428814,0.2,0.2,0.19,0.18,352.76,352.77,0.0,0.0
1630604533.50052595,90528774,0.18,0.18,0.19,0.18,352.76,352.77,0.0,0.0
1630604533.60048604,90628734,0.18,0.17,0.17,0.16,352.76,352.77,0.0,0.0
1630604533.70044589,90728694,0.17,0.16,0.15,0.14,352.76,352.77,0.0,0.0
1630604533.80040598,90828654,0.19,0.16,0.13,0.11,352.76,352.76,0.0,0.0
1630604533.90036583,90928614,0.22,0.19,0.13,0.11,352.76,352.76,0.0,0.0
1630604534.00032592,91028574,0.2,0.21,0.16,0.12,352.76,352.76,0.0,0.0
1630604534.10028601,91128534,0.14,0.18,0.17,0.15,352.76,352.76,0.0,0.0
1630604534.20024586,91228494,0.1,0.12,0.2,0.17,352.76,352.76,0.0,0.0
1630604534.30020595,91328454,0.1,0.09,0.2,0.2,352.76,352.76,0.0,0.0
1630604534.40016603,91428414,0.1,0.08,0.17,0.19,352.76,352.76,0.0,0.0
1630604534.50012589,91528374,0.1,0.08,0.15,0.17,352.76,352.76,0.0,0.0
1630604534.60008597,91628334,0.11,0.09,0.13,0.13,352.76,352.76,0.0,0.0
1630604534.70004582,91728294,0.11,0.1,0.16,0.13,352.76,352.76,0.0,0.0
1630604534.80000591,91828254,0.12,0.1,0.16,0.14,352.76,352.77,0.0,0.0
1630604534.89996600,91928214,0.17,0.14,0.14,0.14,352.76,352.77,0.0,0.0
1630604534.99992585,92028174,0.16,0.16,0.13,0.13,352.76,352.77,0.0,0.0
1630604535.10071898,92128967,0.16,0.17,0.13,0.12,352.76,352.77,0.0,0.0
1630604535.20067883,92228927,0.17,0.17,0.14,0.13,352.76,352.77,0.0,0.0
1630604535.30063891,92328887,0.19,0.18,0.17,0.15,352.76,352.77,0.0,0.0
1630604535.40059900,92428847,0.2,0.2,0.16,0.16,352.76,352.77,0.0,0.0
1630604535.50055885,92528807,0.21,0.2,0.15,0.16,352.76,352.77,0.0,0.0
1630604535.60051894,92628767,0.2,0.2,0.16,0.15,352.76,352.77,0.0,0.0
1630604535.70047903,92728727,0.2,0.2,0.17,0.16,352.76,352.77,0.0,0.0
1630604535.80043888,92828687,0.18,0.19,0.12,0.15,352.76,352.76,0.0,0.0
1630604535.90039897,92928647,0.17,0.18,0.1,0.11,352.76,352.76,0.0,0.0
1630604536.00035882,93028607,0.17,0.17,0.09,0.08,352.76,352.76,0.0,0.0
1630604536.10031891,93128567,0.16,0.16,0.08,0.07,352.76,352.76,0.0,0.0
1630604536.20027900,93228527,0.14,0.14,0.1,0.07,352.76,352.76,0.0,0.0
1630604536.30023885,93328487,0.15,0.13,0.11,0.08,352.76,352.76,0.0,0.0
1630604536.40019894,93428447,0.17,0.14,0.11,0.09,352.76,352.76,0.0,0.0
1630604536.50015903,93528407,0.19,0.16,0.1,0.09,352.76,352.76,0.0,0.0
1630604536.60011888,93628367,0.17,0.17,0.09,0.09,352.76,352.76,0.0,0.0
1630604536.70007896,93728327,0.15,0.15,0.09,0.08,352.76,352.77,0.0,0.0
1630604536.80003881,93828287,0.14,0.13,0.1,0.09,352.76,352.77,0.0,0.0
1630604536.89999890,93928247,0.14,0.13,0.11,0.11,352.76,352.77,0.0,0.0
1630604536.99995899,94028207,0.15,0.12,0.12,0.12,352.76,352.77,0.0,0.0
1630604537.09991884,94128167,0.15,0.13,0.12,0.12,352.76,352.77,0.0,0.0
1630604537.20071197,94228960,0.16,0.14,0.12,0.12,352.76,352.77,0.0,0.0
1630604537.30067182,94328920,0.2,0.18,0.12,0.12,352.76,352.77,0.0,0.0
1630604537.40063190,94428880,0.21,0.2,0.13,0.12,352.76,352.77,0.0,0.0
1630604537.50059199,94528840,0.2,0.2,0.14,0.13,352.76,352.77,0.0,0.0
1630604537.60055184,94628800,0.18,0.19,0.14,0.13,352.76,352.77,0.0,0.0
1630604537.70051193,94728760,0.19,0.19,0.12,0.12,352.76,352.77,0.0,0.0
1630604537.80047202,94828720,0.21,0.19,0.1,0.1,352.76,352.77,0.0,0.0
1630604537.90043187,94928680,0.21,0.2,0.08,0.08,352.76,352.77,0.0,0.0
1630604538.00039196,95028640,0.21,0.2,0.08,0.06,352.76,352.77,0.0,0.0
1630604538.10035181,95128600,0.19,0.19,0.09,0.06,352.76,352.77,0.0,0.0
1630604538.20031190,95228560,0.17,0.17,0.09,0.06,352.76,352.77,0.0,0.0
1630604538.30027199,95328520,0.19,0.16,0.1,0.07,352.76,352.77,0.0,0.0
1630604538.40023184,95428480,0.21,0.19,0.12,0.09,352.76,352.77,0.0,0.0
1630604538.50019193,95528440,0.2,0.21,0.16,0.13,352.76,352.77,0.0,0.0
1630604538.60015202,95628400,0.16,0.19,0.2,0.18,352.76,352.77,0.0,0.0
1630604538.70011187,95728360,0.14,0.16,0.22,0.21,352.76,352.77,0.0,0.0
1630604538.80007195,95828320,0.12,0.13,0.23,0.23,352.76,352.77,0.0,0.0
1630604538.90003204,95928280,0.11,0.11,0.21,0.24,352.76,352.77,0.0,0.0
1630604538.99999189,96028240,0.13,0.11,0.17,0.2,352.76,352.77,0.0,0.0
1630604539.09995198,96128200,0.15,0.14,0.16,0.16,352.76,352.77,0.0,0.0
1630604539.19991183,96228160,0.14,0.14,0.18,0.16,352.76,352.76,0.0,0.0
1630604539.30070496,96328953,0.16,0.15,0.19,0.17,352.76,352.76,0.0,0.0
1630604539.40066504,96428913,0.18,0.17,0.2,0.19,352.76,352.76,0.0,0.0
1630604539.50062490,96528873,0.2,0.18,0.23,0.22,352.76,352.76,0.0,0.0
1630604539.60058498,96628833,0.22,0.2,0.22,0.22,352.76,352.76,0.0,0.0
1630604539.70054483,96728793,0.22,0.22,0.19,0.2,352.76,352.76,0.0,0.0
1630604539.80050492,96828753,0.21,0.21,0.17,0.17,352.76,352.77,0.0,0.0
1630604539.90046501,96928713,0.19,0.19,0.17,0.17,352.76,352.77,0.0,0.0
1630604540.00042486,97028673,0.15,0.15,0.17,0.16,352.76,352.77,0.0,0.0
1630604540.10038495,97128633,0.12,0.12,0.17,0.16,352.76,352.77,0.0,0.0
1630604540.20034504,97228593,0.13,0.1,0.17,0.16,352.76,352.77,0.0,0.0
1630604540.30030489,97328553,0.14,0.11,0.19,0.17,352.76,352.77,0.0,0.0
1630604540.40026498,97428513,0.12,0.11,0.2,0.19,352.76,352.77,0.0,0.0
1630604540.50022483,97528473,0.11,0.1,0.2,0.2,352.76,352.77,0.0,0.0
1630604540.60018492,97628433,0.12,0.1,0.21,0.2,352.76,352.77,0.0,0.0
1630604540.70014501,97728393,0.13,0.11,0.22,0.21,352.76,352.77,0.0,0.0
1630604540.80010486,97828353,0.13,0.11,0.21,0.2,352.76,352.76,0.0,0.0
1630604540.90006495,97928313,0.14,0.11,0.18,0.18,352.76,352.76,0.0,0.0
1630604541.00002503,98028273,0.15,0.13,0.14,0.13,352.76,352.76,0.0,0.0
1630604541.09998488,98128233,0.17,0.15,0.15,0.12,352.76,352.76,0.0,0.0
1630604541.19994497,98228193,0.16,0.15,0.17,0.13,352.76,352.76,0.0,0.0
1630604541.30073786,98328986,0.15,0.15,0.18,0.15,352.76,352.76,0.0,0.0
1630604541.40069795,98428946,0.15,0.14,0.2,0.17,352.76,352.76,0.0,0.0
1630604541.50065804,98528906,0.14,0.14,0.22,0.21,352.76,352.76,0.0,0.0
1630604541.60061789,98628866,0.15,0.14,0.21,0.22,352.76,352.76,0.0,0.0
1630604541.70057797,98728826,0.15,0.15,0.2,0.21,352.76,352.76,0.0,0.0
1630604541.80053782,98828786,0.13,0.14,0.18,0.19,352.76,352.76,0.0,0.0
1630604541.90049791,98928746,0.14,0.13,0.16,0.18,352.76,352.76,0.0,0.0
1630604542.00045800,99028706,0.15,0.14,0.14,0.14,352.76,352.76,0.0,0.0
1630604542.10041785,99128666,0.14,0.13,0.12,0.12,352.76,352.76,0.0,0.0
1630604542.20037794,99228626,0.15,0.13,0.11,0.1,352.76,352.76,0.0,0.0
1630604542.30033803,99328586,0.16,0.14,0.13,0.11,352.76,352.76,0.0,0.0
1630604542.40029788,99428546,0.17,0.14,0.14,0.13,352.76,352.76,0.0,0.0
1630604542.50025797,99528506,0.19,0.17,0.12,0.12,352.76,352.76,0.0,0.0
1630604542.60021782,99628466,0.21,0.19,0.11,0.11,352.76,352.76,0.0,0.0
1630604542.70017791,99728426,0.22,0.21,0.12,0.11,352.76,352.76,0.0,0.0
1630604542.80013800,99828386,0.23,0.22,0.14,0.12,352.76,352.76,0.0,0.0
1630604542.90009785,99928346,0.22,0.22,0.15,0.14,352.76,352.76,0.0,0.0
1630604543.00005794,100028306,0.18,0.19,0.13,0.13,352.76,352.77,0.0,0.0
1630604543.10001802,100128266,0.16,0.16,0.13,0.12,352.76,352.76,0.0,0.0
1630604543.19997787,100228226,0.14,0.14,0.12,0.11,352.76,352.76,0.0,0.0
1630604543.29993796,100328186,0.15,0.14,0.11,0.1,352.76,352.76,0.0,0.0
1630604543.40073085,100428979,0.15,0.14,0.13,0.1,352.76,352.76,0.0,0.0
1630604543.50069094,100528939,0.15,0.15,0.17,0.13,352.76,352.76,0.0,0.0
1630604543.60065103,100628899,0.13,0.14,0.2,0.18,352.76,352.76,0.0,0.0
1630604543.70061088,100728859,0.12,0.12,0.19,0.19,352.76,352.76,0.0,0.0
1630604543.80057096,100828819,0.13,0.11,0.15,0.17,352.76,352.76,0.0,0.0
1630604543.90053082,100928779,0.15,0.13,0.14,0.14,352.76,352.76,0.0,0.0
1630604544.00049090,101028739,0.14,0.14,0.14,0.13,352.76,352.76,0.0,0.0
1630604544.10045099,101128699,0.11,0.12,0.15,0.13,352.76,352.76,0.0,0.0
1630604544.20041084,101228659,0.13,0.11,0.16,0.15,352.76,352.76,0.0,0.0
1630604544.30037093,101328619,0.16,0.13,0.15,0.15,352.76,352.76,0.0,0.0
1630604544.40033102,101428579,0.17,0.15,0.14,0.13,352.76,352.76,0.0,0.0
1630604544.50029087,101528539,0.15,0.15,0.13,0.13,352.76,352.76,0.0,0.0
1630604544.60025096,101628499,0.11,0.11,0.12,0.11,352.76,352.76,0.0,0.0
1630604544.70021081,101728459,0.11,0.1,0.13,0.11,352.76,352.76,0.0,0.0
1630604544.80017090,101828419,0.13,0.1,0.16,0.14,352.76,352.76,0.0,0.0
1630604544.90013099,101928379,0.16,0.13,0.21,0.19,352.76,352.76,0.0,0.0
1630604545.00009084,102028339,0.18,0.16,0.22,0.23,352.76,352.76,0.0,0.0
1630604545.10005093,102128299,0.19,0.19,0.19,0.22,352.76,352.76,0.0,0.0
1630604545.20001101,102228259,0.19,0.19,0.15,0.18,352.76,352.76,0.0,0.0
1630604545.29997087,102328219,0.18,0.19,0.11,0.13,352.76,352.76,0.0,0.0
1630604545.39993095,102428179,0.15,0.15,0.08,0.08,352.76,352.76,0.0,0.0
1630604545.50072384,102528972,0.11,0.12,0.09,0.06,352.76,352.76,0.0,0.0
1630604545.60068393,102628932,0.1,0.09,0.11,0.07,352.76,352.76,0.0,0.0
1630604545.70064402,102728892,0.09,0.08,0.13,0.1,352.76,352.76,0.0,0.0
1630604545.80060387,102828852,0.1,0.08,0.14,0.12,352.76,352.76,0.0,0.0
1630604545.90056396,102928812,0.14,0.1,0.15,0.14,352.76,352.76,0.0,0.0
1630604546.00052404,103028772,0.16,0.13,0.12,0.13,352.76,352.76,0.0,0.0
1630604546.10048389,103128732,0.18,0.17,0.11,0.12,352.76,352.76,0.0,0.0
1630604546.20044398,103228692,0.19,0.18,0.11,0.11,352.76,352.76,0.0,0.0
1630604546.30040383,103328652,0.19,0.19,0.13,0.11,352.76,352.76,0.0,0.0
1630604546.40036392,103428612,0.2,0.2,0.14,0.13,352.76,352.77,0.0,0.0
1630604546.50032401,103528572,0.22,0.21,0.17,0.16,352.76,352.77,0.0,0.0
1630604546.60028386,103628532,0.21,0.21,0.17,0.16,352.76,352.77,0.0,0.0
1630604546.70024395,103728492,0.18,0.19,0.19,0.17,352.76,352.77,0.0,0.0
1630604546.80020404,103828452,0.17,0.17,0.22,0.19,352.76,352.77,0.0,0.0
1630604546.90016389,103928412,0.17,0.16,0.25,0.22,352.76,352.77,0.0,0.0
1630604547.00012398,104028372,0.18,0.15,0.25,0.24,352.76,352.77,0.0,0.0
1630604547.10008383,104128332,0.19,0.17,0.24,0.25,352.76,352.77,0.0,0.0
1630604547.20004392,104228292,0.21,0.18,0.24,0.25,352.76,352.77,0.0,0.0
1630604547.30000401,104328252,0.23,0.19,0.22,0.23,352.76,352.77,0.0,0.0
1630604547.39996386,104428212,0.24,0.21,0.2,0.21,352.76,352.77,0.0,0.0
1630604547.49992394,104528172,0.25,0.23,0.19,0.19,352.76,352.77,0.0,0.0
1630604547.60071683,104628965,0.23,0.23,0.21,0.19,352.76,352.77,0.0,0.0
1630604547.70067692,104728925,0.22,0.22,0.22,0.2,352.76,352.76,0.0,0.0
1630604547.80063701,104828885,0.2,0.21,0.21,0.21,352.76,352.76,0.0,0.0
1630604547.90059686,104928845,0.2,0.2,0.2,0.2,352.76,352.76,0.0,0.0
1630604548.00055695,105028805,0.23,0.21,0.18,0.17,352.76,352.76,0.0,0.0
1630604548.10051703,105128765,0.27,0.24,0.18,0.15,352.76,352.76,0.0,0.0
1630604548.20047688,105228725,0.3,0.27,0.18,0.14,352.76,352.77,0.0,0.0
1630604548.30043697,105328685,0.3,0.3,0.18,0.15,352.76,352.77,0.0,0.0
1630604548.40039682,105428645,0.27,0.28,0.18,0.15,352.76,352.76,0.0,0.0
1630604548.50035691,105528605,0.25,0.26,0.16,0.16,352.76,352.76,0.0,0.0
1630604548.60031700,105628565,0.25,0.24,0.14,0.13,352.76,352.76,0.0,0.0
1630604548.70027685,105728525,0.27,0.24,0.16,0.13,352.76,352.76,0.0,0.0
1630604548.80023694,105828485,0.3,0.26,0.18,0.14,352.76,352.76,0.0,0.0
1630604548.90019703,105928445,0.3,0.29,0.2,0.17,352.76,352.76,0.0,0.0
1630604549.00015688,106028405,0.32,0.31,0.22,0.2,352.76,352.76,0.0,0.0
1630604549.10011697,106128365,0.46,0.38,0.27,0.24,352.76,352.76,0.0,0.0
1630604549.20007682,106228325,0.79,0.62,0.44,0.35,352.76,352.76,0.0,0.0
1630604549.30003691,106328285,1.34,1.08,0.77,0.61,352.76,352.77,0.0,0.0
1630604549.39999700,106428245,2.04,1.77,1.21,1.01,352.76,352.78,0.0,0.0
1630604549.49995685,106528205,2.83,2.61,1.72,1.54,352.76,352.8,0.0,0.0
1630604549.59991693,106628165,3.63,3.5,2.24,2.12,352.76,352.82,0.0,0.01
1630604549.70070982,106728958,4.32,4.33,2.7,2.68,352.76,352.84,0.0,0.01
1630604549.80066991,106828918,4.85,5.0,3.05,3.14,352.76,352.84,0.0,0.01
1630604549.90063000,106928878,5.26,5.48,3.29,3.46,352.76,352.84,0.0,0.01
1630604550.00058985,107028838,5.62,5.83,3.48,3.65,352.76,352.81,0.0,0.01
1630604550.10054994,107128798,5.97,6.13,3.67,3.8,352.76,352.79,0.0,0.01
1630604550.20051003,107228758,6.33,6.42,3.87,3.95,352.76,352.77,0.0,0.01
1630604550.30046988,107328718,6.62,6.69,4.06,4.1,352.76,352.75,0.0,0.01
1630604550.40042996,107428678,6.83,6.91,4.22,4.25,352.76,352.74,0.0,0.0
1630604550.50038981,107528638,7.02,7.08,4.35,4.39,352.76,352.73,0.0,0.0
1630604550.60034990,107628598,7.2,7.23,4.47,4.51,352.76,352.73,0.0,0.0
1630604550.70030999,107728558,7.35,7.37,4.57,4.61,352.76,352.73,0.0,0.0
1630604550.80026984,107828518,7.54,7.5,4.68,4.73,353.66,352.75,0.0,0.0
1630604550.90022993,107928478,7.8,7.56,4.84,5.12,357.24,353.06,0.0,0.0
1630604551.00019002,108028438,8.2,7.61,4.93,5.77,3.03,354.33,0.0,0.0
1630604551.10014987,108128398,8.8,7.88,4.79,6.29,9.03,357.15,0.0,0.0
1630604551.20010996,108228358,9.55,8.48,4.23,6.3,15.03,1.63,0.0,0.01
1630604551.30007005,108328318,10.39,9.35,3.21,5.61,21.03,7.57,0.0,0.02
1630604551.40002990,108428278,11.23,10.36,1.72,4.19,27.03,14.62,0.0,0.03
1630604551.49998999,108528238,11.87,11.31,-0.1,2.14,33.03,22.46,0.0,0.04
1630604551.59994984,108628198,12.19,11.97,-2.09,-0.31,39.03,30.82,0.0,0.05
1630604551.69990993,108728158,12.14,12.18,-4.11,-2.96,45.03,39.45,0.0,0.06
1630604551.80070281,108828951,11.74,11.85,-6.04,-5.56,51.03,48.14,0.0,0.06
1630604551.90066290,108928911,11.02,11.02,-7.81,-7.91,57.03,56.65,0.0,0.07
1630604552.00062299,109028871,10.08,9.8,-9.38,-9.9,63.03,64.76,0.0,0.07
1630604552.10058284,109128831,9.05,8.42,-10.75,-11.47,69.03,72.29,0.0,0.07
1630604552.20054293,109228791,7.98,7.05,-11.94,-12.67,75.03,79.17,0.0,0.07
1630604552.30050302,109328751,6.89,5.8,-12.95,-13.56,81.03,85.39,0.0,0.07
1630604552.40046287,109428711,5.78,4.71,-13.76,-14.21,87.03,91.03,0.0,0.06
1630604552.50042295,109528671,4.65,3.75,-14.38,-14.65,93.03,96.22,0.0,0.06
1630604552.60038304,109628631,3.5,2.88,-14.83,-14.95,99.03,101.12,0.0,0.05
1630604552.70034289,109728591,2.28,2.02,-15.17,-15.17,104.89,105.89,0.0,0.05
1630604552.80030298,109828551,1.0,0.83,-15.44,-15.38,108.72,110.63,0.0,0.04
1630604552.90026283,109928511,-0.3,-0.86,-15.63,-15.56,110.71,115.02,0.0,0.04
1630604553.00022292,110028471,-1.45,-2.77,-15.73,-15.61,111.75,118.58,0.0,0.04
1630604553.10018301,110128431,-2.22,-4.35,-15.78,-15.56,112.32,120.99,0.0,0.03
1630604553.20014286,110228391,-2.49,-5.23,-15.85,-15.49,112.65,122.15,0.0,0.03
1630604553.30010295,110328351,-2.31,-5.27,-15.95,-15.48,112.88,122.17,0.0,0.02
1630604553.40006304,110428311,-1.78,-4.57,-16.07,-15.56,113.07,121.27,0.0,0.02
1630604553.50002289,110528271,-1.05,-3.32,-16.22,-15.72,113.25,119.7,0.0,0.02
1630604553.59998298,110628231,-0.3,-1.81,-16.38,-15.95,113.43,117.74,0.0,0.02
1630604553.69994283,110728191,0.34,-0.31,-16.51,-16.2,113.61,115.69,0.0,0.02
1630604553.80073595,110828984,0.83,0.96,-16.59,-16.39,113.78,113.81,0.0,0.03
1630604553.90069604,110928944,1.13,1.89,-16.61,-16.51,113.93,112.3,0.0,0.03
1630604554.00065589,111028904,1.26,2.42,-16.6,-16.54,114.06,111.28,0.0,0.03
1630604554.10061598,111128864,1.24,2.57,-16.61,-16.53,114.16,110.8,0.0,0.03
1630604554.20057583,111228824,1.11,2.4,-16.64,-16.54,114.25,110.82,0.0,0.02
1630604554.30053592,111328784,0.89,2.01,-16.69,-16.58,114.31,111.26,0.0,0.02
1630604554.40049601,111428744,0.63,1.46,-16.73,-16.64,114.35,112.0,0.0,0.02
1630604554.50045586,111528704,0.34,0.84,-16.79,-16.71,114.38,112.9,0.0,0.01
1630604554.60041595,111628664,0.08,0.23,-16.84,-16.79,114.4,113.84,0.0,0.01
1630604554.70037603,111728624,-0.1,-0.27,-16.88,-16.85,114.41,114.7,0.0,0.01
1630604554.80033588,111828584,-0.21,-0.64,-16.91,-16.89,114.42,115.39,0.0,0.01
1630604554.90029597,111928544,-0.27,-0.86,-16.95,-16.93,114.43,115.88,0.0,0.01
1630604555.00025582,112028504,-0.29,-0.94,-17.0,-16.97,114.44,116.13,0.0,0.01
1630604555.10021591,112128464,-0.24,-0.88,-17.05,-17.02,114.46,116.17,0.0,0.01
1630604555.20017600,112228424,-0.14,-0.71,-17.08,-17.07,114.47,116.02,0.0,0.01
1630604555.30013585,112328384,-0.02,-0.47,-17.08,-17.08,114.49,115.75,0.0,0.01
1630604555.40009594,112428344,0.09,-0.2,-17.1,-17.09,114.51,115.4,0.0,0.01
1630604555.50005603,112528304,0.19,0.04,-17.15,-17.12,114.53,115.03,0.0,0.01
1630604555.60001588,112628264,0.25,0.24,-17.19,-17.17,114.54,114.69,0.0,0.01
1630604555.69997597,112728224,0.28,0.37,-17.22,-17.21,114.55,114.41,0.0,0.01
1630604555.79993582,112828184,-0.34,0.35,-17.02,-17.21,114.56,114.21,0.0,0.01
1630604555.90072894,112928977,-7.31,-3.63,-15.08,-16.01,114.57,114.07,0.0,0.01
1630604556.00068903,113028937,-10.07,-8.88,-14.47,-14.66,114.58,113.91,0.0,0.02
1630604556.10064888,113128897,-8.73,-10.65,-14.95,-14.34,114.63,113.96,0.0,0.02
1630604556.20060897,113228857,-6.05,-9.14,-15.73,-14.9,114.74,114.22,0.0,0.02
1630604556.30056882,113328817,-3.57,-6.02,-16.4,-15.82,114.92,114.54,0.0,0.01
1630604556.40052891,113428777,-2.0,-2.98,-16.81,-16.65,115.15,114.84,0.0,0.01
1630604556.50048900,113528737,-1.45,-1.04,-16.95,-17.14,115.41,115.12,0.0,0.01
1630604556.60044885,113628697,-1.63,-0.42,-16.89,-17.27,115.69,115.42,0.0,0.01
1630604556.70040894,113728657,-2.15,-0.81,-16.75,-17.13,115.96,115.75,0.0,0.01
1630604556.80036902,113828617,-2.62,-1.64,-16.65,-16.9,116.22,116.1,0.0,0.01
1630604556.90032887,113928577,-2.85,-2.41,-16.62,-16.72,116.47,116.46,0.0,0.01
1630604557.00028896,114028537,-2.83,-2.86,-16.66,-16.64,116.72,116.82,0.0,0.01
1630604557.10024881,114128497,-2.66,-2.96,-16.78,-16.67,116.96,117.16,0.0,0.01
1630604557.20020890,114228457,-2.39,-2.77,-16.93,-16.8,117.21,117.48,0.0,0.01
1630604557.30016899,114328417,-2.14,-2.46,-17.04,-16.95,117.45,117.77,0.0,0.01
1630604557.40012884,114428377,-1.99,-2.16,-17.14,-17.1,117.7,118.02,0.0,0.01
1630604557.50008893,114528337,-1.9,-1.94,-17.21,-17.21,117.94,118.24,0.0,0.0
1630604557.60004902,114628297,-1.89,-1.85,-17.24,-17.27,118.18,118.44,0.0,0.0
1630604557.70000887,114728257,-1.92,-1.86,-17.26,-17.29,118.4,118.62,0.0,0.01
1630604557.79996896,114828217,-1.96,-1.91,-17.27,-17.29,118.62,118.8,0.0,0.01
1630604557.89992905,114928177,-1.99,-1.98,-17.27,-17.29,118.83,118.97,0.0,0.01
1630604558.00072193,115028970,-1.98,-2.01,-17.27,-17.29,119.04,119.14,0.0,0.01
1630604558.10068202,115128930,-1.95,-2.01,-17.3,-17.29,119.23,119.32,0.0,0.01
1630604558.20064187,115228890,-1.92,-1.98,-17.34,-17.33,119.42,119.5,0.0,0.01
1630604558.30060196,115328850,-1.88,-1.94,-17.38,-17.37,119.59,119.68,0.0,0.01
1630604558.40056181,115428810,-1.85,-1.9,-17.41,-17.41,119.76,119.87,0.0,0.01
1630604558.50052190,115528770,-1.84,-1.88,-17.44,-17.44,119.93,120.05,0.0,0.01
1630604558.60048199,115628730,-1.89,-1.9,-17.47,-17.48,120.08,120.22,0.0,0.01
1630604558.70044184,115728690,-1.93,-1.94,-17.46,-17.49,120.23,120.39,0.0,0.01
1630604558.80040193,115828650,-1.94,-1.99,-17.47,-17.48,120.37,120.54,0.0,0.01
1630604558.90036201,115928610,-1.92,-2.0,-17.49,-17.5,120.5,120.68,0.0,0.01
1630604559.00032187,116028570,-1.93,-2.01,-17.51,-17.51,120.62,120.81,0.0,0.01
1630604559.10028195,116128530,-1.96,-2.02,-17.55,-17.54,120.74,120.93,0.0,0.01
1630604559.20024204,116228490,-1.96,-2.03,-17.59,-17.58,120.85,121.04,0.0,0.01
1630604559.30020189,116328450,-1.97,-2.02,-17.59,-17.6,120.95,121.14,0.0,0.01
1630604559.40016198,116428410,-1.99,-2.03,-17.59,-17.61,121.05,121.23,0.0,0.01
1630604559.50012183,116528370,-2.02,-2.06,-17.6,-17.61,121.14,121.31,0.0,0.01
1630604559.60008192,116628330,-2.01,-2.07,-17.61,-17.62,121.23,121.38,0.0,0.01
1630604559.70004201,116728290,-2.0,-2.07,-17.61,-17.63,121.31,121.46,0.0,0.01
1630604559.80000186,116828250,-2.02,-2.07,-17.6,-17.63,121.39,121.52,0.0,0.01
1630604559.89996195,116928210,-2.02,-2.07,-17.61,-17.62,121.46,121.59,0.0,0.01
1630604559.99992204,117028170,-2.03,-2.07,-17.63,-17.63,121.52,121.65,0.0,0.01
1630604560.10071492,117128963,-2.02,-2.07,-17.64,-17.64,121.59,121.71,0.0,0.01
1630604560.20067501,117228923,-2.03,-2.07,-17.65,-17.65,121.64,121.76,0.0,0.0
1630604560.30063486,117328883,-2.03,-2.08,-17.69,-17.67,121.7,121.82,0.0,0.0
1630604560.40059495,117428843,-2.04,-2.08,-17.73,-17.71,121.75,121.87,0.0,0.0
1630604560.50055504,117528803,-2.06,-2.1,-17.71,-17.72,121.8,121.91,0.0,0.0
1630604560.60051489,117628763,-2.07,-2.12,-17.7,-17.72,121.84,121.96,0.0,0.0
1630604560.70047498,117728723,-2.08,-2.13,-17.71,-17.72,121.88,121.99,0.0,0.0
1630604560.80043483,117828683,-2.1,-2.15,-17.72,-17.72,121.92,122.03,0.0,0.0
1630604560.90039492,117928643,-2.12,-2.17,-17.74,-17.73,121.95,122.07,0.0,0.0
1630604561.00035501,118028603,-2.13,-2.19,-17.76,-17.75,121.98,122.1,0.0,0.0
1630604561.10031486,118128563,-2.14,-2.2,-17.75,-17.75,122.01,122.13,0.0,0.0
1630604561.20027494,118228523,-2.13,-2.19,-17.75,-17.75,122.04,122.15,0.0,0.0
1630604561.30023503,118328483,-2.12,-2.17,-17.74,-17.75,122.06,122.17,0.0,0.0
1630604561.40019488,118428443,-2.11,-2.15,-17.74,-17.75,122.08,122.19,0.0,0.0
1630604561.50015497,118528403,-2.12,-2.15,-17.76,-17.75,122.1,122.21,0.0,0.0
1630604561.60011482,118628363,-2.14,-2.17,-17.8,-17.78,122.12,122.23,0.0,0.0
1630604561.70007491,118728323,-2.17,-2.19,-17.81,-17.8,122.14,122.24,0.0,0.0
1630604561.80003500,118828283,-2.2,-2.23,-17.81,-17.82,122.15,122.25,0.0,0.0
1630604561.89999485,118928243,-2.2,-2.25,-17.82,-17.83,122.16,122.26,0.0,0.0
1630604561.99995494,119028203,-2.21,-2.26,-17.84,-17.85,122.17,122.27,0.0,0.0
1630604562.09991503,119128163,-2.24,-2.28,-17.84,-17.86,122.19,122.28,0.0,0.0
1630604562.20070791,119228956,-2.25,-2.29,-17.81,-17.85,122.2,122.28,0.0,0.0
1630604562.30066800,119328916,-2.24,-2.29,-17.73,-17.79,122.22,122.29,0.0,0.0
1630604562.40062785,119428876,-2.19,-2.25,-17.67,-17.71,122.23,122.29,0.0,0.0
1630604562.50058794,119528836,-2.14,-2.19,-17.68,-17.67,122.25,122.3,0.0,0.0
1630604562.60054803,119628796,-2.14,-2.15,-17.69,-17.67,122.26,122.32,0.0,0.0
1630604562.70050788,119728756,-2.15,-2.15,-17.7,-17.68,122.28,122.33,0.0,0.0
1630604562.80046797,119828716,-2.17,-2.17,-17.66,-17.66,122.29,122.35,0.0,0.0
1630604562.90042782,119928676,-2.17,-2.19,-17.64,-17.65,122.3,122.37,0.0,0.0
1630604563.00038791,120028636,-2.17,-2.19,-17.65,-17.65,122.31,122.39,0.0,0.0
1630604563.10034800,120128596,-2.18,-2.2,-17.67,-17.66,122.32,122.4,0.0,0.0
1630604563.20030785,120228556,-2.2,-2.22,-17.7,-17.68,122.33,122.41,0.0,0.0
1630604563.30026793,120328516,-2.21,-2.24,-17.71,-17.71,122.33,122.42,0.0,0.0
1630604563.40022802,120428476,-2.19,-2.24,-17.69,-17.71,122.34,122.43,0.0,0.0
1630604563.50018787,120528436,-2.16,-2.22,-17.66,-17.69,122.35,122.43,0.0,0.0
1630604563.60014796,120628396,-2.13,-2.18,-17.64,-17.67,122.36,122.44,0.0,0.0
1630604563.70010781,120728356,-2.14,-2.16,-17.66,-17.67,122.36,122.44,0.0,0.0
1630604563.80006790,120828316,-2.16,-2.17,-17.67,-17.68,122.37,122.44,0.0,0.0
1630604563.90002799,120928276,-2.17,-2.19,-17.67,-17.68,122.37,122.45,0.0,0.0
1630604563.99998784,121028236,-2.16,-2.19,-17.67,-17.68,122.38,122.45,0.0,0.0
1630604564.09994793,121128196,-2.16,-2.19,-17.67,-17.68,122.39,122.45,0.0,0.0
1630604564.19990802,121228156,-2.19,-2.21,-17.65,-17.67,122.39,122.46,0.0,0.0
1630604564.30070090,121328949,-2.21,-2.23,-17.64,-17.65,122.4,122.46,0.0,0.0
1630604564.40066099,121428909,-2.21,-2.25,-17.64,-17.65,122.4,122.46,0.0,0.0
1630604564.50062084,121528869,-2.2,-2.25,-17.64,-17.64,122.41,122.47,0.0,0.0
1630604564.60058093,121628829,-2.17,-2.22,-17.64,-17.64,122.41,122.48,0.0,0.0
1630604564.70054102,121728789,-2.14,-2.19,-17.66,-17.65,122.41,122.48,0.0,0.0
1630604564.80050087,121828749,-2.13,-2.16,-17.66,-17.67,122.42,122.49,0.0,0.0
1630604564.90046096,121928709,-2.15,-2.17,-17.67,-17.68,122.42,122.49,0.0,0.0
1630604565.00042105,122028669,-2.16,-2.18,-17.7,-17.7,122.42,122.49,0.0,0.0
1630604565.10038090,122128629,-2.18,-2.2,-17.71,-17.72,122.43,122.49,0.0,0.0
1630604565.20034099,122228589,-2.2,-2.22,-17.72,-17.73,122.43,122.49,0.0,0.0
1630604565.30030084,122328549,-2.21,-2.23,-17.71,-17.74,122.43,122.49,0.0,0.0
1630604565.40026093,122428509,-2.18,-2.22,-17.67,-17.71,122.43,122.49,0.0,0.0
1630604565.50022101,122528469,-2.15,-2.19,-17.63,-17.65,122.43,122.49,0.0,0.0
1630604565.60018086,122628429,-2.14,-2.16,-17.62,-17.62,122.43,122.49,0.0,0.0
1630604565.70014095,122728389,-2.15,-2.16,-17.65,-17.62,122.43,122.49,0.0,0.0
1630604565.80010104,122828349,-2.17,-2.17,-17.69,-17.66,122.43,122.49,0.0,0.0
1630604565.90006089,122928309,-2.21,-2.21,-17.72,-17.7,122.43,122.49,0.0,0.0
1630604566.00002098,123028269,-2.25,-2.26,-17.72,-17.74,122.43,122.49,0.0,0.0
1630604566.09998083,123128229,-2.24,-2.29,-17.72,-17.74,122.42,122.49,0.0,0.0
1630604566.19994092,123228189,-2.2,-2.27,-17.69,-17.73,122.42,122.49,0.0,0.0
1630604566.30073404,123328982,-2.17,-2.22,-17.69,-17.71,122.42,122.48,0.0,0.0
1630604566.40069389,123428942,-2.15,-2.18,-17.7,-17.71,122.42,122.48,0.0,0.0
1630604566.50065398,123528902,-2.12,-2.15,-17.69,-17.7,122.42,122.48,0.0,0.0
1630604566.60061383,123628862,-2.08,-2.11,-17.7,-17.7,122.42,122.47,0.0,0.0
1630604566.70057392,123728822,-2.08,-2.08,-17.7,-17.71,122.43,122.47,0.0,0.0
1630604566.80053401,123828782,-2.12,-2.11,-17.69,-17.71,122.43,122.47,0.0,0.0
1630604566.90049386,123928742,-2.15,-2.15,-17.67,-17.69,122.43,122.47,0.0,0.0
1630604567.00045395,124028702,-2.18,-2.2,-17.67,-17.68,122.43,122.47,0.0,0.0
1630604567.10041404,124128662,-2.18,-2.23,-17.66,-17.67,122.42,122.47,0.0,0.0
1630604567.20037389,124228622,-2.16,-2.23,-17.66,-17.66,122.42,122.47,0.0,0.0
1630604567.30033398,124328582,-2.15,-2.2,-17.69,-17.67,122.42,122.47,0.0,0.0
1630604567.40029383,124428542,-2.15,-2.19,-17.7,-17.7,122.42,122.47,0.0,0.0
1630604567.50025392,124528502,-2.13,-2.17,-17.68,-17.7,122.42,122.47,0.0,0.0
1630604567.60021400,124628462,-2.12,-2.15,-17.66,-17.68,122.42,122.47,0.0,0.0
1630604567.70017385,124728422,-2.09,-2.13,-17.63,-17.66,122.42,122.47,0.0,0.0
1630604567.80013394,124828382,-2.05,-2.09,-17.63,-17.64,122.42,122.47,0.0,0.0
1630604567.90009403,124928342,-2.04,-2.06,-17.63,-17.62,122.43,122.47,0.0,0.0
1630604568.00005388,125028302,-2.06,-2.05,-17.63,-17.63,122.43,122.47,0.0,0.0
1630604568.10001397,125128262,-2.08,-2.06,-17.64,-17.63,122.43,122.47,0.0,0.0
1630604568.19997382,125228222,-2.09,-2.08,-17.65,-17.64,122.43,122.47,0.0,0.0
1630604568.29993391,125328182,-2.11,-2.12,-17.66,-17.66,122.43,122.47,0.0,0.0
1630604568.40072703,125428975,-2.14,-2.15,-17.65,-17.66,122.43,122.47,0.0,0.0
1630604568.50068688,125528935,-2.15,-2.17,-17.64,-17.65,122.42,122.47,0.0,0.0
1630604568.60064697,125628895,-2.13,-2.16,-17.63,-17.64,122.42,122.47,0.0,0.0
1630604568.70060682,125728855,-2.09,-2.12,-17.62,-17.64,122.42,122.47,0.0,0.0
1630604568.80056691,125828815,-2.07,-2.08,-17.6,-17.63,122.42,122.47,0.0,0.0
1630604568.90052700,125928775,-2.06,-2.06,-17.62,-17.62,122.42,122.46,0.0,0.0
1630604569.00048685,126028735,-2.07,-2.06,-17.63,-17.63,122.42,122.46,0.0,0.0
1630604569.10044694,126128695,-2.07,-2.07,-17.65,-17.64,122.42,122.46,0.0,0.0
1630604569.20040703,126228655,-2.07,-2.07,-17.65,-17.65,122.42,122.46,0.0,0.0
1630604569.30036688,126328615,-2.07,-2.08,-17.66,-17.67,122.42,122.46,0.0,0.0
1630604569.40032697,126428575,-2.08,-2.1,-17.66,-17.68,122.42,122.46,0.0,0.0
1630604569.50028682,126528535,-2.11,-2.12,-17.67,-17.69,122.42,122.46,0.0,0.0
1630604569.60024691,126628495,-2.15,-2.17,-17.7,-17.72,122.41,122.46,0.0,0.0
1630604569.70020700,126728455,-2.15,-2.2,-17.71,-17.73,122.41,122.46,0.0,0.0
1630604569.80016685,126828415,-2.12,-2.18,-17.7,-17.73,122.41,122.45,0.0,0.0
1630604569.90012693,126928375,-2.1,-2.15,-17.7,-17.72,122.4,122.45,0.0,0.0
1630604570.00008702,127028335,-2.08,-2.12,-17.7,-17.71,122.4,122.44,0.0,0.0
1630604570.10004687,127128295,-2.09,-2.1,-17.72,-17.73,122.4,122.44,0.0,0.0
1630604570.20000696,127228255,-2.12,-2.12,-17.74,-17.75,122.4,122.43,0.0,0.0
1630604570.29996681,127328215,-2.14,-2.14,-17.74,-17.76,122.39,122.43,0.0,0.0
1630604570.39992690,127428175,-2.13,-2.15,-17.7,-17.74,122.39,122.42,0.0,0.0
1630604570.50072002,127528968,-2.12,-2.15,-17.66,-17.7,122.39,122.42,0.0,0.0
1630604570.60067987,127628928,-2.12,-2.15,-17.64,-17.66,122.39,122.42,0.0,0.0
1630604570.70063996,127728888,-2.12,-2.15,-17.64,-17.63,122.39,122.42,0.0,0.0
1630604570.80059981,127828848,-2.12,-2.15,-17.68,-17.65,122.39,122.42,0.0,0.0
1630604570.90055990,127928808,-2.12,-2.15,-17.7,-17.69,122.38,122.42,0.0,0.0
1630604571.00051999,128028768,-2.11,-2.14,-17.69,-17.7,122.38,122.42,0.0,0.0
1630604571.10047984,128128728,-2.11,-2.13,-17.69,-17.7,122.38,122.42,0.0,0.0
1630604571.20043993,128228688,-2.11,-2.13,-17.7,-17.71,122.38,122.42,0.0,0.0
1630604571.30040002,128328648,-2.12,-2.13,-17.69,-17.71,122.38,122.42,0.0,0.0
1630604571.40035987,128428608,-2.12,-2.14,-17.7,-17.71,122.38,122.41,0.0,0.0
1630604571.50031996,128528568,-2.09,-2.12,-17.69,-17.71,122.37,122.41,0.0,0.0
1630604571.60028005,128628528,-2.08,-2.1,-17.67,-17.68,122.37,122.4,0.0,0.0
