timestamp,TimeUS,DesRoll,Roll,DesPitch,Pitch,DesYaw,Yaw,ErrRP,ErrYaw
1630603393.49920678,29528184,0.0,0.05,0.0,0.04,352.92,352.93,0.0,0.0
1630603393.59999990,29628977,0.0,0.05,0.0,0.04,352.92,352.93,0.0,0.0
1630603393.69995975,29728937,0.0,0.05,0.0,0.04,352.92,352.93,0.0,0.0
1630603393.79991984,29828897,0.0,0.05,0.0,0.04,352.92,352.93,0.0,0.0
1630603393.89987993,29928857,0.0,0.05,0.0,0.04,352.92,352.93,0.0,0.0
1630603393.99983978,30028817,0.0,0.05,0.0,0.04,352.92,352.93,0.0,0.0
1630603394.09979987,30128777,0.0,0.05,0.0,0.04,352.92,352.93,0.0,0.0
1630603394.19975996,30228737,0.0,0.05,0.0,0.04,352.92,352.93,0.0,0.0
1630603394.29971981,30328697,0.0,0.05,0.0,0.04,352.91,352.92,0.0,0.0
1630603394.39967990,30428657,0.0,0.05,0.0,0.04,352.91,352.92,0.0,0.0
1630603394.49963975,30528617,0.0,0.05,0.0,0.04,352.91,352.92,0.0,0.0
1630603394.59959984,30628577,0.0,0.05,0.0,0.04,352.91,352.92,0.0,0.0
1630603394.69955993,30728537,0.0,0.05,0.0,0.04,352.91,352.92,0.0,0.0
1630603394.79951978,30828497,0.0,0.05,0.0,0.04,352.91,352.92,0.0,0.0
1630603394.89947987,30928457,0.0,0.05,0.0,0.04,352.91,352.92,0.0,0.0
1630603394.99943995,31028417,0.0,0.05,0.0,0.04,352.91,352.92,0.0,0.0
1630603395.09939981,31128377,0.0,0.05,0.0,0.04,352.91,352.92,0.0,0.0
1630603395.19935989,31228337,0.0,0.05,0.0,0.04,352.91,352.92,0.0,0.0
1630603395.29931974,31328297,0.0,0.05,0.0,0.04,352.91,352.92,0.0,0.0
1630603395.39927983,31428257,0.0,0.05,0.0,0.04,352.91,352.92,0.0,0.0
1630603395.49923992,31528217,0.0,0.05,0.0,0.04,352.91,352.92,0.0,0.0
1630603395.59919977,31628177,0.0,0.05,0.0,0.04,352.91,352.92,0.0,0.0
1630603395.69999290,31728970,0.0,0.05,0.0,0.04,352.91,352.92,0.0,0.0
1630603395.79995275,31828930,0.0,0.05,0.0,0.04,352.91,352.92,0.0,0.0
1630603395.89991283,31928890,0.0,0.05,0.0,0.04,352.91,352.92,0.0,0.0
1630603395.99987292,32028850,0.0,0.05,0.0,0.04,352.91,352.92,0.0,0.0
1630603396.09983277,32128810,0.0,0.05,0.0,0.04,352.91,352.92,0.0,0.0
1630603396.19979286,32228770,0.0,0.05,0.0,0.04,352.91,352.92,0.0,0.0
1630603396.29975295,32328730,0.0,0.05,0.0,0.04,352.91,352.92,0.0,0.0
1630603396.39971280,32428690,0.0,0.05,0.0,0.04,352.91,352.92,0.0,0.0
1630603396.49967289,32528650,0.0,0.05,0.0,0.04,352.91,352.92,0.0,0.0
1630603396.59963274,32628610,0.0,0.05,0.0,0.04,352.91,352.92,0.0,0.0
1630603396.69959283,32728570,0.0,0.06,0.0,0.04,352.91,352.92,0.0,0.0
1630603396.79955292,32828530,0.0,0.06,0.0,0.04,352.91,352.92,0.0,0.0
1630603396.89951277,32928490,0.0,0.06,0.0,0.04,352.91,352.92,0.0,0.0
1630603396.99947286,33028450,0.0,0.06,0.0,0.04,352.91,352.92,0.0,0.0
1630603397.09943295,33128410,0.0,0.06,0.0,0.04,352.91,352.92,0.0,0.0
1630603397.19939280,33228370,0.0,0.06,0.0,0.04,352.91,352.92,0.0,0.0
1630603397.29935288,33328330,0.0,0.06,0.0,0.04,352.91,352.92,0.0,0.0
1630603397.39931273,33428290,0.0,0.06,0.0,0.04,352.91,352.92,0.0,0.0
1630603397.49927282,33528250,0.0,0.06,0.0,0.04,352.91,352.92,0.0,0.0
1630603397.59923291,33628210,0.0,0.06,0.0,0.04,352.91,352.92,0.0,0.0
1630603397.69919276,33728170,0.0,0.06,0.0,0.05,352.91,352.92,0.0,0.0
1630603397.79998589,33828963,0.0,0.06,0.0,0.05,352.91,352.92,0.0,0.0
1630603397.89994574,33928923,0.0,0.06,0.0,0.05,352.91,352.92,0.0,0.0
1630603397.99990582,34028883,0.0,0.06,0.0,0.05,352.91,352.92,0.0,0.0
1630603398.09986591,34128843,0.0,0.06,0.0,0.05,352.91,352.92,0.0,0.0
1630603398.19982576,34228803,0.0,0.06,0.0,0.05,352.91,352.92,0.0,0.0
1630603398.29978585,34328763,0.0,0.06,0.0,0.05,352.91,352.92,0.0,0.0
1630603398.39974594,34428723,0.0,0.06,0.0,0.05,352.91,352.92,0.0,0.0
1630603398.49970579,34528683,0.0,0.06,0.0,0.05,352.91,352.92,0.0,0.0
1630603398.59966588,34628643,0.0,0.06,0.0,0.05,352.9,352.91,0.0,0.0
1630603398.69962573,34728603,0.0,0.06,0.0,0.05,352.9,352.91,0.0,0.0
1630603398.79958582,34828563,0.0,0.06,0.0,0.05,352.9,352.91,0.0,0.0
1630603398.89954591,34928523,0.0,0.06,0.0,0.05,352.9,352.91,0.0,0.0
1630603398.99950576,35028483,0.0,0.06,0.0,0.05,352.9,352.91,0.0,0.0
1630603399.09946585,35128443,0.0,0.06,0.0,0.05,352.9,352.91,0.0,0.0
1630603399.19942594,35228403,0.0,0.06,0.0,0.05,352.9,352.91,0.0,0.0
1630603399.29938579,35328363,0.0,0.06,0.0,0.05,352.9,352.91,0.0,0.0
1630603399.39934587,35428323,0.0,0.06,0.0,0.05,352.9,352.91,0.0,0.0
1630603399.49930596,35528283,0.0,0.06,0.0,0.05,352.9,352.91,0.0,0.0
1630603399.59926581,35628243,0.0,0.06,0.0,0.05,352.9,352.91,0.0,0.0
1630603399.69922590,35728203,0.0,0.06,0.0,0.05,352.9,352.91,0.0,0.0
1630603399.79918575,35828163,0.0,0.06,0.0,0.05,352.9,352.91,0.0,0.0
1630603399.89997888,35928956,0.0,0.06,0.0,0.05,352.9,352.91,0.0,0.0
1630603399.99993873,36028916,0.0,0.07,0.0,0.05,352.9,352.91,0.0,0.0
1630603400.09989882,36128876,0.0,0.07,0.0,0.05,352.9,352.91,0.0,0.0
1630603400.19985890,36228836,0.0,0.07,0.0,0.05,352.9,352.91,0.0,0.0
1630603400.29981875,36328796,0.0,0.07,0.0,0.05,352.9,352.91,0.0,0.0
1630603400.39977884,36428756,0.0,0.07,0.0,0.05,352.9,352.91,0.0,0.0
1630603400.49973893,36528716,0.0,0.07,0.0,0.05,352.9,352.91,0.0,0.0
1630603400.59969878,36628676,0.0,0.07,0.0,0.05,352.9,352.91,0.0,0.0
1630603400.69965887,36728636,0.0,0.07,0.0,0.05,352.9,352.91,0.0,0.0
1630603400.79961896,36828596,0.0,0.07,0.0,0.05,352.9,352.91,0.0,0.0
1630603400.89957881,36928556,0.0,0.07,0.0,0.05,352.9,352.91,0.0,0.0
1630603400.99953890,37028516,0.0,0.07,0.0,0.05,352.9,352.91,0.0,0.0
1630603401.09949875,37128476,0.0,0.07,0.0,0.05,352.9,352.91,0.0,0.0
1630603401.19945884,37228436,0.0,0.07,0.0,0.05,352.9,352.91,0.0,0.0
1630603401.29941893,37328396,0.0,0.07,0.0,0.05,352.9,352.91,0.0,0.0
1630603401.39937878,37428356,0.0,0.07,0.0,0.05,352.9,352.91,0.0,0.0
1630603401.49933887,37528316,0.0,0.07,0.0,0.05,352.9,352.91,0.0,0.0
1630603401.59929895,37628276,0.0,0.07,0.0,0.05,352.9,352.91,0.0,0.0
1630603401.69925880,37728236,0.0,0.07,0.0,0.05,352.9,352.91,0.0,0.0
1630603401.79921889,37828196,0.0,0.07,0.0,0.05,352.9,352.91,0.0,0.0
1630603401.89917874,37928156,0.0,0.07,0.0,0.05,352.9,352.91,0.0,0.0
1630603401.99997187,38028949,0.0,0.07,0.0,0.05,352.9,352.91,0.0,0.0
1630603402.09993196,38128909,0.0,0.07,0.0,0.05,352.9,352.91,0.0,0.0
1630603402.19989181,38228869,0.0,0.07,0.0,0.05,352.9,352.91,0.0,0.0
1630603402.29985189,38328829,0.0,0.07,0.0,0.05,352.9,352.91,0.0,0.0
1630603402.39981174,38428789,0.0,0.07,0.0,0.06,352.9,352.91,0.0,0.0
1630603402.49977183,38528749,0.0,0.07,0.0,0.06,352.9,352.91,0.0,0.0
1630603402.59973192,38628709,0.0,0.07,0.0,0.06,352.9,352.91,0.0,0.0
1630603402.69969177,38728669,0.0,0.07,0.0,0.06,352.9,352.91,0.0,0.0
1630603402.79965186,38828629,0.0,0.07,0.0,0.06,352.9,352.91,0.0,0.0
1630603402.89961195,38928589,0.0,0.07,0.0,0.06,352.9,352.91,0.0,0.0
1630603402.99957180,39028549,0.0,0.07,0.0,0.06,352.9,352.91,0.0,0.0
1630603403.09953189,39128509,0.0,0.07,0.0,0.06,352.9,352.91,0.0,0.0
1630603403.19949174,39228469,0.0,0.07,0.0,0.06,352.9,352.91,0.0,0.0
1630603403.29945183,39328429,0.0,0.07,0.0,0.06,352.9,352.91,0.0,0.0
1630603403.39941192,39428389,0.0,0.07,0.0,0.06,352.9,352.91,0.0,0.0
1630603403.49937177,39528349,0.0,0.07,0.0,0.06,352.9,352.91,0.0,0.0
1630603403.59933186,39628309,0.0,0.07,0.0,0.06,352.9,352.91,0.0,0.0
1630603403.69929194,39728269,0.0,0.08,0.0,0.06,352.9,352.91,0.0,0.0
1630603403.79925179,39828229,0.0,0.08,0.0,0.06,352.9,352.91,0.0,0.0
1630603403.89921188,39928189,0.0,0.08,0.0,0.06,352.89,352.9,0.0,0.0
1630603404.00000477,40028982,0.0,0.08,0.0,0.06,352.89,352.9,0.0,0.0
1630603404.09996486,40128942,0.0,0.08,0.0,0.06,352.89,352.9,0.0,0.0
1630603404.19992495,40228902,0.0,0.08,0.0,0.06,352.89,352.9,0.0,0.0
1630603404.29988480,40328862,0.0,0.08,0.0,0.06,352.89,352.9,0.0,0.0
1630603404.39984488,40428822,0.0,0.08,0.0,0.06,352.89,352.9,0.0,0.0
1630603404.49980474,40528782,0.0,0.08,0.0,0.07,352.89,352.9,0.0,0.0
1630603404.59976482,40628742,0.0,0.09,0.0,0.07,352.89,352.9,0.0,0.0
1630603404.69972491,40728702,0.0,0.09,0.0,0.07,352.89,352.9,0.0,0.0
1630603404.79968476,40828662,0.0,0.09,0.0,0.07,352.89,352.9,0.0,0.0
1630603404.89964485,40928622,0.0,0.09,0.0,0.07,352.89,352.9,0.0,0.0
1630603404.99960494,41028582,0.0,0.09,0.0,0.07,352.89,352.9,0.0,0.0
1630603405.09956479,41128542,0.0,0.09,0.0,0.08,352.89,352.9,0.0,0.0
1630603405.19952488,41228502,0.0,0.09,0.0,0.08,352.89,352.9,0.0,0.0
1630603405.29948473,41328462,0.0,0.1,0.0,0.08,352.89,352.9,0.0,0.0
1630603405.39944482,41428422,0.0,0.1,0.0,0.08,352.89,352.9,0.0,0.0
1630603405.49940491,41528382,0.0,0.1,0.0,0.08,352.89,352.9,0.0,0.0
1630603405.59936476,41628342,0.0,0.1,0.0,0.08,352.89,352.9,0.0,0.0
1630603405.69932485,41728302,0.0,0.1,0.0,0.08,352.88,352.89,0.0,0.0
1630603405.79928493,41828262,0.0,0.1,0.0,0.08,352.88,352.89,0.0,0.0
1630603405.89924479,41928222,0.0,0.1,0.0,0.08,352.88,352.89,0.0,0.0
1630603405.99920487,42028182,0.0,0.1,0.0,0.08,352.88,352.89,0.0,0.0
1630603406.09999776,42128975,0.0,0.1,0.0,0.08,352.88,352.89,0.0,0.0
1630603406.19995785,42228935,0.0,0.1,0.0,0.08,352.88,352.89,0.0,0.0
1630603406.29991794,42328895,0.0,0.1,0.0,0.09,352.88,352.89,0.0,0.0
1630603406.39987779,42428855,0.0,0.1,0.0,0.09,352.88,352.89,0.0,0.0
1630603406.49983788,42528815,0.0,0.1,0.0,0.09,352.88,352.89,0.0,0.0
1630603406.59979773,42628775,0.0,0.1,0.0,0.08,352.88,352.89,0.0,0.0
1630603406.69975781,42728735,0.0,0.1,0.0,0.09,352.88,352.89,0.0,0.0
1630603406.79971790,42828695,0.0,0.1,0.0,0.08,352.88,352.89,0.0,0.0
1630603406.89967775,42928655,0.0,0.1,0.0,0.08,352.88,352.89,0.0,0.0
1630603406.99963784,43028615,0.0,0.1,0.0,0.08,352.87,352.88,0.0,0.0
1630603407.09959793,43128575,0.0,0.1,0.0,0.08,352.87,352.88,0.0,0.0
1630603407.19955778,43228535,0.0,0.1,0.0,0.08,352.87,352.88,0.0,0.0
1630603407.29951787,43328495,0.0,0.1,0.0,0.08,352.87,352.88,0.0,0.0
1630603407.39947796,43428455,0.0,0.1,0.0,0.08,352.87,352.88,0.0,0.0
1630603407.49943781,43528415,0.0,0.1,0.0,0.08,352.87,352.88,0.0,0.0
1630603407.59939790,43628375,0.0,0.1,0.0,0.08,352.87,352.88,0.0,0.0
1630603407.69935775,43728335,0.0,0.1,0.0,0.08,352.87,352.88,0.0,0.0
1630603407.79931784,43828295,0.0,0.1,0.0,0.08,352.87,352.88,0.0,0.0
1630603407.89927793,43928255,0.0,0.1,0.0,0.08,352.87,352.88,0.0,0.0
1630603407.99923778,44028215,0.0,0.1,0.0,0.08,352.87,352.88,0.0,0.0
1630603408.09919786,44128175,0.0,0.1,0.0,0.08,352.87,352.88,0.0,0.0
1630603408.19999075,44228968,0.0,0.09,0.0,0.08,352.87,352.88,0.0,0.0
1630603408.29995084,44328928,0.0,0.09,0.0,0.08,352.87,352.88,0.0,0.0
1630603408.39991093,44428888,0.0,0.09,0.0,0.07,352.87,352.88,0.0,0.0
1630603408.49987078,44528848,0.0,0.09,0.0,0.07,352.87,352.88,0.0,0.0
1630603408.59983087,44628808,0.0,0.09,0.0,0.07,352.87,352.88,0.0,0.0
1630603408.69979095,44728768,-0.09,0.09,-0.09,0.07,352.87,352.88,0.0,0.0
1630603408.79975080,44828728,-0.07,0.09,-0.07,0.07,352.87,352.88,0.0,0.0
1630603408.89971089,44928688,-0.1,0.09,-0.1,0.07,352.87,352.88,0.0,0.0
1630603408.99967074,45028648,-0.16,0.09,-0.16,0.07,352.87,352.88,0.0,0.0
1630603409.09963083,45128608,-0.21,0.09,-0.21,0.07,352.87,352.88,0.0,0.0
1630603409.19959092,45228568,-0.25,0.09,-0.24,0.07,352.87,352.88,0.0,0.0
1630603409.29955077,45328528,-0.26,0.09,-0.25,0.07,352.87,352.88,0.0,0.0
1630603409.39951086,45428488,-0.27,0.09,-0.26,0.07,352.87,352.88,0.0,0.0
1630603409.49947095,45528448,-0.29,0.09,-0.27,0.07,352.87,352.88,0.0,0.0
1630603409.59943080,45628408,-0.3,0.08,-0.29,0.07,352.87,352.88,0.0,0.0
1630603409.69939089,45728368,-0.32,0.08,-0.31,0.07,352.87,352.88,0.0,0.0
1630603409.79935074,45828328,-0.34,0.08,-0.32,0.07,352.87,352.88,0.0,0.0
1630603409.89931083,45928288,-0.37,0.08,-0.34,0.07,352.87,352.88,0.0,0.0
1630603409.99927092,46028248,-0.41,0.08,-0.34,0.07,352.87,352.88,0.0,0.0
1630603410.09923077,46128208,-0.41,0.08,-0.32,0.07,352.87,352.88,0.0,0.0
1630603410.19919086,46228168,-0.44,0.08,-0.32,0.07,352.87,352.88,0.0,0.0
1630603410.29998374,46328961,-0.46,-0.03,-0.37,-0.03,352.87,352.88,0.0,0.0
1630603410.39994383,46428921,-0.46,-0.34,-0.4,-0.31,352.87,352.88,0.0,0.0
1630603410.49990392,46528881,-0.38,-0.59,-0.36,-0.55,352.87,352.88,0.0,0.0
1630603410.59986377,46628841,-0.22,-0.67,-0.26,-0.64,352.87,352.88,0.0,0.0
1630603410.69982386,46728801,-0.03,-0.57,-0.12,-0.59,352.87,352.88,0.0,0.0
1630603410.79978395,46828761,0.12,-0.39,0.04,-0.43,352.87,352.88,0.0,0.0
1630603410.89974380,46928721,0.27,-0.18,0.2,-0.23,352.87,352.87,0.0,0.0
1630603410.99970388,47028681,0.4,0.01,0.33,-0.01,352.87,352.87,0.0,0.0
1630603411.09966373,47128641,0.46,0.17,0.39,0.14,352.87,352.87,0.0,0.0
1630603411.19962382,47228601,0.48,0.25,0.41,0.22,352.87,352.87,0.0,0.0
1630603411.29958391,47328561,0.47,0.27,0.4,0.24,352.87,352.87,0.0,0.0
1630603411.39954376,47428521,0.47,0.26,0.36,0.22,352.87,352.87,0.0,0.0
1630603411.49950385,47528481,0.5,0.28,0.31,0.16,352.87,352.87,0.0,0.0
1630603411.59946394,47628441,0.48,0.29,0.3,0.12,352.87,352.87,0.0,0.0
1630603411.69942379,47728401,0.45,0.28,0.31,0.12,352.87,352.87,0.0,0.0
1630603411.79938388,47828361,0.41,0.26,0.33,0.15,352.87,352.87,0.0,0.0
1630603411.89934373,47928321,0.42,0.25,0.31,0.17,352.87,352.87,0.0,0.0
1630603411.99930382,48028281,0.44,0.27,0.29,0.17,352.79,352.8,0.0,0.0
1630603412.09926391,48128241,0.43,0.29,0.26,0.16,352.79,352.8,0.0,0.0
1630603412.19922376,48228201,0.4,0.3,0.25,0.15,352.79,352.8,0.0,0.0
1630603412.29918385,48328161,0.34,0.27,0.24,0.14,352.79,352.8,0.0,0.0
1630603412.39997673,48428954,0.27,0.2,0.25,0.15,352.79,352.8,0.0,0.0
1630603412.49993682,48528914,0.22,0.14,0.25,0.17,352.79,352.81,0.0,0.0
1630603412.59989691,48628874,0.19,0.09,0.24,0.18,352.79,352.81,0.0,0.0
1630603412.69985676,48728834,0.16,0.07,0.21,0.17,352.79,352.81,0.0,0.0
1630603412.79981685,48828794,0.16,0.07,0.17,0.13,352.79,352.81,0.0,0.0
1630603412.89977694,48928754,0.17,0.08,0.12,0.09,352.79,352.81,0.0,0.0
1630603412.99973679,49028714,0.19,0.11,0.09,0.05,352.79,352.8,0.0,0.0
1630603413.09969687,49128674,0.2,0.15,0.08,0.02,352.79,352.8,0.0,0.0
1630603413.19965696,49228634,0.2,0.17,0.08,0.01,352.79,352.8,0.0,0.0
1630603413.29961681,49328594,0.17,0.16,0.07,0.02,352.79,352.8,0.0,0.0
1630603413.39957690,49428554,0.12,0.12,0.04,0.01,352.79,352.8,0.0,0.0
1630603413.49953675,49528514,0.08,0.07,0.0,-0.01,352.79,352.8,0.0,0.0
1630603413.59949684,49628474,0.06,0.02,-0.04,-0.05,352.79,352.8,0.0,0.0
1630603413.69945693,49728434,0.04,0.0,-0.03,-0.08,352.79,352.8,0.0,0.0
1630603413.79941678,49828394,0.01,-0.02,0.03,-0.05,352.79,352.8,0.0,0.0
1630603413.89937687,49928354,0.01,-0.02,0.11,0.02,352.79,352.8,0.0,0.0
1630603413.99933696,50028314,0.03,-0.01,0.13,0.1,352.79,352.8,0.0,0.0
1630603414.09929681,50128274,0.04,0.0,0.1,0.12,352.79,352.8,0.0,0.0
1630603414.19925690,50228234,0.05,0.03,0.06,0.09,352.79,352.8,0.0,0.0
1630603414.29921675,50328194,0.06,0.04,0.0,0.04,352.79,352.8,0.0,0.0
1630603414.39917684,50428154,0.06,0.05,-0.05,-0.02,352.79,352.8,0.0,0.0
1630603414.49996996,50528947,0.07,0.06,-0.09,-0.09,352.79,352.8,0.0,0.0
1630603414.59992981,50628907,0.07,0.06,-0.08,-0.12,352.79,352.8,0.0,0.0
1630603414.69988990,50728867,0.07,0.06,-0.02,-0.09,352.79,352.8,0.0,0.0
1630603414.79984975,50828827,0.07,0.06,0.05,-0.01,352.79,352.8,0.0,0.0
1630603414.89980984,50928787,0.12,0.08,0.13,0.08,352.79,352.8,0.0,0.0
1630603414.99976993,51028747,0.14,0.12,0.13,0.14,352.79,352.8,0.0,0.0
1630603415.09972978,51128707,0.15,0.15,0.1,0.14,352.79,352.79,0.0,0.0
1630603415.19968987,51228667,0.17,0.17,0.06,0.11,352.79,352.79,0.0,0.0
1630603415.29964995,51328627,0.2,0.2,0.05,0.08,352.79,352.79,0.0,0.0
1630603415.39960980,51428587,0.19,0.21,0.06,0.06,352.79,352.78,0.0,0.0
1630603415.49956989,51528547,0.15,0.19,0.09,0.08,352.79,352.78,0.0,0.0
1630603415.59952974,51628507,0.11,0.13,0.1,0.1,352.79,352.78,0.0,0.0
1630603415.69948983,51728467,0.08,0.08,0.09,0.1,352.79,352.78,0.0,0.0
1630603415.79944992,51828427,0.06,0.04,0.08,0.09,352.79,352.79,0.0,0.0
1630603415.89940977,51928387,0.06,0.02,0.09,0.08,352.79,352.79,0.0,0.0
1630603415.99936986,52028347,0.05,0.02,0.12,0.09,352.79,352.8,0.0,0.0
1630603416.09932995,52128307,0.05,0.03,0.13,0.11,352.79,352.8,0.0,0.0
1630603416.19928980,52228267,0.04,0.03,0.11,0.12,352.79,352.81,0.0,0.0
1630603416.29924989,52328227,0.06,0.03,0.11,0.11,352.79,352.81,0.0,0.0
1630603416.39920974,52428187,0.08,0.05,0.12,0.12,352.79,352.81,0.0,0.0
1630603416.50000286,52528980,0.11,0.07,0.1,0.12,352.79,352.81,0.0,0.0
1630603416.59996295,52628940,0.1,0.08,0.09,0.09,352.79,352.81,0.0,0.0
1630603416.69992280,52728900,0.08,0.08,0.09,0.07,352.79,352.81,0.0,0.0
1630603416.79988289,52828860,0.09,0.09,0.11,0.07,352.79,352.81,0.0,0.0
1630603416.89984274,52928820,0.09,0.08,0.16,0.11,352.79,352.81,0.0,0.0
1630603416.99980283,53028780,0.07,0.07,0.19,0.17,352.79,352.81,0.0,0.0
1630603417.09976292,53128740,0.08,0.06,0.17,0.18,352.79,352.8,0.0,0.0
1630603417.19972277,53228700,0.07,0.07,0.15,0.17,352.79,352.8,0.0,0.0
1630603417.29968286,53328660,0.06,0.06,0.11,0.14,352.79,352.8,0.0,0.0
1630603417.39964294,53428620,0.06,0.05,0.09,0.09,352.79,352.8,0.0,0.0
1630603417.49960279,53528580,0.06,0.06,0.11,0.08,352.79,352.8,0.0,0.0
1630603417.59956288,53628540,0.06,0.06,0.15,0.11,352.79,352.8,0.0,0.0
1630603417.69952273,53728500,0.09,0.07,0.16,0.15,352.79,352.8,0.0,0.0
1630603417.79948282,53828460,0.12,0.1,0.19,0.18,352.79,352.8,0.0,0.0
1630603417.89944291,53928420,0.14,0.13,0.18,0.19,352.79,352.81,0.0,0.0
1630603417.99940276,54028380,0.14,0.14,0.14,0.16,352.79,352.81,0.0,0.0
1630603418.09936285,54128340,0.1,0.13,0.1,0.12,352.79,352.81,0.0,0.0
1630603418.19932294,54228300,0.05,0.08,0.05,0.07,352.79,352.81,0.0,0.0
1630603418.29928279,54328260,0.01,0.02,0.03,0.03,352.79,352.81,0.0,0.0
1630603418.39924288,54428220,0.02,0.0,0.05,0.02,352.79,352.81,0.0,0.0
1630603418.49920273,54528180,0.05,0.0,0.1,0.05,352.79,352.81,0.0,0.0
1630603418.59999585,54628973,0.06,0.03,0.1,0.08,352.79,352.81,0.0,0.0
1630603418.69995594,54728933,0.08,0.06,0.06,0.07,352.79,352.81,0.0,0.0
1630603418.79991579,54828893,0.11,0.1,0.03,0.04,352.79,352.81,0.0,0.0
1630603418.89987588,54928853,0.11,0.12,0.01,0.01,352.79,352.81,0.0,0.0
1630603418.99983573,55028813,0.1,0.13,0.0,0.0,352.79,352.81,0.0,0.0
1630603419.09979582,55128773,0.04,0.09,0.0,0.0,352.79,352.81,0.0,0.0
1630603419.19975591,55228733,0.01,0.04,-0.01,-0.01,352.79,352.8,0.0,0.0
1630603419.29971576,55328693,0.0,0.0,0.01,0.0,352.79,352.8,0.0,0.0
1630603419.39967585,55428653,0.02,0.0,0.08,0.04,352.79,352.8,0.0,0.0
1630603419.49963593,55528613,0.06,0.03,0.08,0.08,352.79,352.8,0.0,0.0
1630603419.59959579,55628573,0.09,0.07,0.07,0.08,352.79,352.79,0.0,0.0
1630603419.69955587,55728533,0.08,0.08,0.04,0.07,352.79,352.79,0.0,0.0
1630603419.79951596,55828493,0.05,0.06,0.03,0.04,352.79,352.79,0.0,0.0
1630603419.89947581,55928453,0.06,0.05,0.02,0.01,352.79,352.79,0.0,0.0
1630603419.99943590,56028413,0.08,0.07,0.02,0.01,352.79,352.79,0.0,0.0
1630603420.09939575,56128373,0.09,0.08,0.02,0.01,352.79,352.79,0.0,0.0
1630603420.19935584,56228333,0.09,0.08,0.0,0.0,352.79,352.8,0.0,0.0
1630603420.29931593,56328293,0.09,0.08,0.0,0.0,352.79,352.8,0.0,0.0
1630603420.39927578,56428253,0.07,0.06,0.01,0.0,352.79,352.8,0.0,0.0
1630603420.49923587,56528213,0.08,0.05,0.02,0.02,352.79,352.8,0.0,0.0
1630603420.59919596,56628173,0.1,0.07,0.02,0.02,352.79,352.8,0.0,0.0
1630603420.69998884,56728966,0.12,0.09,0.01,0.02,352.79,352.8,0.0,0.0
1630603420.79994893,56828926,0.13,0.11,0.01,0.02,352.79,352.8,0.0,0.0
1630603420.89990878,56928886,0.11,0.12,0.03,0.03,352.79,352.8,0.0,0.0
1630603420.99986887,57028846,0.1,0.1,0.04,0.04,352.79,352.8,0.0,0.0
1630603421.09982896,57128806,0.07,0.09,0.08,0.06,352.79,352.8,0.0,0.0
1630603421.19978881,57228766,0.06,0.07,0.09,0.07,352.79,352.8,0.0,0.0
1630603421.29974890,57328726,0.07,0.05,0.12,0.09,352.79,352.8,0.0,0.0
1630603421.39970875,57428686,0.06,0.05,0.15,0.12,352.79,352.8,0.0,0.0
1630603421.49966884,57528646,0.04,0.04,0.17,0.16,352.79,352.8,0.0,0.0
1630603421.59962893,57628606,0.04,0.02,0.16,0.17,352.79,352.79,0.0,0.0
1630603421.69958878,57728566,0.09,0.05,0.17,0.18,352.79,352.79,0.0,0.0
1630603421.79954886,57828526,0.1,0.09,0.17,0.19,352.79,352.79,0.0,0.0
1630603421.89950895,57928486,0.11,0.11,0.16,0.17,352.79,352.79,0.0,0.0
1630603421.99946880,58028446,0.09,0.12,0.12,0.14,352.79,352.8,0.0,0.0
1630603422.09942889,58128406,0.06,0.08,0.09,0.09,352.79,352.8,0.0,0.0
1630603422.19938874,58228366,0.04,0.05,0.07,0.05,352.79,352.8,0.0,0.0
1630603422.29934883,58328326,0.01,0.01,0.08,0.05,352.79,352.8,0.0,0.0
1630603422.39930892,58428286,0.02,0.0,0.1,0.06,352.79,352.8,0.0,0.0
1630603422.49926877,58528246,0.04,0.02,0.12,0.1,352.79,352.8,0.0,0.0
1630603422.59922886,58628206,0.04,0.03,0.12,0.12,352.79,352.8,0.0,0.0
1630603422.69918895,58728166,0.06,0.05,0.15,0.14,352.79,352.8,0.0,0.0
1630603422.79998183,58828959,0.05,0.06,0.14,0.16,352.79,352.8,0.0,0.0
1630603422.89994192,58928919,0.06,0.07,0.11,0.14,352.79,352.79,0.0,0.0
1630603422.99990177,59028879,0.09,0.08,0.06,0.1,352.79,352.79,0.0,0.0
1630603423.09986186,59128839,0.11,0.09,0.03,0.06,352.79,352.79,0.0,0.0
1630603423.19982195,59228799,0.11,0.1,0.02,0.02,352.79,352.79,0.0,0.0
1630603423.29978180,59328759,0.14,0.12,0.05,0.01,352.79,352.79,0.0,0.0
1630603423.39974189,59428719,0.14,0.14,0.08,0.03,352.79,352.79,0.0,0.0
1630603423.49970174,59528679,0.13,0.14,0.09,0.06,352.79,352.79,0.0,0.0
1630603423.59966183,59628639,0.12,0.13,0.09,0.07,352.79,352.79,0.0,0.0
1630603423.69962192,59728599,0.09,0.11,0.07,0.07,352.79,352.79,0.0,0.0
1630603423.79958177,59828559,0.07,0.07,0.05,0.05,352.79,352.79,0.0,0.0
1630603423.89954185,59928519,0.07,0.05,0.03,0.03,352.79,352.79,0.0,0.0
1630603423.99950194,60028479,0.1,0.06,0.01,0.02,352.79,352.8,0.0,0.0
1630603424.09946179,60128439,0.1,0.08,-0.01,0.0,352.79,352.8,0.0,0.0
1630603424.19942188,60228399,0.1,0.08,0.0,0.0,352.79,352.8,0.0,0.0
1630603424.29938173,60328359,0.09,0.08,0.04,0.01,352.79,352.8,0.0,0.0
1630603424.39934182,60428319,0.09,0.08,0.06,0.04,352.79,352.81,0.0,0.0
1630603424.49930191,60528279,0.08,0.09,0.07,0.06,352.79,352.81,0.0,0.0
1630603424.59926176,60628239,0.08,0.09,0.05,0.07,352.79,352.81,0.0,0.0
1630603424.69922185,60728199,0.09,0.08,0.02,0.05,352.79,352.81,0.0,0.0
1630603424.79918194,60828159,0.12,0.1,0.03,0.03,352.79,352.8,0.0,0.0
1630603424.89997482,60928952,0.12,0.12,0.0,0.02,352.79,352.8,0.0,0.0
1630603424.99993491,61028912,0.1,0.12,0.0,0.0,352.79,352.8,0.0,0.0
1630603425.09989476,61128872,0.07,0.09,0.0,0.0,352.79,352.8,0.0,0.0
1630603425.19985485,61228832,0.08,0.08,0.03,0.01,352.79,352.79,0.0,0.0
1630603425.29981494,61328792,0.11,0.09,0.04,0.02,352.79,352.79,0.0,0.0
1630603425.39977479,61428752,0.13,0.11,0.05,0.04,352.79,352.79,0.0,0.0
1630603425.49973488,61528712,0.11,0.12,0.06,0.05,352.79,352.79,0.0,0.0
1630603425.59969473,61628672,0.11,0.12,0.07,0.06,352.79,352.79,0.0,0.0
1630603425.69965482,61728632,0.12,0.13,0.1,0.08,352.79,352.79,0.0,0.0
1630603425.79961491,61828592,0.12,0.12,0.13,0.12,352.79,352.8,0.0,0.0
1630603425.89957476,61928552,0.14,0.13,0.12,0.13,352.79,352.8,0.0,0.0
1630603425.99953485,62028512,0.13,0.14,0.07,0.11,352.79,352.79,0.0,0.0
1630603426.09949493,62128472,0.1,0.13,0.05,0.06,352.79,352.79,0.0,0.0
1630603426.19945478,62228432,0.09,0.11,0.06,0.05,352.79,352.79,0.0,0.0
1630603426.29941487,62328392,0.12,0.11,0.09,0.06,352.79,352.79,0.0,0.0
1630603426.39937496,62428352,0.14,0.12,0.12,0.09,352.79,352.79,0.0,0.0
1630603426.49933481,62528312,0.14,0.13,0.14,0.11,352.79,352.79,0.0,0.0
1630603426.59929490,62628272,0.11,0.13,0.12,0.13,352.79,352.79,0.0,0.0
1630603426.69925475,62728232,0.07,0.09,0.09,0.11,352.79,352.8,0.0,0.0
1630603426.79921484,62828192,0.07,0.06,0.08,0.08,352.79,352.8,0.0,0.0
1630603426.90000796,62928985,0.08,0.06,0.08,0.07,352.79,352.8,0.0,0.0
1630603426.99996781,63028945,0.08,0.07,0.08,0.07,352.79,352.8,0.0,0.0
1630603427.09992790,63128905,0.07,0.07,0.1,0.08,352.79,352.8,0.0,0.0
1630603427.19988775,63228865,0.07,0.08,0.12,0.1,352.79,352.81,0.0,0.0
1630603427.29984784,63328825,0.04,0.06,0.16,0.14,352.79,352.81,0.0,0.0
1630603427.39980793,63428785,0.04,0.04,0.21,0.19,352.79,352.8,0.0,0.0
1630603427.49976778,63528745,0.06,0.05,0.21,0.23,352.79,352.8,0.0,0.0
1630603427.59972787,63628705,0.08,0.05,0.19,0.22,352.79,352.8,0.0,0.0
1630603427.69968796,63728665,0.1,0.08,0.18,0.2,352.79,352.8,0.0,0.0
1630603427.79964781,63828625,0.11,0.09,0.17,0.18,352.79,352.8,0.0,0.0
1630603427.89960790,63928585,0.12,0.11,0.15,0.16,352.79,352.8,0.0,0.0
1630603427.99956775,64028545,0.11,0.1,0.13,0.13,352.79,352.8,0.0,0.0
1630603428.09952784,64128505,0.1,0.09,0.15,0.13,352.79,352.8,0.0,0.0
1630603428.19948792,64228465,0.08,0.08,0.14,0.13,352.79,352.79,0.0,0.0
1630603428.29944777,64328425,0.08,0.07,0.11,0.11,352.79,352.79,0.0,0.0
1630603428.39940786,64428385,0.09,0.07,0.09,0.08,352.79,352.79,0.0,0.0
1630603428.49936795,64528345,0.09,0.07,0.09,0.07,352.79,352.8,0.0,0.0
1630603428.59932780,64628305,0.12,0.09,0.09,0.07,352.79,352.8,0.0,0.0
1630603428.69928789,64728265,0.14,0.12,0.09,0.08,352.79,352.8,0.0,0.0
1630603428.79924774,64828225,0.13,0.13,0.08,0.07,352.79,352.8,0.0,0.0
1630603428.89920783,64928185,0.15,0.13,0.07,0.07,352.79,352.8,0.0,0.0
1630603429.00000095,65028978,0.15,0.13,0.08,0.07,352.79,352.8,0.0,0.0
1630603429.09996080,65128938,0.16,0.13,0.08,0.08,352.79,352.8,0.0,0.0
1630603429.19992089,65228898,0.18,0.15,0.08,0.09,352.79,352.8,0.0,0.0
1630603429.29988074,65328858,0.16,0.16,0.09,0.09,352.79,352.8,0.0,0.0
1630603429.39984083,65428818,0.1,0.13,0.12,0.11,352.79,352.8,0.0,0.0
1630603429.49980092,65528778,0.07,0.08,0.14,0.13,352.79,352.8,0.0,0.0
1630603429.59976077,65628738,0.06,0.05,0.15,0.14,352.79,352.8,0.0,0.0
1630603429.69972086,65728698,0.07,0.05,0.11,0.12,352.79,352.8,0.0,0.0
1630603429.79968095,65828658,0.07,0.05,0.09,0.09,352.79,352.8,0.0,0.0
1630603429.89964080,65928618,0.07,0.05,0.08,0.08,352.79,352.8,0.0,0.0
1630603429.99960089,66028578,0.07,0.05,0.05,0.05,352.79,352.8,0.0,0.0
1630603430.09956074,66128538,0.06,0.05,0.03,0.02,352.79,352.8,0.0,0.0
1630603430.19952083,66228498,0.05,0.04,0.03,0.01,352.79,352.8,0.0,0.0
1630603430.29948092,66328458,0.04,0.02,0.05,0.02,352.79,352.8,0.0,0.0
1630603430.39944077,66428418,0.06,0.02,0.08,0.04,352.79,352.8,0.0,0.0
1630603430.49940085,66528378,0.07,0.04,0.1,0.07,352.79,352.8,0.0,0.0
1630603430.59936094,66628338,0.08,0.05,0.11,0.1,352.79,352.8,0.0,0.0
1630603430.69932079,66728298,0.07,0.06,0.1,0.11,352.79,352.8,0.0,0.0
1630603430.79928088,66828258,0.08,0.07,0.1,0.11,352.79,352.8,0.0,0.0
1630603430.89924073,66928218,0.08,0.09,0.07,0.09,352.79,352.8,0.0,0.0
1630603430.99920082,67028178,0.07,0.09,0.04,0.05,352.79,352.8,0.0,0.0
1630603431.09999394,67128971,0.05,0.07,0.04,0.02,352.79,352.8,0.0,0.0
1630603431.19995379,67228931,0.05,0.05,0.08,0.03,352.79,352.81,0.0,0.0
1630603431.29991388,67328891,0.11,0.08,0.11,0.07,352.79,352.8,0.0,0.0
1630603431.39987373,67428851,0.16,0.13,0.14,0.1,352.79,352.8,0.0,0.0
1630603431.49983382,67528811,0.2,0.2,0.13,0.13,352.79,352.8,0.0,0.0
1630603431.59979391,67628771,0.19,0.22,0.13,0.14,352.79,352.8,0.0,0.0
1630603431.69975376,67728731,0.18,0.2,0.13,0.15,352.79,352.8,0.0,0.0
1630603431.79971385,67828691,0.18,0.19,0.11,0.13,352.79,352.79,0.0,0.0
1630603431.89967394,67928651,0.16,0.17,0.08,0.09,352.79,352.79,0.0,0.0
1630603431.99963379,68028611,0.13,0.15,0.11,0.08,352.79,352.79,0.0,0.0
1630603432.09959388,68128571,0.09,0.12,0.12,0.09,352.79,352.8,0.0,0.0
1630603432.19955373,68228531,0.09,0.08,0.13,0.1,352.79,352.8,0.0,0.0
1630603432.29951382,68328491,0.12,0.08,0.15,0.13,352.79,352.8,0.0,0.0
1630603432.39947391,68428451,0.16,0.1,0.15,0.15,352.79,352.81,0.0,0.0
1630603432.49943376,68528411,0.18,0.14,0.15,0.15,352.79,352.81,0.0,0.0
1630603432.59939384,68628371,0.18,0.17,0.14,0.14,352.79,352.81,0.0,0.0
1630603432.69935393,68728331,0.18,0.17,0.1,0.12,352.79,352.81,0.0,0.0
1630603432.79931378,68828291,0.14,0.15,0.07,0.08,352.79,352.81,0.0,0.0
1630603432.89927387,68928251,0.14,0.14,0.07,0.06,352.79,352.81,0.0,0.0
1630603432.99923396,69028211,0.13,0.13,0.09,0.07,352.79,352.8,0.0,0.0
1630603433.09919381,69128171,0.14,0.13,0.11,0.09,352.79,352.8,0.0,0.0
1630603433.19998693,69228964,0.15,0.13,0.12,0.1,352.79,352.8,0.0,0.0
1630603433.29994678,69328924,0.14,0.14,0.15,0.13,352.79,352.8,0.0,0.0
1630603433.39990687,69428884,0.1,0.12,0.16,0.15,352.79,352.8,0.0,0.0
1630603433.49986696,69528844,0.08,0.09,0.14,0.16,352.79,352.79,0.0,0.0
1630603433.59982681,69628804,0.1,0.08,0.13,0.15,352.79,352.79,0.0,0.0
1630603433.69978690,69728764,0.13,0.09,0.11,0.14,352.79,352.79,0.0,0.0
1630603433.79974675,69828724,0.14,0.1,0.1,0.12,352.79,352.79,0.0,0.0
1630603433.89970684,69928684,0.13,0.11,0.12,0.12,352.79,352.79,0.0,0.0
1630603433.99966693,70028644,0.11,0.09,0.13,0.12,352.79,352.79,0.0,0.0
1630603434.09962678,70128604,0.1,0.08,0.09,0.1,352.79,352.79,0.0,0.0
1630603434.19958687,70228564,0.12,0.1,0.07,0.07,352.79,352.8,0.0,0.0
1630603434.29954696,70328524,0.17,0.14,0.06,0.05,352.79,352.8,0.0,0.0
1630603434.39950681,70428484,0.18,0.18,0.06,0.04,352.79,352.8,0.0,0.0
1630603434.49946690,70528444,0.16,0.18,0.06,0.04,352.79,352.8,0.0,0.0
1630603434.59942675,70628404,0.15,0.17,0.09,0.06,352.79,352.8,0.0,0.0
1630603434.69938684,70728364,0.13,0.14,0.07,0.07,352.79,352.81,0.0,0.0
1630603434.79934692,70828324,0.12,0.12,0.05,0.05,352.79,352.81,0.0,0.0
1630603434.89930677,70928284,0.12,0.11,0.06,0.04,352.79,352.81,0.0,0.0
1630603434.99926686,71028244,0.11,0.1,0.08,0.06,352.79,352.8,0.0,0.0
1630603435.09922695,71128204,0.08,0.09,0.11,0.09,352.79,352.8,0.0,0.0
1630603435.19918680,71228164,0.05,0.06,0.11,0.11,352.79,352.8,0.0,0.0
1630603435.29997993,71328957,0.04,0.04,0.09,0.11,352.79,352.79,0.0,0.0
1630603435.39993978,71428917,0.05,0.03,0.08,0.08,352.79,352.79,0.0,0.0
1630603435.49989986,71528877,0.08,0.04,0.07,0.06,352.79,352.79,0.0,0.0
1630603435.59985995,71628837,0.09,0.06,0.08,0.05,352.79,352.79,0.0,0.0
1630603435.69981980,71728797,0.12,0.09,0.1,0.07,352.79,352.79,0.0,0.0
1630603435.79977989,71828757,0.14,0.13,0.13,0.1,352.79,352.79,0.0,0.0
1630603435.89973974,71928717,0.12,0.15,0.15,0.14,352.79,352.79,0.0,0.0
1630603435.99969983,72028677,0.07,0.11,0.1,0.13,352.79,352.79,0.0,0.0
1630603436.09965992,72128637,0.04,0.06,0.07,0.09,352.79,352.79,0.0,0.0
1630603436.19961977,72228597,0.03,0.02,0.07,0.06,352.79,352.79,0.0,0.0
1630603436.29957986,72328557,0.03,0.0,0.08,0.06,352.79,352.8,0.0,0.0
1630603436.39953995,72428517,0.05,0.02,0.08,0.06,352.79,352.8,0.0,0.0
1630603436.49949980,72528477,0.07,0.05,0.08,0.08,352.79,352.8,0.0,0.0
1630603436.59945989,72628437,0.06,0.07,0.08,0.08,352.79,352.8,0.0,0.0
1630603436.69941974,72728397,0.01,0.04,0.1,0.09,352.79,352.8,0.0,0.0
1630603436.79937983,72828357,-0.04,-0.01,0.13,0.12,352.79,352.8,0.0,0.0
1630603436.89933991,72928317,-0.05,-0.06,0.1,0.12,352.79,352.8,0.0,0.0
1630603436.99929976,73028277,0.0,-0.06,0.08,0.09,352.79,352.8,0.0,0.0
1630603437.09925985,73128237,0.04,-0.02,0.08,0.07,352.79,352.8,0.0,0.0
1630603437.19921994,73228197,0.07,0.02,0.06,0.06,352.79,352.8,0.0,0.0
1630603437.29917979,73328157,0.08,0.06,0.05,0.04,352.79,352.81,0.0,0.0
1630603437.39997292,73428950,0.11,0.1,0.08,0.04,352.79,352.81,0.0,0.0
1630603437.49993277,73528910,0.13,0.13,0.1,0.07,352.79,352.8,0.0,0.0
1630603437.59989285,73628870,0.13,0.14,0.09,0.09,352.79,352.8,0.0,0.0
1630603437.69985294,73728830,0.16,0.16,0.07,0.09,352.79,352.8,0.0,0.0
1630603437.79981279,73828790,0.19,0.19,0.04,0.06,352.79,352.8,0.0,0.0
1630603437.89977288,73928750,0.18,0.2,0.04,0.04,352.79,352.79,0.0,0.0
1630603437.99973273,74028710,0.15,0.18,0.05,0.04,352.79,352.79,0.0,0.0
1630603438.09969282,74128670,0.16,0.15,0.07,0.05,352.79,352.79,0.0,0.0
1630603438.19965291,74228630,0.18,0.16,0.11,0.08,352.79,352.79,0.0,0.0
1630603438.29961276,74328590,0.18,0.17,0.11,0.1,352.79,352.79,0.0,0.0
1630603438.39957285,74428550,0.18,0.18,0.1,0.1,352.79,352.79,0.0,0.0
1630603438.49953294,74528510,0.18,0.18,0.07,0.1,352.79,352.79,0.0,0.0
1630603438.59949279,74628470,0.19,0.19,0.03,0.06,352.79,352.79,0.0,0.0
1630603438.69945288,74728430,0.2,0.19,0.0,0.02,352.79,352.79,0.0,0.0
1630603438.79941273,74828390,0.2,0.2,0.0,0.0,352.79,352.79,0.0,0.0
1630603438.89937282,74928350,0.17,0.19,-0.01,-0.01,352.79,352.79,0.0,0.0
1630603438.99933290,75028310,0.13,0.15,0.01,-0.01,352.79,352.79,0.0,0.0
1630603439.09929276,75128270,0.13,0.13,0.02,0.0,352.79,352.79,0.0,0.0
1630603439.19925284,75228230,0.16,0.14,0.02,0.01,352.79,352.79,0.0,0.0
1630603439.29921293,75328190,0.18,0.15,0.03,0.02,352.79,352.79,0.0,0.0
1630603439.40000582,75428983,0.21,0.18,0.05,0.04,352.79,352.79,0.0,0.0
1630603439.49996591,75528943,0.24,0.22,0.06,0.06,352.79,352.79,0.0,0.0
1630603439.59992576,75628903,0.24,0.24,0.02,0.04,352.79,352.79,0.0,0.0
1630603439.69988585,75728863,0.19,0.21,0.03,0.02,352.79,352.79,0.0,0.0
1630603439.79984593,75828823,0.15,0.18,0.05,0.02,352.79,352.79,0.0,0.0
1630603439.89980578,75928783,0.16,0.16,0.06,0.03,352.79,352.79,0.0,0.0
1630603439.99976587,76028743,0.18,0.16,0.08,0.05,352.79,352.79,0.0,0.0
1630603440.09972596,76128703,0.15,0.16,0.1,0.08,352.79,352.79,0.0,0.0
1630603440.19968581,76228663,0.14,0.14,0.12,0.11,352.79,352.79,0.0,0.0
1630603440.29964590,76328623,0.15,0.14,0.11,0.11,352.79,352.79,0.0,0.0
1630603440.39960575,76428583,0.18,0.16,0.1,0.09,352.79,352.79,0.0,0.0
1630603440.49956584,76528543,0.19,0.18,0.13,0.11,352.79,352.79,0.0,0.0
1630603440.59952593,76628503,0.19,0.19,0.14,0.13,352.79,352.8,0.0,0.0
1630603440.69948578,76728463,0.17,0.18,0.14,0.14,352.79,352.8,0.0,0.0
1630603440.79944587,76828423,0.14,0.15,0.13,0.14,352.79,352.8,0.0,0.0
1630603440.89940596,76928383,0.11,0.12,0.15,0.13,352.79,352.8,0.0,0.0
1630603440.99936581,77028343,0.1,0.09,0.13,0.13,352.79,352.8,0.0,0.0
1630603441.09932590,77128303,0.12,0.09,0.13,0.12,352.79,352.8,0.0,0.0
1630603441.19928575,77228263,0.16,0.12,0.14,0.13,352.79,352.8,0.0,0.0
1630603441.29924583,77328223,0.2,0.18,0.14,0.14,352.79,352.8,0.0,0.0
1630603441.39920592,77428183,0.19,0.21,0.11,0.13,352.79,352.79,0.0,0.0
1630603441.49999881,77528976,0.15,0.19,0.12,0.12,352.79,352.79,0.0,0.0
1630603441.59995890,77628936,0.11,0.14,0.1,0.12,352.79,352.79,0.0,0.0
1630603441.69991875,77728896,0.11,0.11,0.07,0.08,352.79,352.78,0.0,0.0
1630603441.79987884,77828856,0.13,0.1,0.07,0.06,352.79,352.79,0.0,0.0
1630603441.89983892,77928816,0.14,0.11,0.11,0.07,352.79,352.79,0.0,0.0
1630603441.99979877,78028776,0.16,0.13,0.14,0.11,352.79,352.79,0.0,0.0
1630603442.09975886,78128736,0.16,0.14,0.12,0.12,352.79,352.79,0.0,0.0
1630603442.19971895,78228696,0.15,0.15,0.06,0.09,352.79,352.8,0.0,0.0
1630603442.29967880,78328656,0.13,0.15,0.02,0.05,352.79,352.8,0.0,0.0
1630603442.39963889,78428616,0.12,0.13,0.04,0.02,352.79,352.8,0.0,0.0
1630603442.49959874,78528576,0.12,0.12,0.1,0.06,352.79,352.81,0.0,0.0
1630603442.59955883,78628536,0.12,0.1,0.15,0.11,352.79,352.81,0.0,0.0
1630603442.69951892,78728496,0.11,0.09,0.18,0.16,352.79,352.8,0.0,0.0
1630603442.79947877,78828456,0.09,0.08,0.18,0.19,352.79,352.8,0.0,0.0
1630603442.89943886,78928416,0.1,0.09,0.16,0.17,352.79,352.8,0.0,0.0
1630603442.99939895,79028376,0.1,0.09,0.13,0.14,352.79,352.8,0.0,0.0
1630603443.09935880,79128336,0.11,0.1,0.11,0.11,352.79,352.79,0.0,0.0
1630603443.19931889,79228296,0.13,0.12,0.09,0.09,352.79,352.79,0.0,0.0
1630603443.29927874,79328256,0.1,0.11,0.09,0.07,352.79,352.79,0.0,0.0
1630603443.39923882,79428216,0.08,0.08,0.12,0.08,352.79,352.79,0.0,0.0
1630603443.49919891,79528176,0.07,0.06,0.16,0.13,352.79,352.79,0.0,0.0
1630603443.59999180,79628969,0.09,0.07,0.17,0.16,352.79,352.79,0.0,0.0
1630603443.69995189,79728929,0.13,0.1,0.17,0.17,352.79,352.79,0.0,0.0
1630603443.79991174,79828889,0.13,0.13,0.15,0.17,352.79,352.79,0.0,0.0
1630603443.89987183,79928849,0.09,0.12,0.12,0.16,352.79,352.79,0.0,0.0
1630603443.99983191,80028809,0.04,0.07,0.09,0.11,352.79,352.79,0.0,0.0
1630603444.09979177,80128769,0.03,0.03,0.07,0.07,352.79,352.79,0.0,0.0
1630603444.19975185,80228729,0.05,0.02,0.08,0.05,352.79,352.79,0.0,0.0
1630603444.29971194,80328689,0.08,0.03,0.11,0.07,352.79,352.79,0.0,0.0
1630603444.39967179,80428649,0.11,0.07,0.13,0.09,352.79,352.79,0.0,0.0
1630603444.49963188,80528609,0.13,0.11,0.11,0.1,352.79,352.79,0.0,0.0
1630603444.59959173,80628569,0.15,0.13,0.11,0.1,352.79,352.79,0.0,0.0
1630603444.69955182,80728529,0.17,0.16,0.12,0.1,352.79,352.79,0.0,0.0
1630603444.79951191,80828489,0.15,0.16,0.13,0.11,352.79,352.79,0.0,0.0
1630603444.89947176,80928449,0.13,0.14,0.14,0.13,352.79,352.79,0.0,0.0
1630603444.99943185,81028409,0.12,0.12,0.14,0.14,352.79,352.8,0.0,0.0
1630603445.09939194,81128369,0.12,0.12,0.12,0.14,352.79,352.8,0.0,0.0
1630603445.19935179,81228329,0.12,0.11,0.1,0.12,352.79,352.8,0.0,0.0
1630603445.29931188,81328289,0.11,0.11,0.07,0.09,352.79,352.8,0.0,0.0
1630603445.39927173,81428249,0.11,0.11,0.06,0.06,352.79,352.8,0.0,0.0
1630603445.49923182,81528209,0.13,0.11,0.09,0.06,352.79,352.8,0.0,0.0
1630603445.59919190,81628169,0.15,0.12,0.1,0.08,352.79,352.81,0.0,0.0
1630603445.69998479,81728962,0.15,0.13,0.14,0.11,352.79,352.81,0.0,0.0
1630603445.79994488,81828922,0.15,0.14,0.18,0.16,352.79,352.81,0.0,0.0
1630603445.89990473,81928882,0.14,0.13,0.21,0.21,352.79,352.81,0.0,0.0
1630603445.99986482,82028842,0.16,0.13,0.22,0.24,352.79,352.8,0.0,0.0
1630603446.09982491,82128802,0.13,0.13,0.2,0.24,352.79,352.8,0.0,0.0
1630603446.19978476,82228762,0.08,0.09,0.14,0.2,352.79,352.8,0.0,0.0
1630603446.29974484,82328722,0.07,0.06,0.1,0.14,352.79,352.79,0.0,0.0
1630603446.39970493,82428682,0.08,0.05,0.1,0.09,352.79,352.79,0.0,0.0
1630603446.49966478,82528642,0.09,0.04,0.14,0.1,352.79,352.79,0.0,0.0
1630603446.59962487,82628602,0.11,0.07,0.15,0.12,352.79,352.79,0.0,0.0
1630603446.69958496,82728562,0.14,0.1,0.17,0.15,352.79,352.79,0.0,0.0
1630603446.79954481,82828522,0.15,0.14,0.15,0.15,352.79,352.79,0.0,0.0
1630603446.89950490,82928482,0.16,0.17,0.12,0.13,352.79,352.79,0.0,0.0
1630603446.99946475,83028442,0.15,0.18,0.11,0.11,352.79,352.79,0.0,0.0
1630603447.09942484,83128402,0.1,0.15,0.1,0.1,352.79,352.79,0.0,0.0
1630603447.19938493,83228362,0.06,0.09,0.1,0.08,352.79,352.79,0.0,0.0
1630603447.29934478,83328322,0.06,0.06,0.11,0.09,352.79,352.79,0.0,0.0
1630603447.39930487,83428282,0.07,0.06,0.12,0.09,352.79,352.79,0.0,0.0
1630603447.49926496,83528242,0.06,0.05,0.15,0.11,352.79,352.8,0.0,0.0
1630603447.59922481,83628202,0.07,0.06,0.17,0.14,352.79,352.8,0.0,0.0
1630603447.69918489,83728162,0.08,0.06,0.18,0.16,352.79,352.8,0.0,0.0
1630603447.79997778,83828955,0.11,0.08,0.18,0.18,352.79,352.8,0.0,0.0
1630603447.89993787,83928915,0.14,0.1,0.16,0.17,352.79,352.8,0.0,0.0
1630603447.99989796,84028875,0.16,0.13,0.15,0.16,352.79,352.8,0.0,0.0
1630603448.09985781,84128835,0.19,0.17,0.13,0.13,352.79,352.8,0.0,0.0
1630603448.19981790,84228795,0.19,0.2,0.09,0.1,352.79,352.8,0.0,0.0
1630603448.29977775,84328755,0.17,0.2,0.09,0.09,352.79,352.79,0.0,0.0
1630603448.39973783,84428715,0.15,0.18,0.11,0.09,352.79,352.79,0.0,0.0
1630603448.49969792,84528675,0.12,0.14,0.11,0.1,352.79,352.79,0.0,0.0
1630603448.59965777,84628635,0.12,0.12,0.09,0.08,352.79,352.79,0.0,0.0
1630603448.69961786,84728595,0.12,0.11,0.07,0.07,352.79,352.79,0.0,0.0
1630603448.79957795,84828555,0.15,0.12,0.07,0.05,352.79,352.79,0.0,0.0
1630603448.89953780,84928515,0.16,0.14,0.1,0.06,352.79,352.79,0.0,0.0
1630603448.99949789,85028475,0.14,0.15,0.11,0.08,352.79,352.79,0.0,0.0
1630603449.09945774,85128435,0.13,0.14,0.14,0.11,352.79,352.79,0.0,0.0
1630603449.19941783,85228395,0.11,0.12,0.18,0.15,352.79,352.79,0.0,0.0
1630603449.29937792,85328355,0.12,0.11,0.2,0.2,352.79,352.79,0.0,0.0
1630603449.39933777,85428315,0.14,0.1,0.21,0.22,352.79,352.79,0.0,0.0
1630603449.49929786,85528275,0.17,0.13,0.16,0.2,352.79,352.79,0.0,0.0
1630603449.59925795,85628235,0.16,0.15,0.09,0.13,352.79,352.8,0.0,0.0
1630603449.69921780,85728195,0.14,0.14,0.05,0.06,352.79,352.8,0.0,0.0
1630603449.79917789,85828155,0.14,0.13,0.04,0.02,352.79,352.8,0.0,0.0
1630603449.89997077,85928948,0.14,0.13,0.06,0.02,352.79,352.8,0.0,0.0
1630603449.99993086,86028908,0.15,0.13,0.09,0.04,352.79,352.8,0.0,0.0
1630603450.09989095,86128868,0.14,0.13,0.12,0.08,352.79,352.8,0.0,0.0
1630603450.19985080,86228828,0.15,0.14,0.14,0.12,352.79,352.8,0.0,0.0
1630603450.29981089,86328788,0.17,0.15,0.12,0.13,352.79,352.8,0.0,0.0
1630603450.39977074,86428748,0.18,0.17,0.13,0.13,352.79,352.8,0.0,0.0
1630603450.49973083,86528708,0.19,0.18,0.1,0.11,352.79,352.8,0.0,0.0
1630603450.59969091,86628668,0.19,0.19,0.11,0.1,352.79,352.8,0.0,0.0
1630603450.69965076,86728628,0.15,0.17,0.15,0.12,352.79,352.79,0.0,0.0
1630603450.79961085,86828588,0.12,0.13,0.16,0.15,352.79,352.79,0.0,0.0
1630603450.89957094,86928548,0.09,0.09,0.16,0.16,352.79,352.79,0.0,0.0
1630603450.99953079,87028508,0.1,0.08,0.14,0.15,352.79,352.79,0.0,0.0
1630603451.09949088,87128468,0.14,0.1,0.15,0.15,352.79,352.79,0.0,0.0
1630603451.19945073,87228428,0.17,0.14,0.16,0.15,352.79,352.79,0.0,0.0
1630603451.29941082,87328388,0.15,0.16,0.14,0.16,352.79,352.8,0.0,0.0
1630603451.39937091,87428348,0.15,0.16,0.12,0.14,352.79,352.8,0.0,0.0
1630603451.49933076,87528308,0.14,0.15,0.09,0.11,352.79,352.8,0.0,0.0
1630603451.59929085,87628268,0.13,0.13,0.08,0.08,352.79,352.8,0.0,0.0
1630603451.69925094,87728228,0.13,0.12,0.09,0.07,352.79,352.8,0.0,0.0
1630603451.79921079,87828188,0.14,0.12,0.11,0.08,352.79,352.8,0.0,0.0
1630603451.90000391,87928981,0.1,0.1,0.13,0.11,352.79,352.8,0.0,0.0
1630603451.99996376,88028941,0.06,0.07,0.13,0.13,352.79,352.8,0.0,0.0
1630603452.09992385,88128901,0.06,0.04,0.13,0.13,352.79,352.8,0.0,0.0
1630603452.19988394,88228861,0.08,0.04,0.14,0.13,352.79,352.79,0.0,0.0
1630603452.29984379,88328821,0.09,0.06,0.13,0.13,352.79,352.79,0.0,0.0
1630603452.39980388,88428781,0.09,0.07,0.11,0.11,352.79,352.79,0.0,0.0
1630603452.49976373,88528741,0.08,0.07,0.09,0.08,352.79,352.79,0.0,0.0
1630603452.59972382,88628701,0.06,0.06,0.09,0.08,352.79,352.79,0.0,0.0
1630603452.69968390,88728661,0.07,0.05,0.08,0.07,352.79,352.79,0.0,0.0
1630603452.79964375,88828621,0.08,0.06,0.07,0.06,352.79,352.8,0.0,0.0
1630603452.89960384,88928581,0.09,0.07,0.1,0.07,352.79,352.8,0.0,0.0
1630603452.99956393,89028541,0.13,0.1,0.13,0.1,352.79,352.8,0.0,0.0
1630603453.09952378,89128501,0.16,0.14,0.14,0.13,352.79,352.8,0.0,0.0
1630603453.19948387,89228461,0.17,0.17,0.14,0.14,352.79,352.8,0.0,0.0
1630603453.29944396,89328421,0.16,0.18,0.13,0.14,352.79,352.8,0.0,0.0
1630603453.39940381,89428381,0.15,0.17,0.12,0.14,352.79,352.8,0.0,0.0
1630603453.49936390,89528341,0.15,0.16,0.12,0.14,352.79,352.8,0.0,0.0
1630603453.59932375,89628301,0.17,0.17,0.1,0.11,352.79,352.8,0.0,0.0
1630603453.69928384,89728261,0.16,0.17,0.12,0.1,352.79,352.8,0.0,0.0
1630603453.79924393,89828221,0.14,0.15,0.13,0.1,352.79,352.8,0.0,0.0
1630603453.89920378,89928181,0.15,0.14,0.15,0.12,352.79,352.8,0.0,0.0
1630603453.99999690,90028974,0.18,0.15,0.16,0.14,352.79,352.8,0.0,0.0
1630603454.09995675,90128934,0.19,0.18,0.17,0.16,352.79,352.79,0.0,0.0
1630603454.19991684,90228894,0.21,0.19,0.19,0.17,352.79,352.79,0.0,0.0
1630603454.29987693,90328854,0.29,0.23,0.21,0.19,352.79,352.79,0.0,0.0
1630603454.39983678,90428814,0.55,0.39,0.2,0.2,352.79,352.79,0.0,0.0
1630603454.49979687,90528774,1.08,0.8,0.18,0.19,352.79,352.79,0.0,0.0
1630603454.59975696,90628734,1.83,1.49,0.11,0.13,352.79,352.79,0.0,0.0
1630603454.69971681,90728694,2.71,2.4,0.03,0.05,352.79,352.79,0.0,0.0
1630603454.79967690,90828654,3.69,3.45,-0.05,-0.04,352.79,352.79,0.0,0.0
1630603454.89963675,90928614,4.58,4.51,-0.11,-0.12,352.79,352.78,0.0,0.01
1630603454.99959683,91028574,5.24,5.39,-0.13,-0.17,352.79,352.78,0.0,0.01
1630603455.09955692,91128534,5.71,6.0,-0.16,-0.2,352.79,352.79,0.0,0.01
1630603455.19951677,91228494,6.11,6.4,-0.17,-0.21,352.79,352.79,0.0,0.01
1630603455.29947686,91328454,6.54,6.74,-0.2,-0.22,352.79,352.8,0.0,0.01
1630603455.39943695,91428414,6.99,7.09,-0.25,-0.25,352.79,352.8,0.0,0.01
1630603455.49939680,91528374,7.43,7.47,-0.3,-0.29,352.79,352.81,0.0,0.01
1630603455.59935689,91628334,7.79,7.83,-0.35,-0.35,352.79,352.81,0.0,0.01
1630603455.69931674,91728294,8.04,8.12,-0.36,-0.38,352.79,352.81,0.0,0.0
1630603455.79927683,91828254,8.24,8.32,-0.38,-0.39,352.79,352.81,0.0,0.0
1630603455.89923692,91928214,8.45,8.5,-0.41,-0.41,352.79,352.81,0.0,0.0
1630603455.99919677,92028174,8.62,8.65,-0.43,-0.44,352.79,352.81,0.0,0.0
1630603456.09998989,92128967,8.83,8.81,-0.43,-0.42,353.53,352.82,0.0,0.0
1630603456.19994974,92228927,9.13,9.06,-0.45,-0.15,356.92,353.09,0.0,0.0
1630603456.29990983,92328887,9.53,9.46,-0.55,0.38,2.63,354.25,0.0,0.0
1630603456.39986992,92428847,9.95,10.0,-0.97,0.73,8.63,356.94,0.0,0.01
1630603456.49982977,92528807,10.29,10.55,-1.85,0.45,14.63,1.27,0.0,0.01
1630603456.59978986,92628767,10.43,10.94,-3.15,-0.57,20.63,7.05,0.0,0.02
1630603456.69974995,92728727,10.28,11.03,-4.8,-2.27,26.63,13.98,0.0,0.03
1630603456.79970980,92828687,9.75,10.66,-6.67,-4.46,32.63,21.79,0.0,0.03
1630603456.89966989,92928647,8.89,9.78,-8.51,-6.88,38.63,30.22,0.0,0.04
1630603456.99962974,93028607,7.71,8.41,-10.17,-9.21,44.63,39.03,0.0,0.04
1630603457.09958982,93128567,6.27,6.6,-11.57,-11.22,50.63,47.95,0.0,0.05
1630603457.19954991,93228527,4.66,4.5,-12.64,-12.73,56.63,56.67,0.0,0.05
1630603457.29950976,93328487,3.02,2.34,-13.43,-13.72,62.63,64.91,0.0,0.05
1630603457.39946985,93428447,1.42,0.32,-13.99,-14.25,68.63,72.45,0.0,0.05
1630603457.49942994,93528407,-0.07,-1.54,-14.35,-14.47,73.21,79.2,0.0,0.05
1630603457.59938979,93628367,-1.46,-3.5,-14.56,-14.49,75.59,84.85,0.0,0.04
1630603457.69934988,93728327,-2.56,-5.33,-14.64,-14.33,76.82,88.96,0.0,0.04
1630603457.79930973,93828287,-3.2,-6.6,-14.69,-14.11,77.48,91.33,0.0,0.03
1630603457.89926982,93928247,-3.29,-7.05,-14.81,-13.96,77.88,92.07,0.0,0.02
1630603457.99922991,94028207,-2.9,-6.64,-15.02,-13.98,78.17,91.43,0.0,0.02
1630603458.09918976,94128167,-2.16,-5.51,-15.31,-14.22,78.41,89.75,0.0,0.02
1630603458.19998288,94228960,-1.24,-3.86,-15.62,-14.62,78.64,87.34,0.0,0.02
1630603458.29994273,94328920,-0.28,-1.96,-15.9,-15.12,78.88,84.54,0.0,0.01
1630603458.39990282,94428880,0.54,-0.09,-16.09,-15.57,79.11,81.67,0.0,0.01
1630603458.49986291,94528840,1.16,1.5,-16.18,-15.88,79.32,79.06,0.0,0.01
1630603458.59982276,94628800,1.56,2.67,-16.21,-16.04,79.51,76.98,0.0,0.01
1630603458.69978285,94728760,1.74,3.34,-16.22,-16.09,79.67,75.61,0.0,0.01
1630603458.79974294,94828720,1.73,3.52,-16.22,-16.09,79.8,74.98,0.0,0.01
1630603458.89970279,94928680,1.53,3.29,-16.25,-16.09,79.89,75.05,0.0,0.01
1630603458.99966288,95028640,1.2,2.72,-16.31,-16.13,79.95,75.69,0.0,0.01
1630603459.09962273,95128600,0.81,1.94,-16.38,-16.21,79.99,76.73,0.0,0.01
1630603459.19958282,95228560,0.43,1.08,-16.48,-16.32,80.0,77.98,0.0,0.01
1630603459.29954290,95328520,0.11,0.27,-16.56,-16.44,80.0,79.26,0.0,0.01
1630603459.39950275,95428480,-0.12,-0.38,-16.62,-16.55,80.0,80.41,0.0,0.0
1630603459.49946284,95528440,-0.32,-0.88,-16.64,-16.62,79.99,81.34,0.0,0.0
1630603459.59942293,95628400,-0.43,-1.19,-16.64,-16.64,79.99,81.96,0.0,0.0
1630603459.69938278,95728360,-0.44,-1.3,-16.65,-16.66,79.99,82.26,0.0,0.0
1630603459.79934287,95828320,-0.39,-1.23,-16.67,-16.66,79.99,82.26,0.0,0.0
1630603459.89930296,95928280,-0.27,-1.02,-16.7,-16.67,80.0,82.02,0.0,0.0
1630603459.99926281,96028240,-0.11,-0.7,-16.76,-16.71,80.01,81.61,0.0,0.0
1630603460.09922290,96128200,0.05,-0.33,-16.8,-16.76,80.02,81.1,0.0,0.0
1630603460.19918275,96228160,0.17,0.0,-16.83,-16.8,80.03,80.57,0.0,0.0
1630603460.29997587,96328953,0.3,0.3,-16.85,-16.83,80.05,80.09,0.0,0.0
1630603460.39993596,96428913,0.39,0.53,-16.87,-16.86,80.06,79.7,0.0,0.0
1630603460.49989581,96528873,0.44,0.68,-16.88,-16.87,80.06,79.43,0.0,0.0
1630603460.59985590,96628833,0.46,0.75,-16.92,-16.89,80.07,79.3,0.0,0.0
1630603460.69981575,96728793,0.42,0.72,-16.97,-16.93,80.07,79.29,0.0,0.0
1630603460.79977584,96828753,0.35,0.61,-17.02,-16.99,80.07,79.38,0.0,0.0
1630603460.89973593,96928713,0.25,0.46,-17.04,-17.03,80.06,79.54,0.0,0.0
1630603460.99969578,97028673,0.15,0.28,-17.08,-17.07,80.05,79.74,0.0,0.0
1630603461.09965587,97128633,0.07,0.1,-17.11,-17.1,80.03,79.96,0.0,0.0
1630603461.19961596,97228593,0.03,-0.04,-17.15,-17.14,80.02,80.15,0.0,0.0
1630603461.29957581,97328553,0.01,-0.13,-17.16,-17.16,80.0,80.3,0.0,0.0
1630603461.39953589,97428513,-0.01,-0.18,-17.18,-17.18,79.99,80.4,0.0,0.0
1630603461.49949574,97528473,-0.02,-0.2,-17.22,-17.2,79.97,80.44,0.0,0.0
1630603461.59945583,97628433,0.0,-0.18,-17.24,-17.24,79.96,80.43,0.0,0.0
1630603461.69941592,97728393,0.03,-0.14,-17.26,-17.27,79.94,80.38,0.0,0.0
1630603461.79937577,97828353,0.05,-0.07,-17.28,-17.29,79.93,80.29,0.0,0.0
1630603461.89933586,97928313,0.09,0.0,-17.32,-17.31,79.92,80.19,0.0,0.0
1630603461.99929595,98028273,0.13,0.06,-17.38,-17.36,79.91,80.08,0.0,0.0
1630603462.09925580,98128233,0.16,0.14,-17.39,-17.41,79.9,79.98,0.0,0.0
1630603462.19921589,98228193,0.16,0.18,-17.4,-17.42,79.89,79.9,0.0,0.0
1630603462.30000877,98328986,0.16,0.19,-17.41,-17.43,79.88,79.84,0.0,0.0
1630603462.39996886,98428946,0.15,0.19,-17.4,-17.43,79.86,79.8,0.0,0.0
1630603462.49992895,98528906,0.15,0.18,-17.4,-17.41,79.85,79.79,0.0,0.0
1630603462.59988880,98628866,0.15,0.16,-17.43,-17.42,79.84,79.79,0.0,0.0
1630603462.69984889,98728826,0.14,0.14,-17.46,-17.45,79.82,79.81,0.0,0.0
1630603462.79980874,98828786,0.12,0.11,-17.49,-17.48,79.81,79.83,0.0,0.0
1630603462.89976883,98928746,0.12,0.09,-17.52,-17.51,79.8,79.85,0.0,0.0
1630603462.99972892,99028706,0.13,0.08,-17.55,-17.55,79.79,79.87,0.0,0.0
1630603463.09968877,99128666,0.12,0.07,-17.58,-17.58,79.78,79.88,0.0,0.0
1630603463.19964886,99228626,0.13,0.07,-17.6,-17.61,79.77,79.89,0.0,0.0
1630603463.29960895,99328586,0.14,0.09,-17.59,-17.62,79.76,79.89,0.0,0.0
1630603463.39956880,99428546,0.15,0.1,-17.59,-17.62,79.75,79.88,0.0,0.0
1630603463.49952888,99528506,0.17,0.12,-17.62,-17.64,79.74,79.87,0.0,0.0
1630603463.59948874,99628466,0.18,0.14,-17.65,-17.67,79.73,79.85,0.0,0.0
1630603463.69944882,99728426,0.19,0.15,-17.67,-17.68,79.73,79.82,0.0,0.0
1630603463.79940891,99828386,0.21,0.18,-17.67,-17.69,79.72,79.8,0.0,0.0
1630603463.89936876,99928346,0.21,0.2,-17.69,-17.69,79.71,79.78,0.0,0.0
1630603463.99932885,100028306,0.18,0.18,-17.72,-17.7,79.7,79.76,0.0,0.0
1630603464.09928894,100128266,0.17,0.17,-17.73,-17.72,79.7,79.75,0.0,0.0
1630603464.19924879,100228226,0.16,0.15,-17.75,-17.74,79.69,79.73,0.0,0.0
1630603464.29920888,100328186,0.17,0.15,-17.77,-17.77,79.68,79.72,0.0,0.0
1630603464.40000176,100428979,0.18,0.15,-17.78,-17.8,79.68,79.72,0.0,0.0
1630603464.49996185,100528939,0.18,0.16,-17.75,-17.79,79.67,79.71,0.0,0.0
1630603464.59992194,100628899,0.17,0.16,-17.73,-17.76,79.66,79.71,0.0,0.0
1630603464.69988179,100728859,0.15,0.14,-17.75,-17.76,79.66,79.71,0.0,0.0
1630603464.79984188,100828819,0.16,0.13,-17.79,-17.79,79.65,79.71,0.0,0.0
1630603464.89980173,100928779,0.19,0.15,-17.81,-17.82,79.65,79.72,0.0,0.0
1630603464.99976182,101028739,0.18,0.16,-17.82,-17.84,79.64,79.71,0.0,0.0
1630603465.09972191,101128699,0.16,0.15,-17.82,-17.85,79.64,79.71,0.0,0.0
1630603465.19968176,101228659,0.17,0.14,-17.82,-17.85,79.63,79.71,0.0,0.0
1630603465.29964185,101328619,0.19,0.15,-17.85,-17.85,79.62,79.7,0.0,0.0
1630603465.39960194,101428579,0.2,0.16,-17.88,-17.87,79.62,79.69,0.0,0.0
1630603465.49956179,101528539,0.18,0.16,-17.9,-17.9,79.62,79.69,0.0,0.0
1630603465.59952188,101628499,0.15,0.14,-17.92,-17.92,79.61,79.68,0.0,0.0
1630603465.69948173,101728459,0.16,0.13,-17.93,-17.94,79.61,79.67,0.0,0.0
1630603465.79944181,101828419,0.18,0.13,-17.91,-17.94,79.6,79.66,0.0,0.0
1630603465.89940190,101928379,0.21,0.16,-17.87,-17.91,79.6,79.66,0.0,0.0
1630603465.99936175,102028339,0.25,0.2,-17.87,-17.88,79.6,79.65,0.0,0.0
1630603466.09932184,102128299,0.26,0.23,-17.9,-17.89,79.6,79.65,0.0,0.0
1630603466.19928193,102228259,0.25,0.23,-17.94,-17.92,79.6,79.64,0.0,0.0
1630603466.29924178,102328219,0.24,0.23,-17.98,-17.97,79.6,79.64,0.0,0.0
1630603466.39920187,102428179,0.21,0.21,-18.01,-18.01,79.59,79.64,0.0,0.0
1630603466.49999475,102528972,0.19,0.18,-18.0,-18.03,79.59,79.64,0.0,0.0
1630603466.59995484,102628932,0.18,0.16,-17.98,-18.01,79.59,79.64,0.0,0.0
1630603466.69991493,102728892,0.17,0.14,-17.98,-17.98,79.59,79.64,0.0,0.0
1630603466.79987478,102828852,0.18,0.14,-17.97,-17.97,79.58,79.64,0.0,0.0
1630603466.89983487,102928812,0.22,0.17,-17.99,-17.98,79.58,79.64,0.0,0.0
1630603466.99979496,103028772,0.25,0.21,-18.02,-18.0,79.58,79.64,0.0,0.0
1630603467.09975481,103128732,0.26,0.24,-18.05,-18.04,79.58,79.64,0.0,0.0
1630603467.19971490,103228692,0.27,0.26,-18.06,-18.06,79.58,79.64,0.0,0.0
1630603467.29967475,103328652,0.27,0.26,-18.05,-18.07,79.58,79.64,0.0,0.0
1630603467.39963484,103428612,0.28,0.26,-18.04,-18.07,79.59,79.64,0.0,0.0
1630603467.49959493,103528572,0.3,0.28,-18.02,-18.05,79.59,79.64,0.0,0.0
1630603467.59955478,103628532,0.3,0.28,-18.03,-18.04,79.59,79.64,0.0,0.0
1630603467.69951487,103728492,0.28,0.28,-18.02,-18.04,79.59,79.64,0.0,0.0
1630603467.79947495,103828452,0.27,0.27,-18.02,-18.03,79.59,79.64,0.0,0.0
1630603467.89943480,103928412,0.28,0.26,-18.01,-18.02,79.59,79.64,0.0,0.0
1630603467.99939489,104028372,0.28,0.26,-18.03,-18.03,79.59,79.64,0.0,0.0
1630603468.09935474,104128332,0.29,0.26,-18.05,-18.04,79.6,79.64,0.0,0.0
1630603468.19931483,104228292,0.29,0.26,-18.05,-18.06,79.6,79.64,0.0,0.0
1630603468.29927492,104328252,0.3,0.27,-18.07,-18.08,79.6,79.64,0.0,0.0
1630603468.39923477,104428212,0.31,0.28,-18.08,-18.09,79.6,79.64,0.0,0.0
1630603468.49919486,104528172,0.31,0.29,-18.07,-18.09,79.6,79.64,0.0,0.0
1630603468.59998775,104628965,0.3,0.29,-18.04,-18.08,79.6,79.64,0.0,0.0
1630603468.69994783,104728925,0.29,0.28,-18.03,-18.05,79.6,79.64,0.0,0.0
1630603468.79990792,104828885,0.27,0.26,-18.04,-18.03,79.6,79.65,0.0,0.0
1630603468.89986777,104928845,0.27,0.25,-18.05,-18.03,79.6,79.65,0.0,0.0
1630603468.99982786,105028805,0.31,0.26,-18.08,-18.06,79.6,79.65,0.0,0.0
1630603469.09978795,105128765,0.36,0.3,-18.1,-18.09,79.6,79.65,0.0,0.0
1630603469.19974780,105228725,0.38,0.34,-18.11,-18.12,79.6,79.65,0.0,0.0
1630603469.29970789,105328685,0.38,0.36,-18.12,-18.13,79.61,79.65,0.0,0.0
1630603469.39966774,105428645,0.36,0.36,-18.13,-18.15,79.61,79.65,0.0,0.0
1630603469.49962783,105528605,0.34,0.35,-18.15,-18.16,79.61,79.65,0.0,0.0
1630603469.59958792,105628565,0.35,0.33,-18.16,-18.19,79.61,79.65,0.0,0.0
1630603469.69954777,105728525,0.37,0.33,-18.14,-18.17,79.61,79.65,0.0,0.0
1630603469.79950786,105828485,0.4,0.36,-18.11,-18.14,79.61,79.66,0.0,0.0
1630603469.89946795,105928445,0.4,0.38,-18.1,-18.11,79.62,79.66,0.0,0.0
1630603469.99942780,106028405,0.37,0.37,-18.11,-18.11,79.62,79.66,0.0,0.0
1630603470.09938788,106128365,0.37,0.35,-18.14,-18.11,79.62,79.66,0.0,0.0
1630603470.19934773,106228325,0.37,0.34,-18.18,-18.16,79.62,79.66,0.0,0.0
1630603470.29930782,106328285,0.36,0.33,-18.2,-18.2,79.62,79.67,0.0,0.0
1630603470.39926791,106428245,0.37,0.33,-18.2,-18.24,79.62,79.67,0.0,0.0
1630603470.49922776,106528205,0.38,0.33,-18.17,-18.23,79.62,79.67,0.0,0.0
1630603470.59918785,106628165,0.27,0.34,-18.15,-18.19,79.62,79.67,0.0,0.0
1630603470.69998074,106728958,-5.56,-2.44,-18.43,-18.3,79.62,79.66,0.0,0.0
1630603470.79994082,106828918,-9.11,-7.63,-18.58,-18.53,79.63,79.66,0.0,0.01
1630603470.89990091,106928878,-8.38,-9.92,-18.56,-18.63,79.66,79.65,0.0,0.01
1630603470.99986076,107028838,-6.02,-8.93,-18.5,-18.61,79.74,79.64,0.0,0.01
1630603471.09982085,107128798,-3.6,-6.11,-18.42,-18.53,79.87,79.64,0.0,0.01
1630603471.19978094,107228758,-1.91,-3.08,-18.36,-18.44,80.06,79.69,0.0,0.02
1630603471.29974079,107328718,-1.21,-0.96,-18.34,-18.37,80.28,79.81,0.0,0.02
1630603471.39970088,107428678,-1.3,-0.13,-18.34,-18.34,80.52,79.99,0.0,0.02
1630603471.49966073,107528638,-1.76,-0.35,-18.35,-18.34,80.75,80.24,0.0,0.01
1630603471.59962082,107628598,-2.25,-1.11,-18.36,-18.36,80.98,80.55,0.0,0.01
1630603471.69958091,107728558,-2.58,-1.93,-18.35,-18.37,81.21,80.89,0.0,0.01
1630603471.79954076,107828518,-2.67,-2.51,-18.34,-18.37,81.43,81.25,0.0,0.01
1630603471.89950085,107928478,-2.58,-2.75,-18.33,-18.35,81.66,81.6,0.0,0.01
1630603471.99946094,108028438,-2.38,-2.69,-18.33,-18.33,81.89,81.95,0.0,0.0
1630603472.09942079,108128398,-2.15,-2.45,-18.34,-18.33,82.12,82.26,0.0,0.0
1630603472.19938087,108228358,-1.99,-2.19,-18.35,-18.35,82.36,82.55,0.0,0.0
1630603472.29934096,108328318,-1.93,-2.0,-18.35,-18.36,82.6,82.8,0.0,0.0
1630603472.39930081,108428278,-1.87,-1.88,-18.36,-18.36,82.83,83.03,0.0,0.0
1630603472.49926090,108528238,-1.85,-1.83,-18.35,-18.36,83.07,83.24,0.0,0.0
1630603472.59922075,108628198,-1.86,-1.82,-18.33,-18.35,83.3,83.43,0.0,0.0
1630603472.69918084,108728158,-1.88,-1.84,-18.32,-18.34,83.53,83.62,0.0,0.0
1630603472.79997373,108828951,-1.88,-1.86,-18.28,-18.32,83.75,83.8,0.0,0.0
1630603472.89993382,108928911,-1.88,-1.87,-18.25,-18.28,83.96,83.98,0.0,0.0
1630603472.99989390,109028871,-1.88,-1.88,-18.23,-18.24,84.18,84.17,0.0,0.0
1630603473.09985375,109128831,-1.85,-1.86,-18.24,-18.23,84.38,84.36,0.0,0.0
1630603473.19981384,109228791,-1.82,-1.84,-18.25,-18.24,84.58,84.56,0.0,0.0
1630603473.29977393,109328751,-1.8,-1.81,-18.28,-18.26,84.78,84.76,0.0,0.0
1630603473.39973378,109428711,-1.79,-1.79,-18.31,-18.29,84.97,84.96,0.0,0.0
1630603473.49969387,109528671,-1.79,-1.79,-18.31,-18.31,85.15,85.17,0.0,0.0
1630603473.59965396,109628631,-1.82,-1.81,-18.27,-18.3,85.32,85.36,0.0,0.0
1630603473.69961381,109728591,-1.85,-1.85,-18.23,-18.26,85.49,85.55,0.0,0.0
1630603473.79957390,109828551,-1.88,-1.9,-18.23,-18.23,85.66,85.73,0.0,0.0
1630603473.89953375,109928511,-1.9,-1.94,-18.25,-18.23,85.81,85.9,0.0,0.0
1630603473.99949384,110028471,-1.91,-1.96,-18.28,-18.26,85.96,86.06,0.0,0.0
1630603474.09945393,110128431,-1.91,-1.97,-18.31,-18.3,86.11,86.21,0.0,0.0
1630603474.19941378,110228391,-1.9,-1.96,-18.34,-18.34,86.24,86.34,0.0,0.0
1630603474.29937387,110328351,-1.93,-1.96,-18.34,-18.37,86.38,86.47,0.0,0.0
1630603474.39933395,110428311,-1.95,-1.98,-18.32,-18.36,86.5,86.58,0.0,0.0
1630603474.49929380,110528271,-1.97,-2.0,-18.28,-18.32,86.62,86.69,0.0,0.0
1630603474.59925389,110628231,-2.0,-2.02,-18.28,-18.29,86.74,86.8,0.0,0.0
1630603474.69921374,110728191,-2.03,-2.05,-18.28,-18.29,86.85,86.9,0.0,0.0
1630603474.80000687,110828984,-2.07,-2.08,-18.27,-18.28,86.95,87.0,0.0,0.0
1630603474.89996696,110928944,-2.1,-2.12,-18.25,-18.26,87.05,87.09,0.0,0.0
1630603474.99992681,111028904,-2.12,-2.14,-18.22,-18.23,87.14,87.18,0.0,0.0
1630603475.09988689,111128864,-2.13,-2.17,-18.22,-18.2,87.22,87.27,0.0,0.0
1630603475.19984674,111228824,-2.13,-2.18,-18.23,-18.2,87.31,87.36,0.0,0.0
1630603475.29980683,111328784,-2.13,-2.18,-18.23,-18.22,87.39,87.44,0.0,0.0
1630603475.39976692,111428744,-2.13,-2.18,-18.22,-18.23,87.46,87.51,0.0,0.0
1630603475.49972677,111528704,-2.17,-2.2,-18.22,-18.22,87.53,87.59,0.0,0.0
1630603475.59968686,111628664,-2.21,-2.23,-18.2,-18.22,87.6,87.65,0.0,0.0
1630603475.69964695,111728624,-2.2,-2.24,-18.19,-18.21,87.66,87.71,0.0,0.0
1630603475.79960680,111828584,-2.2,-2.24,-18.17,-18.19,87.72,87.77,0.0,0.0
1630603475.89956689,111928544,-2.2,-2.24,-18.17,-18.18,87.78,87.83,0.0,0.0
1630603475.99952674,112028504,-2.22,-2.25,-18.19,-18.19,87.84,87.88,0.0,0.0
1630603476.09948683,112128464,-2.23,-2.26,-18.2,-18.21,87.89,87.93,0.0,0.0
1630603476.19944692,112228424,-2.23,-2.26,-18.2,-18.22,87.94,87.97,0.0,0.0
1630603476.29940677,112328384,-2.22,-2.25,-18.16,-18.2,87.98,88.01,0.0,0.0
1630603476.39936686,112428344,-2.22,-2.24,-18.15,-18.17,88.02,88.05,0.0,0.0
1630603476.49932694,112528304,-2.23,-2.24,-18.16,-18.16,88.06,88.09,0.0,0.0
1630603476.59928679,112628264,-2.26,-2.26,-18.16,-18.17,88.1,88.13,0.0,0.0
1630603476.69924688,112728224,-2.3,-2.3,-18.16,-18.17,88.13,88.17,0.0,0.0
1630603476.79920673,112828184,-2.33,-2.34,-18.15,-18.17,88.17,88.2,0.0,0.0
1630603476.89999986,112928977,-2.33,-2.36,-18.14,-18.16,88.2,88.24,0.0,0.0
1630603476.99995995,113028937,-2.33,-2.37,-18.13,-18.14,88.23,88.26,0.0,0.0
1630603477.09991980,113128897,-2.32,-2.36,-18.12,-18.13,88.25,88.29,0.0,0.0
1630603477.19987988,113228857,-2.31,-2.34,-18.12,-18.13,88.28,88.31,0.0,0.0
1630603477.29983974,113328817,-2.31,-2.32,-18.1,-18.12,88.3,88.33,0.0,0.0
1630603477.39979982,113428777,-2.34,-2.33,-18.1,-18.11,88.33,88.35,0.0,0.0
1630603477.49975991,113528737,-2.38,-2.36,-18.1,-18.11,88.35,88.37,0.0,0.0
1630603477.59971976,113628697,-2.41,-2.4,-18.09,-18.1,88.36,88.39,0.0,0.0
1630603477.69967985,113728657,-2.42,-2.44,-18.06,-18.08,88.38,88.4,0.0,0.0
1630603477.79963994,113828617,-2.41,-2.44,-18.05,-18.06,88.4,88.42,0.0,0.0
