timestamp,TimeUS,DesRoll,Roll,DesPitch,Pitch,DesYaw,Yaw,ErrRP,ErrYaw
1630619941.30004025,40728702,0.0,0.09,0.0,0.07,352.89,352.9,0.0,0.0
1630619941.40000010,40828662,0.0,0.09,0.0,0.07,352.89,352.9,0.0,0.0
1630619941.49996018,40928622,0.0,0.09,0.0,0.07,352.89,352.9,0.0,0.0
1630619941.59992027,41028582,0.0,0.09,0.0,0.07,352.89,352.9,0.0,0.0
1630619941.69988012,41128542,0.0,0.09,0.0,0.08,352.89,352.9,0.0,0.0
1630619941.79984021,41228502,0.0,0.09,0.0,0.08,352.89,352.9,0.0,0.0
1630619941.89980006,41328462,0.0,0.1,0.0,0.08,352.89,352.9,0.0,0.0
1630619941.99976015,41428422,0.0,0.1,0.0,0.08,352.89,352.9,0.0,0.0
1630619942.09972024,41528382,0.0,0.1,0.0,0.08,352.89,352.9,0.0,0.0
1630619942.19968009,41628342,0.0,0.1,0.0,0.08,352.89,352.9,0.0,0.0
1630619942.29964018,41728302,0.0,0.1,0.0,0.08,352.88,352.89,0.0,0.0
1630619942.39960027,41828262,0.0,0.1,0.0,0.08,352.88,352.89,0.0,0.0
1630619942.49956012,41928222,0.0,0.1,0.0,0.08,352.88,352.89,0.0,0.0
1630619942.59952021,42028182,0.0,0.1,0.0,0.08,352.88,352.89,0.0,0.0
1630619942.70031309,42128975,0.0,0.1,0.0,0.08,352.88,352.89,0.0,0.0
1630619942.80027318,42228935,0.0,0.1,0.0,0.08,352.88,352.89,0.0,0.0
1630619942.90023327,42328895,0.0,0.1,0.0,0.09,352.88,352.89,0.0,0.0
1630619943.00019312,42428855,0.0,0.1,0.0,0.09,352.88,352.89,0.0,0.0
1630619943.10015321,42528815,0.0,0.1,0.0,0.09,352.88,352.89,0.0,0.0
1630619943.20011306,42628775,0.0,0.1,0.0,0.08,352.88,352.89,0.0,0.0
1630619943.30007315,42728735,0.0,0.1,0.0,0.09,352.88,352.89,0.0,0.0
1630619943.40003324,42828695,0.0,0.1,0.0,0.08,352.88,352.89,0.0,0.0
1630619943.49999309,42928655,-0.02,0.1,-0.02,0.08,352.88,352.89,0.0,0.0
1630619943.59995317,43028615,-0.07,0.1,-0.07,0.08,352.88,352.88,0.0,0.0
1630619943.69991326,43128575,-0.08,0.1,-0.08,0.08,352.88,352.88,0.0,0.0
1630619943.79987311,43228535,-0.15,0.1,-0.15,0.08,352.88,352.88,0.0,0.0
1630619943.89983320,43328495,-0.23,0.1,-0.22,0.08,352.88,352.88,0.0,0.0
1630619943.99979329,43428455,-0.29,0.1,-0.27,0.08,352.88,352.88,0.0,0.0
1630619944.09975314,43528415,-0.33,0.1,-0.31,0.08,352.88,352.88,0.0,0.0
1630619944.19971323,43628375,-0.35,0.1,-0.34,0.08,352.88,352.88,0.0,0.0
1630619944.29967308,43728335,-0.38,0.1,-0.37,0.08,352.88,352.88,0.0,0.0
1630619944.39963317,43828295,-0.4,0.1,-0.4,0.08,352.88,352.88,0.0,0.0
1630619944.49959326,43928255,-0.41,0.1,-0.41,0.08,352.88,352.88,0.0,0.0
1630619944.59955311,44028215,-0.44,0.1,-0.4,0.08,352.88,352.88,0.0,0.0
1630619944.69951320,44128175,-0.47,0.1,-0.4,0.08,352.88,352.88,0.0,0.0
1630619944.80030608,44228968,-0.49,0.09,-0.42,0.08,352.88,352.88,0.0,0.0
1630619944.90026617,44328928,-0.5,0.09,-0.45,0.08,352.88,352.88,0.0,0.0
1630619945.00022626,44428888,-0.52,0.09,-0.48,0.07,352.88,352.88,0.0,0.0
1630619945.10018611,44528848,-0.53,0.02,-0.47,0.02,352.88,352.88,0.0,0.0
1630619945.20014620,44628808,-0.58,-0.3,-0.46,-0.25,352.88,352.88,0.0,0.0
1630619945.30010629,44728768,-0.58,-0.69,-0.45,-0.56,352.88,352.88,0.0,0.0
1630619945.40006614,44828728,-0.48,-0.91,-0.38,-0.75,352.88,352.89,0.0,0.0
1630619945.50002623,44928688,-0.29,-0.91,-0.22,-0.77,352.88,352.89,0.0,0.0
1630619945.59998608,45028648,-0.02,-0.71,-0.01,-0.61,352.88,352.89,0.0,0.0
1630619945.69994617,45128608,0.25,-0.39,0.18,-0.37,352.88,352.88,0.0,0.0
1630619945.79990625,45228568,0.46,-0.06,0.34,-0.11,352.88,352.88,0.0,0.0
1630619945.89986610,45328528,0.59,0.2,0.48,0.11,352.88,352.88,0.0,0.0
1630619945.99982619,45428488,0.65,0.37,0.56,0.28,352.88,352.89,0.0,0.0
1630619946.09978628,45528448,0.61,0.42,0.57,0.37,352.88,352.89,0.0,0.0
1630619946.19974613,45628408,0.55,0.37,0.54,0.38,352.88,352.89,0.0,0.0
1630619946.29970622,45728368,0.48,0.3,0.47,0.32,352.88,352.89,0.0,0.0
1630619946.39966607,45828328,0.44,0.22,0.42,0.25,352.88,352.88,0.0,0.0
1630619946.49962616,45928288,0.44,0.19,0.36,0.17,352.88,352.89,0.0,0.0
1630619946.59958625,46028248,0.44,0.19,0.34,0.14,352.88,352.89,0.0,0.0
1630619946.69954610,46128208,0.48,0.23,0.37,0.15,352.88,352.88,0.0,0.0
1630619946.79950619,46228168,0.5,0.29,0.43,0.2,352.8,352.81,0.0,0.0
1630619946.90029907,46328961,0.48,0.32,0.44,0.26,352.8,352.81,0.0,0.0
1630619947.00025916,46428921,0.43,0.3,0.4,0.27,352.8,352.8,0.0,0.0
1630619947.10021925,46528881,0.4,0.27,0.36,0.26,352.8,352.8,0.0,0.0
1630619947.20017910,46628841,0.4,0.27,0.31,0.23,352.8,352.8,0.0,0.0
1630619947.30013919,46728801,0.4,0.28,0.26,0.2,352.8,352.8,0.0,0.0
1630619947.40009928,46828761,0.36,0.26,0.22,0.16,352.8,352.8,0.0,0.0
1630619947.50005913,46928721,0.31,0.23,0.21,0.12,352.8,352.8,0.0,0.0
1630619947.60001922,47028681,0.3,0.21,0.22,0.12,352.8,352.8,0.0,0.0
1630619947.69997907,47128641,0.27,0.2,0.22,0.13,352.8,352.8,0.0,0.0
1630619947.79993916,47228601,0.26,0.19,0.22,0.15,352.8,352.8,0.0,0.0
1630619947.89989924,47328561,0.25,0.19,0.23,0.16,352.8,352.8,0.0,0.0
1630619947.99985909,47428521,0.26,0.2,0.19,0.16,352.8,352.8,0.0,0.0
1630619948.09981918,47528481,0.28,0.23,0.14,0.12,352.8,352.8,0.0,0.0
1630619948.19977927,47628441,0.25,0.23,0.12,0.09,352.8,352.8,0.0,0.0
1630619948.29973912,47728401,0.19,0.19,0.11,0.06,352.8,352.81,0.0,0.0
1630619948.39969921,47828361,0.12,0.13,0.11,0.05,352.8,352.81,0.0,0.0
1630619948.49965906,47928321,0.12,0.08,0.08,0.04,352.8,352.81,0.0,0.0
1630619948.59961915,48028281,0.12,0.07,0.05,0.02,352.8,352.81,0.0,0.0
1630619948.69957924,48128241,0.11,0.07,0.02,0.0,352.8,352.81,0.0,0.0
1630619948.79953909,48228201,0.1,0.07,0.01,-0.01,352.8,352.81,0.0,0.0
1630619948.89949918,48328161,0.07,0.05,0.01,-0.02,352.8,352.81,0.0,0.0
1630619949.00029206,48428954,0.03,0.02,0.02,-0.02,352.8,352.81,0.0,0.0
1630619949.10025215,48528914,0.01,0.0,0.03,0.0,352.8,352.81,0.0,0.0
1630619949.20021224,48628874,0.0,-0.02,0.03,0.01,352.8,352.81,0.0,0.0
1630619949.30017209,48728834,-0.01,-0.04,0.02,0.02,352.8,352.81,0.0,0.0
1630619949.40013218,48828794,0.0,-0.04,0.0,0.01,352.8,352.81,0.0,0.0
1630619949.50009227,48928754,0.03,-0.01,-0.04,-0.02,352.8,352.81,0.0,0.0
1630619949.60005212,49028714,0.07,0.03,-0.06,-0.05,352.8,352.81,0.0,0.0
1630619949.70001221,49128674,0.11,0.08,-0.06,-0.08,352.8,352.81,0.0,0.0
1630619949.79997230,49228634,0.14,0.12,-0.04,-0.08,352.8,352.81,0.0,0.0
1630619949.89993215,49328594,0.13,0.15,-0.03,-0.06,352.8,352.81,0.0,0.0
1630619949.99989223,49428554,0.09,0.13,-0.03,-0.04,352.8,352.81,0.0,0.0
1630619950.09985209,49528514,0.07,0.1,-0.05,-0.03,352.8,352.81,0.0,0.0
1630619950.19981217,49628474,0.06,0.06,-0.07,-0.05,352.8,352.81,0.0,0.0
1630619950.29977226,49728434,0.04,0.04,-0.05,-0.06,352.8,352.81,0.0,0.0
1630619950.39973211,49828394,0.02,0.02,0.02,-0.03,352.8,352.81,0.0,0.0
1630619950.49969220,49928354,0.03,0.0,0.1,0.04,352.8,352.81,0.0,0.0
1630619950.59965229,50028314,0.05,0.01,0.13,0.11,352.8,352.8,0.0,0.0
1630619950.69961214,50128274,0.08,0.05,0.11,0.13,352.8,352.8,0.0,0.0
1630619950.79957223,50228234,0.09,0.08,0.07,0.11,352.8,352.8,0.0,0.0
1630619950.89953208,50328194,0.1,0.1,0.03,0.06,352.8,352.8,0.0,0.0
1630619950.99949217,50428154,0.1,0.11,-0.01,0.0,352.8,352.8,0.0,0.0
1630619951.10028529,50528947,0.1,0.11,-0.04,-0.04,352.8,352.8,0.0,0.0
1630619951.20024514,50628907,0.09,0.09,-0.03,-0.06,352.8,352.8,0.0,0.0
1630619951.30020523,50728867,0.08,0.08,0.01,-0.03,352.8,352.8,0.0,0.0
1630619951.40016508,50828827,0.09,0.07,0.1,0.04,352.8,352.8,0.0,0.0
1630619951.50012517,50928787,0.13,0.09,0.16,0.13,352.8,352.8,0.0,0.0
1630619951.60008526,51028747,0.16,0.13,0.16,0.19,352.8,352.81,0.0,0.0
1630619951.70004511,51128707,0.17,0.16,0.12,0.18,352.8,352.81,0.0,0.0
1630619951.80000520,51228667,0.19,0.18,0.07,0.12,352.8,352.81,0.0,0.0
1630619951.89996529,51328627,0.22,0.21,0.07,0.08,352.8,352.81,0.0,0.0
1630619951.99992514,51428587,0.2,0.23,0.09,0.06,352.8,352.8,0.0,0.0
1630619952.09988523,51528547,0.15,0.2,0.14,0.09,352.8,352.8,0.0,0.0
1630619952.19984508,51628507,0.1,0.14,0.16,0.13,352.8,352.8,0.0,0.0
1630619952.29980516,51728467,0.06,0.07,0.15,0.15,352.8,352.8,0.0,0.0
1630619952.39976525,51828427,0.04,0.02,0.14,0.15,352.8,352.8,0.0,0.0
1630619952.49972510,51928387,0.04,0.01,0.14,0.15,352.8,352.8,0.0,0.0
1630619952.59968519,52028347,0.04,0.01,0.15,0.15,352.8,352.81,0.0,0.0
1630619952.69964528,52128307,0.03,0.02,0.14,0.14,352.8,352.81,0.0,0.0
1630619952.79960513,52228267,0.02,0.02,0.11,0.12,352.8,352.81,0.0,0.0
1630619952.89956522,52328227,0.04,0.02,0.09,0.1,352.8,352.81,0.0,0.0
1630619952.99952507,52428187,0.06,0.03,0.09,0.09,352.8,352.81,0.0,0.0
1630619953.10031819,52528980,0.08,0.05,0.08,0.08,352.8,352.81,0.0,0.0
1630619953.20027828,52628940,0.07,0.06,0.06,0.06,352.8,352.81,0.0,0.0
1630619953.30023813,52728900,0.05,0.06,0.07,0.04,352.8,352.81,0.0,0.0
1630619953.40019822,52828860,0.07,0.06,0.09,0.05,352.8,352.81,0.0,0.0
1630619953.50015807,52928820,0.07,0.06,0.14,0.1,352.8,352.81,0.0,0.0
1630619953.60011816,53028780,0.05,0.05,0.17,0.15,352.8,352.81,0.0,0.0
1630619953.70007825,53128740,0.06,0.05,0.15,0.16,352.8,352.81,0.0,0.0
1630619953.80003810,53228700,0.05,0.05,0.12,0.15,352.8,352.81,0.0,0.0
1630619953.89999819,53328660,0.04,0.05,0.08,0.11,352.8,352.8,0.0,0.0
1630619953.99995828,53428620,0.04,0.04,0.07,0.06,352.8,352.8,0.0,0.0
1630619954.09991813,53528580,0.05,0.05,0.09,0.05,352.8,352.81,0.0,0.0
1630619954.19987822,53628540,0.05,0.05,0.13,0.09,352.8,352.81,0.0,0.0
1630619954.29983807,53728500,0.08,0.06,0.15,0.14,352.8,352.81,0.0,0.0
1630619954.39979815,53828460,0.12,0.09,0.17,0.17,352.8,352.81,0.0,0.0
1630619954.49975824,53928420,0.13,0.12,0.16,0.18,352.8,352.82,0.0,0.0
1630619954.59971809,54028380,0.13,0.13,0.12,0.16,352.8,352.82,0.0,0.0
1630619954.69967818,54128340,0.09,0.12,0.08,0.11,352.8,352.82,0.0,0.0
1630619954.79963827,54228300,0.04,0.06,0.04,0.06,352.8,352.82,0.0,0.0
1630619954.89959812,54328260,0.01,0.01,0.01,0.01,352.8,352.82,0.0,0.0
1630619954.99955821,54428220,0.01,-0.01,0.03,0.0,352.8,352.81,0.0,0.0
1630619955.09951806,54528180,0.04,0.0,0.07,0.03,352.8,352.81,0.0,0.0
1630619955.20031118,54628973,0.06,0.03,0.07,0.05,352.8,352.81,0.0,0.0
1630619955.30027127,54728933,0.07,0.06,0.03,0.04,352.8,352.81,0.0,0.0
1630619955.40023112,54828893,0.11,0.1,0.0,0.01,352.8,352.81,0.0,0.0
1630619955.50019121,54928853,0.11,0.12,0.0,-0.01,352.8,352.81,0.0,0.0
1630619955.60015106,55028813,0.09,0.12,-0.01,-0.03,352.8,352.81,0.0,0.0
1630619955.70011115,55128773,0.03,0.08,0.0,-0.02,352.8,352.81,0.0,0.0
1630619955.80007124,55228733,0.0,0.02,-0.01,-0.02,352.8,352.81,0.0,0.0
1630619955.90003109,55328693,0.0,0.0,0.01,0.0,352.8,352.81,0.0,0.0
1630619955.99999118,55428653,0.01,0.0,0.08,0.05,352.8,352.8,0.0,0.0
1630619956.09995127,55528613,0.05,0.01,0.08,0.09,352.8,352.8,0.0,0.0
1630619956.19991112,55628573,0.08,0.05,0.07,0.09,352.8,352.8,0.0,0.0
1630619956.29987121,55728533,0.07,0.07,0.04,0.06,352.8,352.8,0.0,0.0
1630619956.39983130,55828493,0.05,0.05,0.03,0.04,352.8,352.8,0.0,0.0
1630619956.49979115,55928453,0.06,0.05,0.04,0.03,352.8,352.8,0.0,0.0
1630619956.59975123,56028413,0.08,0.07,0.04,0.03,352.8,352.8,0.0,0.0
1630619956.69971108,56128373,0.08,0.08,0.04,0.03,352.8,352.81,0.0,0.0
1630619956.79967117,56228333,0.08,0.08,0.03,0.03,352.8,352.81,0.0,0.0
1630619956.89963126,56328293,0.07,0.08,0.02,0.01,352.8,352.81,0.0,0.0
1630619956.99959111,56428253,0.05,0.05,0.04,0.02,352.8,352.81,0.0,0.0
1630619957.09955120,56528213,0.06,0.04,0.04,0.04,352.8,352.81,0.0,0.0
1630619957.19951129,56628173,0.08,0.05,0.04,0.03,352.8,352.8,0.0,0.0
1630619957.30030417,56728966,0.1,0.08,0.03,0.04,352.8,352.8,0.0,0.0
1630619957.40026426,56828926,0.11,0.1,0.03,0.04,352.8,352.8,0.0,0.0
1630619957.50022411,56928886,0.09,0.1,0.04,0.04,352.8,352.8,0.0,0.0
1630619957.60018420,57028846,0.09,0.1,0.05,0.05,352.8,352.8,0.0,0.0
1630619957.70014429,57128806,0.07,0.1,0.07,0.06,352.8,352.8,0.0,0.0
1630619957.80010414,57228766,0.06,0.08,0.08,0.06,352.8,352.8,0.0,0.0
1630619957.90006423,57328726,0.07,0.07,0.11,0.08,352.8,352.8,0.0,0.0
1630619958.00002408,57428686,0.07,0.06,0.14,0.11,352.8,352.8,0.0,0.0
1630619958.09998417,57528646,0.05,0.05,0.16,0.15,352.8,352.8,0.0,0.0
1630619958.19994426,57628606,0.05,0.03,0.14,0.16,352.8,352.8,0.0,0.0
1630619958.29990411,57728566,0.09,0.06,0.15,0.16,352.8,352.8,0.0,0.0
1630619958.39986420,57828526,0.11,0.1,0.16,0.16,352.8,352.8,0.0,0.0
1630619958.49982429,57928486,0.12,0.12,0.16,0.16,352.8,352.8,0.0,0.0
1630619958.59978414,58028446,0.11,0.13,0.14,0.15,352.8,352.8,0.0,0.0
1630619958.69974422,58128406,0.07,0.1,0.12,0.12,352.8,352.8,0.0,0.0
1630619958.79970407,58228366,0.05,0.06,0.1,0.1,352.8,352.8,0.0,0.0
1630619958.89966416,58328326,0.02,0.02,0.1,0.09,352.8,352.8,0.0,0.0
1630619958.99962425,58428286,0.04,0.0,0.11,0.08,352.8,352.8,0.0,0.0
1630619959.09958410,58528246,0.05,0.02,0.12,0.1,352.8,352.8,0.0,0.0
1630619959.19954419,58628206,0.06,0.04,0.12,0.11,352.8,352.8,0.0,0.0
1630619959.29950428,58728166,0.08,0.06,0.14,0.12,352.8,352.8,0.0,0.0
1630619959.40029716,58828959,0.07,0.07,0.14,0.13,352.8,352.8,0.0,0.0
1630619959.50025725,58928919,0.08,0.09,0.11,0.12,352.8,352.8,0.0,0.0
1630619959.60021710,59028879,0.1,0.09,0.07,0.09,352.8,352.8,0.0,0.0
1630619959.70017719,59128839,0.12,0.1,0.04,0.06,352.8,352.8,0.0,0.0
1630619959.80013728,59228799,0.12,0.11,0.03,0.03,352.8,352.8,0.0,0.0
1630619959.90009713,59328759,0.13,0.13,0.05,0.03,352.8,352.8,0.0,0.0
1630619960.00005722,59428719,0.14,0.13,0.08,0.06,352.8,352.8,0.0,0.0
1630619960.10001707,59528679,0.13,0.13,0.08,0.07,352.8,352.8,0.0,0.0
1630619960.19997716,59628639,0.12,0.12,0.07,0.06,352.8,352.8,0.0,0.0
1630619960.29993725,59728599,0.09,0.1,0.06,0.05,352.8,352.8,0.0,0.0
1630619960.39989710,59828559,0.07,0.07,0.05,0.04,352.8,352.8,0.0,0.0
1630619960.49985719,59928519,0.08,0.05,0.04,0.03,352.8,352.8,0.0,0.0
1630619960.59981728,60028479,0.12,0.07,0.02,0.02,352.8,352.81,0.0,0.0
1630619960.69977713,60128439,0.11,0.09,0.0,0.0,352.8,352.81,0.0,0.0
1630619960.79973722,60228399,0.11,0.09,0.01,0.0,352.8,352.81,0.0,0.0
1630619960.89969707,60328359,0.11,0.09,0.04,0.0,352.8,352.81,0.0,0.0
1630619960.99965715,60428319,0.11,0.1,0.06,0.03,352.8,352.81,0.0,0.0
1630619961.09961724,60528279,0.1,0.11,0.07,0.06,352.8,352.81,0.0,0.0
1630619961.19957709,60628239,0.09,0.11,0.05,0.06,352.8,352.81,0.0,0.0
1630619961.29953718,60728199,0.1,0.1,0.02,0.04,352.8,352.81,0.0,0.0
1630619961.39949727,60828159,0.12,0.11,0.03,0.03,352.8,352.8,0.0,0.0
1630619961.50029016,60928952,0.11,0.12,0.0,0.01,352.8,352.8,0.0,0.0
1630619961.60025024,61028912,0.08,0.11,0.0,0.0,352.8,352.8,0.0,0.0
1630619961.70021009,61128872,0.05,0.07,0.0,0.0,352.8,352.8,0.0,0.0
1630619961.80017018,61228832,0.07,0.05,0.03,0.0,352.8,352.8,0.0,0.0
1630619961.90013027,61328792,0.1,0.06,0.05,0.02,352.8,352.8,0.0,0.0
1630619962.00009012,61428752,0.13,0.1,0.07,0.05,352.8,352.79,0.0,0.0
1630619962.10005021,61528712,0.12,0.12,0.08,0.07,352.8,352.8,0.0,0.0
1630619962.20001006,61628672,0.13,0.13,0.09,0.08,352.8,352.8,0.0,0.0
1630619962.29997015,61728632,0.14,0.14,0.11,0.09,352.8,352.8,0.0,0.0
1630619962.39993024,61828592,0.14,0.14,0.14,0.12,352.8,352.8,0.0,0.0
1630619962.49989009,61928552,0.15,0.14,0.13,0.14,352.8,352.8,0.0,0.0
1630619962.59985018,62028512,0.15,0.15,0.07,0.11,352.8,352.8,0.0,0.0
1630619962.69981027,62128472,0.11,0.14,0.05,0.07,352.8,352.8,0.0,0.0
1630619962.79977012,62228432,0.11,0.12,0.06,0.05,352.8,352.8,0.0,0.0
1630619962.89973021,62328392,0.14,0.12,0.08,0.06,352.8,352.8,0.0,0.0
1630619962.99969029,62428352,0.15,0.13,0.11,0.09,352.8,352.8,0.0,0.0
1630619963.09965014,62528312,0.15,0.14,0.13,0.11,352.8,352.8,0.0,0.0
1630619963.19961023,62628272,0.12,0.14,0.12,0.13,352.8,352.8,0.0,0.0
1630619963.29957008,62728232,0.08,0.1,0.1,0.11,352.8,352.8,0.0,0.0
1630619963.39953017,62828192,0.07,0.06,0.08,0.08,352.8,352.8,0.0,0.0
1630619963.50032330,62928985,0.07,0.06,0.08,0.07,352.8,352.81,0.0,0.0
1630619963.60028315,63028945,0.07,0.06,0.09,0.07,352.8,352.81,0.0,0.0
1630619963.70024323,63128905,0.06,0.06,0.11,0.08,352.8,352.81,0.0,0.0
1630619963.80020308,63228865,0.05,0.06,0.12,0.09,352.8,352.81,0.0,0.0
1630619963.90016317,63328825,0.03,0.04,0.16,0.13,352.8,352.81,0.0,0.0
1630619964.00012326,63428785,0.03,0.03,0.21,0.19,352.8,352.81,0.0,0.0
1630619964.10008311,63528745,0.05,0.03,0.21,0.23,352.8,352.81,0.0,0.0
1630619964.20004320,63628705,0.06,0.04,0.19,0.22,352.8,352.81,0.0,0.0
1630619964.30000329,63728665,0.09,0.07,0.18,0.19,352.8,352.81,0.0,0.0
1630619964.39996314,63828625,0.1,0.09,0.16,0.17,352.8,352.81,0.0,0.0
1630619964.49992323,63928585,0.11,0.1,0.14,0.14,352.8,352.81,0.0,0.0
1630619964.59988308,64028545,0.09,0.1,0.12,0.12,352.8,352.81,0.0,0.0
1630619964.69984317,64128505,0.08,0.08,0.14,0.12,352.8,352.8,0.0,0.0
1630619964.79980326,64228465,0.07,0.06,0.14,0.13,352.8,352.8,0.0,0.0
1630619964.89976311,64328425,0.07,0.06,0.1,0.1,352.8,352.8,0.0,0.0
1630619964.99972320,64428385,0.08,0.06,0.08,0.08,352.8,352.8,0.0,0.0
1630619965.09968328,64528345,0.08,0.07,0.08,0.06,352.8,352.8,0.0,0.0
1630619965.19964314,64628305,0.11,0.09,0.07,0.05,352.8,352.8,0.0,0.0
1630619965.29960322,64728265,0.13,0.12,0.08,0.06,352.8,352.81,0.0,0.0
1630619965.39956307,64828225,0.12,0.13,0.07,0.06,352.8,352.81,0.0,0.0
1630619965.49952316,64928185,0.14,0.13,0.07,0.06,352.8,352.81,0.0,0.0
1630619965.60031629,65028978,0.14,0.12,0.08,0.07,352.8,352.81,0.0,0.0
1630619965.70027614,65128938,0.15,0.12,0.08,0.08,352.8,352.81,0.0,0.0
1630619965.80023623,65228898,0.18,0.14,0.08,0.09,352.8,352.81,0.0,0.0
1630619965.90019608,65328858,0.16,0.16,0.09,0.09,352.8,352.81,0.0,0.0
1630619966.00015616,65428818,0.1,0.13,0.11,0.1,352.8,352.8,0.0,0.0
1630619966.10011625,65528778,0.07,0.08,0.14,0.13,352.8,352.8,0.0,0.0
1630619966.20007610,65628738,0.05,0.04,0.14,0.14,352.8,352.8,0.0,0.0
1630619966.30003619,65728698,0.06,0.03,0.1,0.13,352.8,352.8,0.0,0.0
1630619966.39999628,65828658,0.06,0.04,0.09,0.1,352.8,352.8,0.0,0.0
1630619966.49995613,65928618,0.07,0.05,0.07,0.08,352.8,352.8,0.0,0.0
1630619966.59991622,66028578,0.07,0.06,0.04,0.05,352.8,352.8,0.0,0.0
1630619966.69987607,66128538,0.06,0.06,0.02,0.02,352.8,352.8,0.0,0.0
1630619966.79983616,66228498,0.04,0.04,0.02,0.0,352.8,352.8,0.0,0.0
1630619966.89979625,66328458,0.04,0.02,0.04,0.01,352.8,352.8,0.0,0.0
1630619966.99975610,66428418,0.05,0.02,0.07,0.03,352.8,352.8,0.0,0.0
1630619967.09971619,66528378,0.06,0.03,0.09,0.05,352.8,352.8,0.0,0.0
1630619967.19967628,66628338,0.07,0.04,0.11,0.08,352.8,352.8,0.0,0.0
1630619967.29963613,66728298,0.08,0.06,0.11,0.1,352.8,352.8,0.0,0.0
1630619967.39959621,66828258,0.09,0.08,0.11,0.11,352.8,352.8,0.0,0.0
1630619967.49955606,66928218,0.11,0.11,0.08,0.1,352.8,352.8,0.0,0.0
1630619967.59951615,67028178,0.1,0.12,0.05,0.06,352.8,352.8,0.0,0.0
1630619967.70030928,67128971,0.08,0.11,0.05,0.04,352.8,352.8,0.0,0.0
1630619967.80026913,67228931,0.09,0.09,0.08,0.05,352.8,352.81,0.0,0.0
1630619967.90022922,67328891,0.14,0.11,0.11,0.08,352.8,352.81,0.0,0.0
1630619968.00018907,67428851,0.18,0.15,0.13,0.12,352.8,352.81,0.0,0.0
1630619968.10014915,67528811,0.21,0.21,0.12,0.14,352.8,352.81,0.0,0.0
1630619968.20010924,67628771,0.19,0.22,0.12,0.13,352.8,352.81,0.0,0.0
1630619968.30006909,67728731,0.18,0.2,0.12,0.13,352.8,352.81,0.0,0.0
1630619968.40002918,67828691,0.17,0.18,0.11,0.12,352.8,352.81,0.0,0.0
1630619968.49998927,67928651,0.15,0.17,0.09,0.1,352.8,352.81,0.0,0.0
1630619968.59994912,68028611,0.13,0.15,0.12,0.1,352.8,352.81,0.0,0.0
1630619968.69990921,68128571,0.09,0.11,0.13,0.11,352.8,352.8,0.0,0.0
1630619968.79986906,68228531,0.1,0.08,0.15,0.12,352.8,352.8,0.0,0.0
1630619968.89982915,68328491,0.13,0.09,0.17,0.16,352.8,352.8,0.0,0.0
1630619968.99978924,68428451,0.17,0.12,0.17,0.17,352.8,352.8,0.0,0.0
1630619969.09974909,68528411,0.19,0.16,0.17,0.18,352.8,352.81,0.0,0.0
1630619969.19970918,68628371,0.19,0.17,0.16,0.17,352.8,352.81,0.0,0.0
1630619969.29966927,68728331,0.18,0.17,0.12,0.14,352.8,352.81,0.0,0.0
1630619969.39962912,68828291,0.14,0.15,0.09,0.09,352.8,352.81,0.0,0.0
1630619969.49958920,68928251,0.14,0.14,0.09,0.08,352.8,352.81,0.0,0.0
1630619969.59954929,69028211,0.15,0.13,0.12,0.08,352.8,352.81,0.0,0.0
1630619969.69950914,69128171,0.15,0.14,0.13,0.11,352.8,352.81,0.0,0.0
1630619969.80030227,69228964,0.16,0.15,0.14,0.13,352.8,352.81,0.0,0.0
1630619969.90026212,69328924,0.15,0.16,0.17,0.15,352.8,352.81,0.0,0.0
1630619970.00022221,69428884,0.1,0.13,0.17,0.18,352.8,352.81,0.0,0.0
1630619970.10018229,69528844,0.07,0.09,0.15,0.18,352.8,352.81,0.0,0.0
1630619970.20014215,69628804,0.09,0.07,0.13,0.16,352.8,352.81,0.0,0.0
1630619970.30010223,69728764,0.12,0.08,0.1,0.13,352.8,352.81,0.0,0.0
1630619970.40006208,69828724,0.13,0.09,0.08,0.1,352.8,352.8,0.0,0.0
1630619970.50002217,69928684,0.12,0.1,0.11,0.09,352.8,352.8,0.0,0.0
1630619970.59998226,70028644,0.09,0.08,0.11,0.1,352.8,352.8,0.0,0.0
1630619970.69994211,70128604,0.08,0.07,0.08,0.08,352.8,352.8,0.0,0.0
1630619970.79990220,70228564,0.11,0.08,0.06,0.05,352.8,352.8,0.0,0.0
1630619970.89986229,70328524,0.16,0.13,0.05,0.03,352.8,352.8,0.0,0.0
1630619970.99982214,70428484,0.17,0.17,0.04,0.02,352.8,352.8,0.0,0.0
1630619971.09978223,70528444,0.15,0.17,0.05,0.03,352.8,352.8,0.0,0.0
1630619971.19974208,70628404,0.13,0.15,0.07,0.04,352.8,352.8,0.0,0.0
1630619971.29970217,70728364,0.11,0.12,0.06,0.06,352.8,352.81,0.0,0.0
1630619971.39966226,70828324,0.09,0.09,0.04,0.04,352.8,352.81,0.0,0.0
1630619971.49962211,70928284,0.08,0.07,0.05,0.03,352.8,352.81,0.0,0.0
1630619971.59958220,71028244,0.08,0.06,0.07,0.05,352.8,352.81,0.0,0.0
1630619971.69954228,71128204,0.05,0.05,0.1,0.08,352.8,352.81,0.0,0.0
1630619971.79950213,71228164,0.02,0.03,0.1,0.1,352.8,352.8,0.0,0.0
1630619971.90029526,71328957,0.02,0.02,0.09,0.1,352.8,352.8,0.0,0.0
1630619972.00025511,71428917,0.04,0.02,0.08,0.07,352.8,352.8,0.0,0.0
1630619972.10021520,71528877,0.08,0.04,0.07,0.05,352.8,352.8,0.0,0.0
1630619972.20017529,71628837,0.09,0.07,0.09,0.05,352.8,352.8,0.0,0.0
1630619972.30013514,71728797,0.12,0.1,0.1,0.07,352.8,352.8,0.0,0.0
1630619972.40009522,71828757,0.14,0.13,0.14,0.11,352.8,352.8,0.0,0.0
1630619972.50005507,71928717,0.12,0.15,0.15,0.14,352.8,352.8,0.0,0.0
1630619972.60001516,72028677,0.08,0.12,0.1,0.13,352.8,352.8,0.0,0.0
1630619972.69997525,72128637,0.05,0.07,0.07,0.09,352.8,352.8,0.0,0.0
1630619972.79993510,72228597,0.04,0.04,0.07,0.06,352.8,352.8,0.0,0.0
1630619972.89989519,72328557,0.04,0.02,0.08,0.06,352.8,352.8,0.0,0.0
1630619972.99985528,72428517,0.06,0.03,0.08,0.06,352.8,352.8,0.0,0.0
1630619973.09981513,72528477,0.09,0.07,0.08,0.08,352.8,352.8,0.0,0.0
1630619973.19977522,72628437,0.08,0.09,0.07,0.09,352.8,352.8,0.0,0.0
1630619973.29973507,72728397,0.02,0.06,0.1,0.09,352.8,352.8,0.0,0.0
1630619973.39969516,72828357,-0.03,0.0,0.12,0.11,352.8,352.8,0.0,0.0
1630619973.49965525,72928317,-0.05,-0.05,0.1,0.11,352.8,352.8,0.0,0.0
1630619973.59961510,73028277,0.0,-0.06,0.07,0.09,352.8,352.81,0.0,0.0
1630619973.69957519,73128237,0.04,-0.02,0.08,0.07,352.8,352.81,0.0,0.0
1630619973.79953527,73228197,0.07,0.02,0.06,0.06,352.8,352.81,0.0,0.0
1630619973.89949512,73328157,0.09,0.07,0.05,0.04,352.8,352.81,0.0,0.0
1630619974.00028825,73428950,0.12,0.11,0.07,0.04,352.8,352.81,0.0,0.0
1630619974.10024810,73528910,0.14,0.14,0.1,0.07,352.8,352.81,0.0,0.0
1630619974.20020819,73628870,0.14,0.15,0.09,0.09,352.8,352.81,0.0,0.0
1630619974.30016828,73728830,0.17,0.17,0.07,0.09,352.8,352.8,0.0,0.0
1630619974.40012813,73828790,0.19,0.19,0.04,0.06,352.8,352.8,0.0,0.0
1630619974.50008821,73928750,0.18,0.2,0.04,0.04,352.8,352.8,0.0,0.0
1630619974.60004807,74028710,0.15,0.17,0.04,0.04,352.8,352.8,0.0,0.0
1630619974.70000815,74128670,0.15,0.15,0.07,0.04,352.8,352.8,0.0,0.0
1630619974.79996824,74228630,0.17,0.15,0.11,0.08,352.8,352.8,0.0,0.0
1630619974.89992809,74328590,0.19,0.17,0.11,0.1,352.8,352.8,0.0,0.0
1630619974.99988818,74428550,0.19,0.18,0.1,0.1,352.8,352.8,0.0,0.0
1630619975.09984827,74528510,0.19,0.19,0.07,0.09,352.8,352.8,0.0,0.0
1630619975.19980812,74628470,0.19,0.2,0.03,0.06,352.8,352.8,0.0,0.0
1630619975.29976821,74728430,0.2,0.2,0.01,0.02,352.8,352.8,0.0,0.0
1630619975.39972806,74828390,0.2,0.2,0.0,0.0,352.8,352.8,0.0,0.0
1630619975.49968815,74928350,0.16,0.19,-0.01,-0.01,352.8,352.8,0.0,0.0
1630619975.59964824,75028310,0.12,0.14,0.01,-0.01,352.8,352.8,0.0,0.0
1630619975.69960809,75128270,0.12,0.11,0.02,0.0,352.8,352.8,0.0,0.0
1630619975.79956818,75228230,0.15,0.12,0.02,0.0,352.8,352.8,0.0,0.0
1630619975.89952826,75328190,0.17,0.14,0.03,0.02,352.8,352.8,0.0,0.0
1630619976.00032115,75428983,0.21,0.17,0.05,0.04,352.8,352.79,0.0,0.0
1630619976.10028124,75528943,0.24,0.22,0.05,0.06,352.8,352.79,0.0,0.0
1630619976.20024109,75628903,0.23,0.23,0.02,0.04,352.8,352.79,0.0,0.0
1630619976.30020118,75728863,0.18,0.2,0.03,0.03,352.8,352.79,0.0,0.0
1630619976.40016127,75828823,0.15,0.15,0.05,0.04,352.8,352.79,0.0,0.0
1630619976.50012112,75928783,0.16,0.14,0.06,0.06,352.8,352.8,0.0,0.0
1630619976.60008121,76028743,0.18,0.15,0.08,0.07,352.8,352.8,0.0,0.0
1630619976.70004129,76128703,0.16,0.16,0.09,0.09,352.8,352.8,0.0,0.0
1630619976.80000114,76228663,0.14,0.15,0.11,0.1,352.8,352.8,0.0,0.0
1630619976.89996123,76328623,0.15,0.14,0.09,0.1,352.8,352.8,0.0,0.0
1630619976.99992108,76428583,0.18,0.16,0.09,0.08,352.8,352.8,0.0,0.0
1630619977.09988117,76528543,0.18,0.18,0.12,0.09,352.8,352.8,0.0,0.0
1630619977.19984126,76628503,0.18,0.18,0.13,0.11,352.8,352.8,0.0,0.0
1630619977.29980111,76728463,0.17,0.17,0.13,0.12,352.8,352.8,0.0,0.0
1630619977.39976120,76828423,0.13,0.14,0.13,0.13,352.8,352.8,0.0,0.0
1630619977.49972129,76928383,0.11,0.11,0.15,0.14,352.8,352.8,0.0,0.0
1630619977.59968114,77028343,0.09,0.08,0.13,0.14,352.8,352.81,0.0,0.0
1630619977.69964123,77128303,0.12,0.08,0.12,0.13,352.8,352.81,0.0,0.0
1630619977.79960108,77228263,0.16,0.12,0.13,0.13,352.8,352.8,0.0,0.0
1630619977.89956117,77328223,0.2,0.18,0.12,0.13,352.8,352.8,0.0,0.0
1630619977.99952126,77428183,0.19,0.19,0.1,0.1,352.8,352.8,0.0,0.0
1630619978.10031414,77528976,0.15,0.18,0.11,0.09,352.8,352.8,0.0,0.0
1630619978.20027423,77628936,0.11,0.14,0.11,0.08,352.8,352.8,0.0,0.0
1630619978.30023408,77728896,0.11,0.11,0.09,0.07,352.8,352.8,0.0,0.0
1630619978.40019417,77828856,0.13,0.11,0.1,0.06,352.8,352.8,0.0,0.0
1630619978.50015426,77928816,0.14,0.12,0.15,0.1,352.8,352.8,0.0,0.0
1630619978.60011411,78028776,0.16,0.13,0.17,0.15,352.8,352.81,0.0,0.0
1630619978.70007420,78128736,0.16,0.14,0.14,0.17,352.8,352.81,0.0,0.0
1630619978.80003428,78228696,0.15,0.14,0.07,0.13,352.8,352.81,0.0,0.0
1630619978.89999413,78328656,0.12,0.14,0.01,0.06,352.8,352.81,0.0,0.0
1630619978.99995422,78428616,0.12,0.12,0.03,0.01,352.8,352.81,0.0,0.0
1630619979.09991407,78528576,0.12,0.11,0.09,0.04,352.8,352.81,0.0,0.0
1630619979.19987416,78628536,0.12,0.11,0.14,0.1,352.8,352.81,0.0,0.0
1630619979.29983425,78728496,0.11,0.1,0.17,0.15,352.8,352.8,0.0,0.0
1630619979.39979410,78828456,0.08,0.08,0.18,0.18,352.8,352.8,0.0,0.0
1630619979.49975419,78928416,0.09,0.08,0.16,0.18,352.8,352.8,0.0,0.0
1630619979.59971428,79028376,0.09,0.08,0.15,0.15,352.8,352.8,0.0,0.0
1630619979.69967413,79128336,0.11,0.09,0.13,0.13,352.8,352.8,0.0,0.0
1630619979.79963422,79228296,0.13,0.11,0.11,0.11,352.8,352.8,0.0,0.0
1630619979.89959407,79328256,0.1,0.1,0.11,0.09,352.8,352.8,0.0,0.0
1630619979.99955416,79428216,0.07,0.07,0.14,0.11,352.8,352.8,0.0,0.0
1630619980.09951425,79528176,0.07,0.05,0.17,0.14,352.8,352.8,0.0,0.0
1630619980.20030713,79628969,0.09,0.07,0.18,0.17,352.8,352.8,0.0,0.0
1630619980.30026722,79728929,0.12,0.1,0.17,0.17,352.8,352.8,0.0,0.0
1630619980.40022707,79828889,0.12,0.13,0.15,0.17,352.8,352.8,0.0,0.0
1630619980.50018716,79928849,0.08,0.12,0.12,0.16,352.8,352.8,0.0,0.0
1630619980.60014725,80028809,0.04,0.07,0.09,0.11,352.8,352.8,0.0,0.0
1630619980.70010710,80128769,0.02,0.03,0.07,0.07,352.8,352.8,0.0,0.0
1630619980.80006719,80228729,0.05,0.01,0.08,0.05,352.8,352.79,0.0,0.0
1630619980.90002728,80328689,0.08,0.03,0.11,0.06,352.8,352.79,0.0,0.0
1630619980.99998713,80428649,0.11,0.07,0.13,0.09,352.8,352.79,0.0,0.0
1630619981.09994721,80528609,0.14,0.11,0.11,0.09,352.8,352.79,0.0,0.0
1630619981.19990706,80628569,0.16,0.14,0.1,0.09,352.8,352.8,0.0,0.0
1630619981.29986715,80728529,0.18,0.17,0.12,0.1,352.8,352.8,0.0,0.0
1630619981.39982724,80828489,0.17,0.18,0.13,0.11,352.8,352.8,0.0,0.0
1630619981.49978709,80928449,0.14,0.16,0.13,0.13,352.8,352.8,0.0,0.0
1630619981.59974718,81028409,0.14,0.14,0.14,0.14,352.8,352.8,0.0,0.0
1630619981.69970727,81128369,0.13,0.13,0.12,0.13,352.8,352.8,0.0,0.0
1630619981.79966712,81228329,0.13,0.12,0.1,0.12,352.8,352.81,0.0,0.0
1630619981.89962721,81328289,0.11,0.12,0.07,0.09,352.8,352.81,0.0,0.0
1630619981.99958706,81428249,0.11,0.12,0.06,0.06,352.8,352.81,0.0,0.0
1630619982.09954715,81528209,0.13,0.11,0.08,0.06,352.8,352.81,0.0,0.0
1630619982.19950724,81628169,0.14,0.11,0.1,0.07,352.8,352.81,0.0,0.0
1630619982.30030012,81728962,0.15,0.12,0.13,0.11,352.8,352.81,0.0,0.0
1630619982.40026021,81828922,0.15,0.13,0.18,0.16,352.8,352.81,0.0,0.0
1630619982.50022006,81928882,0.14,0.13,0.21,0.21,352.8,352.81,0.0,0.0
1630619982.60018015,82028842,0.15,0.13,0.22,0.24,352.8,352.81,0.0,0.0
1630619982.70014024,82128802,0.13,0.13,0.2,0.24,352.8,352.8,0.0,0.0
1630619982.80010009,82228762,0.07,0.09,0.14,0.19,352.8,352.8,0.0,0.0
1630619982.90006018,82328722,0.07,0.06,0.1,0.13,352.8,352.8,0.0,0.0
1630619983.00002027,82428682,0.07,0.04,0.1,0.09,352.8,352.79,0.0,0.0
1630619983.09998012,82528642,0.08,0.04,0.14,0.1,352.8,352.79,0.0,0.0
1630619983.19994020,82628602,0.11,0.06,0.16,0.12,352.8,352.79,0.0,0.0
1630619983.29990029,82728562,0.14,0.1,0.17,0.15,352.8,352.79,0.0,0.0
1630619983.39986014,82828522,0.15,0.14,0.15,0.16,352.8,352.79,0.0,0.0
1630619983.49982023,82928482,0.16,0.17,0.12,0.14,352.8,352.79,0.0,0.0
1630619983.59978008,83028442,0.15,0.18,0.11,0.12,352.8,352.79,0.0,0.0
1630619983.69974017,83128402,0.1,0.14,0.09,0.1,352.8,352.8,0.0,0.0
1630619983.79970026,83228362,0.06,0.09,0.1,0.08,352.8,352.8,0.0,0.0
1630619983.89966011,83328322,0.06,0.06,0.11,0.08,352.8,352.8,0.0,0.0
1630619983.99962020,83428282,0.07,0.06,0.12,0.09,352.8,352.8,0.0,0.0
1630619984.09958029,83528242,0.06,0.05,0.15,0.11,352.8,352.8,0.0,0.0
1630619984.19954014,83628202,0.07,0.05,0.16,0.14,352.8,352.8,0.0,0.0
1630619984.29950023,83728162,0.08,0.06,0.18,0.17,352.8,352.81,0.0,0.0
1630619984.40029311,83828955,0.11,0.08,0.18,0.18,352.8,352.81,0.0,0.0
1630619984.50025320,83928915,0.14,0.12,0.15,0.17,352.8,352.81,0.0,0.0
1630619984.60021329,84028875,0.15,0.14,0.14,0.15,352.8,352.81,0.0,0.0
1630619984.70017314,84128835,0.18,0.17,0.12,0.13,352.8,352.8,0.0,0.0
1630619984.80013323,84228795,0.19,0.19,0.09,0.09,352.8,352.8,0.0,0.0
1630619984.90009308,84328755,0.18,0.19,0.09,0.07,352.8,352.8,0.0,0.0
1630619985.00005317,84428715,0.17,0.18,0.11,0.08,352.8,352.8,0.0,0.0
1630619985.10001326,84528675,0.16,0.16,0.11,0.09,352.8,352.8,0.0,0.0
1630619985.19997311,84628635,0.16,0.15,0.09,0.08,352.8,352.8,0.0,0.0
1630619985.29993320,84728595,0.16,0.15,0.07,0.07,352.8,352.8,0.0,0.0
1630619985.39989328,84828555,0.19,0.16,0.05,0.04,352.8,352.8,0.0,0.0
1630619985.49985313,84928515,0.2,0.18,0.06,0.04,352.8,352.8,0.0,0.0
1630619985.59981322,85028475,0.18,0.18,0.06,0.04,352.8,352.8,0.0,0.0
1630619985.69977307,85128435,0.17,0.17,0.1,0.07,352.8,352.8,0.0,0.0
1630619985.79973316,85228395,0.15,0.15,0.14,0.11,352.8,352.8,0.0,0.0
1630619985.89969325,85328355,0.15,0.14,0.18,0.16,352.8,352.8,0.0,0.0
1630619985.99965310,85428315,0.17,0.15,0.19,0.19,352.8,352.8,0.0,0.0
1630619986.09961319,85528275,0.19,0.17,0.16,0.19,352.8,352.8,0.0,0.0
1630619986.19957328,85628235,0.18,0.16,0.11,0.14,352.8,352.8,0.0,0.0
1630619986.29953313,85728195,0.16,0.15,0.09,0.09,352.8,352.8,0.0,0.0
1630619986.39949322,85828155,0.16,0.13,0.08,0.06,352.8,352.8,0.0,0.0
1630619986.50028610,85928948,0.16,0.14,0.09,0.06,352.8,352.8,0.0,0.0
1630619986.60024619,86028908,0.16,0.15,0.11,0.08,352.8,352.8,0.0,0.0
1630619986.70020628,86128868,0.15,0.14,0.13,0.11,352.8,352.8,0.0,0.0
1630619986.80016613,86228828,0.15,0.14,0.14,0.13,352.8,352.8,0.0,0.0
1630619986.90012622,86328788,0.16,0.15,0.12,0.13,352.8,352.8,0.0,0.0
1630619987.00008607,86428748,0.16,0.16,0.12,0.12,352.8,352.8,0.0,0.0
1630619987.10004616,86528708,0.16,0.16,0.08,0.1,352.8,352.8,0.0,0.0
1630619987.20000625,86628668,0.14,0.15,0.08,0.07,352.8,352.8,0.0,0.0
1630619987.29996610,86728628,0.1,0.11,0.12,0.08,352.8,352.8,0.0,0.0
1630619987.39992619,86828588,0.06,0.07,0.15,0.11,352.8,352.8,0.0,0.0
1630619987.49988627,86928548,0.04,0.03,0.15,0.14,352.8,352.8,0.0,0.0
1630619987.59984612,87028508,0.06,0.02,0.14,0.16,352.8,352.8,0.0,0.0
1630619987.69980621,87128468,0.11,0.05,0.14,0.16,352.8,352.8,0.0,0.0
1630619987.79976606,87228428,0.15,0.11,0.14,0.16,352.8,352.8,0.0,0.0
1630619987.89972615,87328388,0.13,0.13,0.12,0.14,352.8,352.8,0.0,0.0
1630619987.99968624,87428348,0.13,0.13,0.08,0.1,352.8,352.8,0.0,0.0
1630619988.09964609,87528308,0.12,0.13,0.06,0.05,352.8,352.8,0.0,0.0
1630619988.19960618,87628268,0.11,0.12,0.06,0.03,352.8,352.8,0.0,0.0
1630619988.29956627,87728228,0.12,0.11,0.07,0.04,352.8,352.8,0.0,0.0
1630619988.39952612,87828188,0.12,0.12,0.1,0.07,352.8,352.8,0.0,0.0
1630619988.50031924,87928981,0.08,0.09,0.12,0.11,352.8,352.8,0.0,0.0
1630619988.60027909,88028941,0.05,0.05,0.13,0.12,352.8,352.8,0.0,0.0
1630619988.70023918,88128901,0.05,0.04,0.13,0.13,352.8,352.8,0.0,0.0
1630619988.80019927,88228861,0.08,0.05,0.14,0.14,352.8,352.8,0.0,0.0
1630619988.90015912,88328821,0.09,0.07,0.14,0.14,352.8,352.8,0.0,0.0
1630619989.00011921,88428781,0.09,0.07,0.12,0.12,352.8,352.8,0.0,0.0
1630619989.10007906,88528741,0.08,0.08,0.12,0.1,352.8,352.8,0.0,0.0
1630619989.20003915,88628701,0.06,0.07,0.12,0.1,352.8,352.8,0.0,0.0
1630619989.29999924,88728661,0.07,0.06,0.11,0.1,352.8,352.8,0.0,0.0
1630619989.39995909,88828621,0.09,0.06,0.11,0.09,352.8,352.8,0.0,0.0
1630619989.49991918,88928581,0.1,0.08,0.14,0.11,352.8,352.8,0.0,0.0
1630619989.59987926,89028541,0.15,0.11,0.17,0.14,352.8,352.8,0.0,0.0
1630619989.69983912,89128501,0.19,0.17,0.18,0.17,352.8,352.8,0.0,0.0
1630619989.79979920,89228461,0.2,0.2,0.18,0.18,352.8,352.8,0.0,0.0
1630619989.89975929,89328421,0.2,0.21,0.18,0.18,352.8,352.8,0.0,0.0
1630619989.99971914,89428381,0.18,0.21,0.17,0.18,352.8,352.81,0.0,0.0
1630619990.09967923,89528341,0.19,0.2,0.16,0.18,352.8,352.81,0.0,0.0
1630619990.19963908,89628301,0.2,0.2,0.14,0.16,352.8,352.81,0.0,0.0
1630619990.29959917,89728261,0.18,0.2,0.15,0.14,352.8,352.8,0.0,0.0
1630619990.39955926,89828221,0.16,0.18,0.16,0.14,352.8,352.8,0.0,0.0
1630619990.49951911,89928181,0.17,0.16,0.17,0.14,352.8,352.8,0.0,0.0
1630619990.60031223,90028974,0.19,0.16,0.17,0.15,352.8,352.8,0.0,0.0
1630619990.70027208,90128934,0.2,0.18,0.17,0.16,352.8,352.8,0.0,0.0
1630619990.80023217,90228894,0.22,0.2,0.18,0.17,352.8,352.8,0.0,0.0
1630619990.90019226,90328854,0.24,0.22,0.18,0.18,352.8,352.8,0.0,0.0
1630619991.00015211,90428814,0.22,0.23,0.19,0.18,352.8,352.8,0.0,0.0
1630619991.10011220,90528774,0.2,0.21,0.2,0.19,352.8,352.8,0.0,0.0
1630619991.20007229,90628734,0.2,0.19,0.17,0.18,352.8,352.8,0.0,0.0
1630619991.30003214,90728694,0.18,0.18,0.15,0.17,352.8,352.8,0.0,0.0
1630619991.39999223,90828654,0.2,0.18,0.13,0.15,352.8,352.8,0.0,0.0
1630619991.49995208,90928614,0.22,0.2,0.13,0.13,352.8,352.8,0.0,0.0
1630619991.59991217,91028574,0.21,0.21,0.14,0.13,352.8,352.8,0.0,0.0
1630619991.69987226,91128534,0.16,0.17,0.15,0.14,352.8,352.8,0.0,0.0
1630619991.79983211,91228494,0.13,0.12,0.17,0.15,352.8,352.8,0.0,0.0
1630619991.89979219,91328454,0.13,0.11,0.17,0.16,352.8,352.8,0.0,0.0
1630619991.99975228,91428414,0.13,0.11,0.16,0.16,352.8,352.8,0.0,0.0
1630619992.09971213,91528374,0.12,0.11,0.14,0.14,352.8,352.8,0.0,0.0
1630619992.19967222,91628334,0.12,0.11,0.13,0.12,352.8,352.8,0.0,0.0
1630619992.29963207,91728294,0.11,0.1,0.16,0.12,352.8,352.8,0.0,0.0
1630619992.39959216,91828254,0.12,0.1,0.16,0.14,352.8,352.8,0.0,0.0
1630619992.49955225,91928214,0.17,0.13,0.15,0.14,352.8,352.81,0.0,0.0
1630619992.59951210,92028174,0.19,0.18,0.14,0.13,352.8,352.81,0.0,0.0
1630619992.70030522,92128967,0.18,0.19,0.14,0.13,352.8,352.81,0.0,0.0
1630619992.80026507,92228927,0.17,0.18,0.16,0.14,352.8,352.81,0.0,0.0
1630619992.90022516,92328887,0.17,0.17,0.19,0.18,352.8,352.81,0.0,0.0
1630619993.00018525,92428847,0.18,0.17,0.19,0.2,352.8,352.8,0.0,0.0
1630619993.10014510,92528807,0.18,0.16,0.17,0.2,352.8,352.8,0.0,0.0
1630619993.20010519,92628767,0.18,0.16,0.17,0.18,352.8,352.8,0.0,0.0
1630619993.30006528,92728727,0.19,0.17,0.18,0.18,352.8,352.8,0.0,0.0
1630619993.40002513,92828687,0.17,0.17,0.13,0.16,352.8,352.8,0.0,0.0
1630619993.49998522,92928647,0.17,0.15,0.1,0.11,352.8,352.8,0.0,0.0
1630619993.59994507,93028607,0.17,0.15,0.1,0.09,352.8,352.8,0.0,0.0
1630619993.69990516,93128567,0.16,0.16,0.1,0.08,352.8,352.8,0.0,0.0
1630619993.79986525,93228527,0.15,0.15,0.12,0.09,352.8,352.8,0.0,0.0
1630619993.89982510,93328487,0.15,0.14,0.13,0.12,352.8,352.8,0.0,0.0
1630619993.99978518,93428447,0.17,0.14,0.13,0.13,352.8,352.8,0.0,0.0
1630619994.09974527,93528407,0.2,0.17,0.12,0.13,352.8,352.8,0.0,0.0
1630619994.19970512,93628367,0.18,0.18,0.11,0.11,352.8,352.8,0.0,0.0
1630619994.29966521,93728327,0.16,0.18,0.1,0.09,352.8,352.8,0.0,0.0
1630619994.39962506,93828287,0.15,0.16,0.12,0.09,352.8,352.8,0.0,0.0
1630619994.49958515,93928247,0.15,0.15,0.13,0.1,352.8,352.81,0.0,0.0
1630619994.59954524,94028207,0.15,0.14,0.15,0.12,352.8,352.81,0.0,0.0
1630619994.69950509,94128167,0.15,0.14,0.16,0.15,352.8,352.81,0.0,0.0
1630619994.80029821,94228960,0.17,0.15,0.17,0.16,352.8,352.81,0.0,0.0
1630619994.90025806,94328920,0.21,0.18,0.17,0.16,352.8,352.81,0.0,0.0
1630619995.00021815,94428880,0.22,0.22,0.17,0.17,352.8,352.8,0.0,0.0
1630619995.10017824,94528840,0.21,0.22,0.17,0.17,352.8,352.8,0.0,0.0
1630619995.20013809,94628800,0.2,0.19,0.17,0.17,352.8,352.8,0.0,0.0
1630619995.30009818,94728760,0.2,0.18,0.15,0.15,352.8,352.8,0.0,0.0
1630619995.40005827,94828720,0.22,0.2,0.12,0.12,352.8,352.8,0.0,0.0
1630619995.50001812,94928680,0.22,0.22,0.1,0.1,352.8,352.8,0.0,0.0
1630619995.59997821,95028640,0.21,0.21,0.1,0.08,352.8,352.8,0.0,0.0
1630619995.69993806,95128600,0.18,0.18,0.1,0.09,352.8,352.8,0.0,0.0
1630619995.79989815,95228560,0.16,0.15,0.09,0.07,352.8,352.8,0.0,0.0
1630619995.89985824,95328520,0.17,0.14,0.1,0.07,352.8,352.8,0.0,0.0
1630619995.99981809,95428480,0.2,0.16,0.11,0.08,352.8,352.81,0.0,0.0
1630619996.09977818,95528440,0.19,0.19,0.14,0.1,352.8,352.81,0.0,0.0
1630619996.19973826,95628400,0.17,0.18,0.18,0.14,352.8,352.81,0.0,0.0
1630619996.29969811,95728360,0.15,0.16,0.19,0.19,352.8,352.81,0.0,0.0
1630619996.39965820,95828320,0.13,0.14,0.2,0.21,352.8,352.81,0.0,0.0
1630619996.49961829,95928280,0.13,0.12,0.18,0.2,352.8,352.8,0.0,0.0
1630619996.59957814,96028240,0.14,0.11,0.14,0.17,352.8,352.8,0.0,0.0
1630619996.69953823,96128200,0.16,0.13,0.12,0.14,352.8,352.8,0.0,0.0
1630619996.79949808,96228160,0.15,0.14,0.14,0.13,352.8,352.8,0.0,0.0
1630619996.90029120,96328953,0.17,0.15,0.15,0.13,352.8,352.8,0.0,0.0
1630619997.00025129,96428913,0.19,0.17,0.17,0.14,352.8,352.8,0.0,0.0
1630619997.10021114,96528873,0.21,0.19,0.2,0.17,352.8,352.8,0.0,0.0
1630619997.20017123,96628833,0.23,0.22,0.2,0.19,352.8,352.8,0.0,0.0
1630619997.30013108,96728793,0.22,0.22,0.19,0.18,352.8,352.8,0.0,0.0
1630619997.40009117,96828753,0.21,0.21,0.17,0.16,352.8,352.8,0.0,0.0
1630619997.50005126,96928713,0.17,0.18,0.18,0.16,352.8,352.8,0.0,0.0
1630619997.60001111,97028673,0.13,0.14,0.17,0.17,352.8,352.8,0.0,0.0
1630619997.69997120,97128633,0.11,0.11,0.17,0.17,352.8,352.8,0.0,0.0
1630619997.79993129,97228593,0.11,0.09,0.16,0.16,352.8,352.8,0.0,0.0
1630619997.89989114,97328553,0.12,0.1,0.17,0.16,352.8,352.8,0.0,0.0
1630619997.99985123,97428513,0.11,0.1,0.18,0.16,352.8,352.8,0.0,0.0
1630619998.09981108,97528473,0.1,0.1,0.18,0.16,352.8,352.8,0.0,0.0
1630619998.19977117,97628433,0.11,0.09,0.18,0.16,352.8,352.8,0.0,0.0
1630619998.29973125,97728393,0.12,0.1,0.19,0.17,352.8,352.8,0.0,0.0
1630619998.39969110,97828353,0.12,0.11,0.18,0.18,352.8,352.8,0.0,0.0
1630619998.49965119,97928313,0.12,0.11,0.15,0.15,352.8,352.8,0.0,0.0
1630619998.59961128,98028273,0.14,0.12,0.12,0.11,352.8,352.8,0.0,0.0
1630619998.69957113,98128233,0.16,0.14,0.12,0.09,352.8,352.8,0.0,0.0
1630619998.79953122,98228193,0.14,0.16,0.14,0.09,352.8,352.8,0.0,0.0
1630619998.90032411,98328986,0.14,0.15,0.14,0.11,352.8,352.8,0.0,0.0
1630619999.00028419,98428946,0.14,0.15,0.17,0.13,352.8,352.8,0.0,0.0
1630619999.10024428,98528906,0.13,0.14,0.2,0.16,352.8,352.8,0.0,0.0
1630619999.20020413,98628866,0.13,0.13,0.19,0.18,352.8,352.8,0.0,0.0
1630619999.30016422,98728826,0.13,0.12,0.18,0.19,352.8,352.8,0.0,0.0
1630619999.40012407,98828786,0.12,0.11,0.17,0.18,352.8,352.8,0.0,0.0
1630619999.50008416,98928746,0.13,0.1,0.15,0.17,352.8,352.8,0.0,0.0
1630619999.60004425,99028706,0.15,0.11,0.13,0.14,352.8,352.8,0.0,0.0
1630619999.70000410,99128666,0.14,0.12,0.11,0.11,352.8,352.8,0.0,0.0
1630619999.79996419,99228626,0.16,0.14,0.11,0.1,352.8,352.8,0.0,0.0
1630619999.89992428,99328586,0.16,0.16,0.13,0.11,352.8,352.8,0.0,0.0
1630619999.99988413,99428546,0.16,0.16,0.14,0.13,352.8,352.8,0.0,0.0
1630620000.09984422,99528506,0.18,0.17,0.12,0.13,352.8,352.8,0.0,0.0
1630620000.19980407,99628466,0.19,0.19,0.12,0.11,352.8,352.8,0.0,0.0
1630620000.29976416,99728426,0.2,0.2,0.13,0.11,352.8,352.8,0.0,0.0
1630620000.39972425,99828386,0.21,0.21,0.15,0.12,352.8,352.8,0.0,0.0
1630620000.49968410,99928346,0.2,0.21,0.16,0.14,352.8,352.8,0.0,0.0
1630620000.59964418,100028306,0.17,0.19,0.15,0.15,352.8,352.8,0.0,0.0
1630620000.69960427,100128266,0.14,0.16,0.14,0.16,352.8,352.8,0.0,0.0
1630620000.79956412,100228226,0.13,0.12,0.12,0.15,352.8,352.8,0.0,0.0
1630620000.89952421,100328186,0.14,0.11,0.11,0.13,352.8,352.8,0.0,0.0
1630620001.00031710,100428979,0.14,0.11,0.12,0.12,352.8,352.8,0.0,0.0
1630620001.10027719,100528939,0.14,0.13,0.15,0.13,352.8,352.8,0.0,0.0
1630620001.20023727,100628899,0.13,0.13,0.18,0.16,352.8,352.8,0.0,0.0
1630620001.30019712,100728859,0.12,0.12,0.17,0.18,352.8,352.81,0.0,0.0
1630620001.40015721,100828819,0.13,0.12,0.14,0.16,352.8,352.81,0.0,0.0
1630620001.50011706,100928779,0.15,0.13,0.13,0.15,352.8,352.81,0.0,0.0
1630620001.60007715,101028739,0.14,0.13,0.13,0.13,352.8,352.81,0.0,0.0
1630620001.70003724,101128699,0.11,0.11,0.13,0.12,352.8,352.81,0.0,0.0
1630620001.79999709,101228659,0.13,0.11,0.15,0.14,352.8,352.81,0.0,0.0
1630620001.89995718,101328619,0.16,0.13,0.15,0.15,352.8,352.8,0.0,0.0
1630620001.99991727,101428579,0.16,0.15,0.14,0.15,352.8,352.8,0.0,0.0
1630620002.09987712,101528539,0.14,0.15,0.14,0.15,352.8,352.8,0.0,0.0
1630620002.19983721,101628499,0.1,0.11,0.13,0.13,352.8,352.8,0.0,0.0
1630620002.29979706,101728459,0.1,0.08,0.14,0.12,352.8,352.8,0.0,0.0
1630620002.39975715,101828419,0.11,0.08,0.18,0.14,352.8,352.8,0.0,0.0
1630620002.49971724,101928379,0.15,0.1,0.23,0.19,352.8,352.8,0.0,0.0
1630620002.59967709,102028339,0.18,0.13,0.24,0.24,352.8,352.8,0.0,0.0
1630620002.69963717,102128299,0.19,0.17,0.22,0.25,352.8,352.8,0.0,0.0
1630620002.79959726,102228259,0.19,0.18,0.18,0.21,352.8,352.8,0.0,0.0
1630620002.89955711,102328219,0.18,0.18,0.15,0.16,352.8,352.8,0.0,0.0
1630620002.99951720,102428179,0.15,0.16,0.12,0.12,352.8,352.8,0.0,0.0
1630620003.10031009,102528972,0.12,0.13,0.12,0.09,352.8,352.8,0.0,0.0
1630620003.20027018,102628932,0.1,0.09,0.15,0.1,352.8,352.8,0.0,0.0
1630620003.30023026,102728892,0.1,0.08,0.16,0.12,352.8,352.8,0.0,0.0
1630620003.40019011,102828852,0.12,0.08,0.17,0.14,352.8,352.8,0.0,0.0
1630620003.50015020,102928812,0.17,0.12,0.18,0.16,352.8,352.8,0.0,0.0
1630620003.60011029,103028772,0.2,0.17,0.16,0.17,352.8,352.8,0.0,0.0
1630620003.70007014,103128732,0.22,0.21,0.14,0.17,352.8,352.8,0.0,0.0
1630620003.80003023,103228692,0.24,0.24,0.13,0.15,352.8,352.8,0.0,0.0
1630620003.89999008,103328652,0.23,0.25,0.14,0.14,352.8,352.8,0.0,0.0
1630620003.99995017,103428612,0.24,0.25,0.15,0.13,352.8,352.8,0.0,0.0
1630620004.09991026,103528572,0.26,0.25,0.17,0.15,352.8,352.8,0.0,0.0
1630620004.19987011,103628532,0.25,0.25,0.17,0.15,352.8,352.8,0.0,0.0
1630620004.29983020,103728492,0.22,0.22,0.19,0.17,352.8,352.8,0.0,0.0
1630620004.39979029,103828452,0.21,0.2,0.21,0.19,352.8,352.8,0.0,0.0
1630620004.49975014,103928412,0.22,0.2,0.24,0.22,352.8,352.8,0.0,0.0
1630620004.59971023,104028372,0.22,0.2,0.24,0.24,352.8,352.8,0.0,0.0
1630620004.69967008,104128332,0.23,0.21,0.23,0.23,352.8,352.8,0.0,0.0
1630620004.79963017,104228292,0.23,0.22,0.22,0.22,352.8,352.81,0.0,0.0
1630620004.89959025,104328252,0.23,0.23,0.2,0.2,352.8,352.81,0.0,0.0
1630620004.99955010,104428212,0.23,0.23,0.18,0.18,352.8,352.81,0.0,0.0
1630620005.09951019,104528172,0.23,0.23,0.18,0.17,352.8,352.8,0.0,0.0
1630620005.20030308,104628965,0.2,0.2,0.2,0.17,352.8,352.8,0.0,0.0
1630620005.30026317,104728925,0.19,0.18,0.22,0.19,352.8,352.8,0.0,0.0
1630620005.40022326,104828885,0.17,0.17,0.21,0.19,352.8,352.8,0.0,0.0
1630620005.50018311,104928845,0.18,0.16,0.19,0.19,352.8,352.8,0.0,0.0
1630620005.60014319,105028805,0.22,0.19,0.18,0.17,352.8,352.8,0.0,0.0
1630620005.70010328,105128765,0.26,0.23,0.18,0.16,352.8,352.8,0.0,0.0
1630620005.80006313,105228725,0.28,0.27,0.17,0.16,352.8,352.8,0.0,0.0
1630620005.90002322,105328685,0.26,0.28,0.17,0.16,352.8,352.79,0.0,0.0
1630620005.99998307,105428645,0.22,0.24,0.16,0.14,352.8,352.79,0.0,0.0
1630620006.09994316,105528605,0.19,0.2,0.14,0.14,352.8,352.79,0.0,0.0
1630620006.19990325,105628565,0.19,0.17,0.12,0.11,352.8,352.79,0.0,0.0
1630620006.29986310,105728525,0.21,0.17,0.14,0.11,352.8,352.79,0.0,0.0
1630620006.39982319,105828485,0.24,0.2,0.16,0.13,352.8,352.79,0.0,0.0
1630620006.49978328,105928445,0.24,0.23,0.19,0.17,352.8,352.79,0.0,0.0
1630620006.59974313,106028405,0.22,0.23,0.2,0.19,352.8,352.8,0.0,0.0
1630620006.69970322,106128365,0.21,0.21,0.18,0.19,352.8,352.8,0.0,0.0
1630620006.79966307,106228325,0.2,0.19,0.13,0.15,352.8,352.8,0.0,0.0
1630620006.89962316,106328285,0.19,0.18,0.11,0.11,352.8,352.8,0.0,0.0
1630620006.99958324,106428245,0.19,0.18,0.1,0.09,352.8,352.8,0.0,0.0
1630620007.09954309,106528205,0.19,0.19,0.11,0.09,352.8,352.8,0.0,0.0
1630620007.19950318,106628165,0.19,0.19,0.14,0.11,352.8,352.8,0.0,0.0
1630620007.30029607,106728958,0.19,0.19,0.19,0.16,352.8,352.8,0.0,0.0
1630620007.40025616,106828918,0.2,0.19,0.22,0.2,352.8,352.8,0.0,0.0
1630620007.50021625,106928878,0.19,0.19,0.22,0.23,352.8,352.8,0.0,0.0
1630620007.60017610,107028838,0.18,0.18,0.18,0.21,352.8,352.8,0.0,0.0
1630620007.70013618,107128798,0.16,0.16,0.15,0.17,352.8,352.8,0.0,0.0
1630620007.80009627,107228758,0.15,0.13,0.12,0.12,352.8,352.8,0.0,0.0
1630620007.90005612,107328718,0.13,0.12,0.12,0.1,352.8,352.8,0.0,0.0
1630620008.00001621,107428678,0.1,0.09,0.14,0.11,352.8,352.8,0.0,0.0
1630620008.09997606,107528638,0.09,0.06,0.12,0.11,352.8,352.8,0.0,0.0
1630620008.19993615,107628598,0.31,0.16,0.13,0.1,352.8,352.8,0.0,0.0
1630620008.29989624,107728558,0.8,0.52,0.14,0.11,352.8,352.8,0.0,0.0
1630620008.39985609,107828518,1.52,1.18,0.17,0.14,352.8,352.8,0.0,0.0
1630620008.49981618,107928478,2.4,2.07,0.21,0.17,352.8,352.8,0.0,0.0
1630620008.59977627,108028438,3.36,3.11,0.22,0.2,352.8,352.8,0.0,0.0
1630620008.69973612,108128398,4.29,4.19,0.22,0.22,352.8,352.79,0.0,0.01
1630620008.79969621,108228358,5.02,5.12,0.22,0.22,352.8,352.79,0.0,0.01
1630620008.89965630,108328318,5.56,5.8,0.23,0.22,352.8,352.79,0.0,0.01
1630620008.99961615,108428278,6.05,6.3,0.23,0.22,352.8,352.8,0.0,0.01
1630620009.09957623,108528238,6.5,6.71,0.23,0.22,352.8,352.8,0.0,0.01
1630620009.19953609,108628198,6.95,7.09,0.25,0.23,352.8,352.8,0.0,0.01
1630620009.29949617,108728158,7.38,7.47,0.28,0.26,352.8,352.81,0.0,0.01
1630620009.40028906,108828951,7.73,7.82,0.31,0.29,352.8,352.82,0.0,0.01
1630620009.50024915,108928911,7.99,8.09,0.33,0.33,352.8,352.82,0.0,0.01
1630620009.60020924,109028871,8.18,8.28,0.34,0.34,352.8,352.82,0.0,0.0
1630620009.70016909,109128831,8.37,8.44,0.33,0.34,352.8,352.82,0.0,0.0
1630620009.80012918,109228791,8.57,8.59,0.32,0.33,352.8,352.82,0.0,0.0
1630620009.90008926,109328751,8.81,8.78,0.29,0.33,353.4,352.82,0.0,0.0
1630620010.00004911,109428711,9.15,9.04,0.25,0.54,356.57,353.04,0.0,0.0
1630620010.10000920,109528671,9.55,9.42,0.14,1.04,2.18,354.11,0.0,0.0
1630620010.19996929,109628631,9.99,9.92,-0.18,1.44,8.18,356.69,0.0,0.01
1630620010.29992914,109728591,10.38,10.48,-0.94,1.3,14.18,0.91,0.0,0.01
1630620010.39988923,109828551,10.62,10.93,-2.21,0.38,20.18,6.61,0.0,0.02
1630620010.49984908,109928511,10.6,11.14,-3.89,-1.26,26.18,13.46,0.0,0.03
1630620010.59980917,110028471,10.26,10.96,-5.78,-3.47,32.19,21.2,0.0,0.03
1630620010.69976926,110128431,9.58,10.32,-7.7,-5.95,38.19,29.57,0.0,0.04
1630620010.79972911,110228391,8.57,9.18,-9.5,-8.43,44.19,38.33,0.0,0.04
1630620010.89968920,110328351,7.26,7.58,-11.04,-10.62,50.19,47.24,0.0,0.05
1630620010.99964929,110428311,5.75,5.63,-12.25,-12.34,56.19,55.99,0.0,0.05
1630620011.09960914,110528271,4.16,3.54,-13.16,-13.52,62.19,64.29,0.0,0.05
1630620011.19956923,110628231,2.56,1.52,-13.84,-14.21,68.19,71.94,0.0,0.05
1630620011.29952908,110728191,1.03,-0.27,-14.31,-14.54,74.12,78.81,0.0,0.05
1630620011.40032220,110828984,-0.39,-1.99,-14.61,-14.66,78.2,84.88,0.0,0.05
1630620011.50028229,110928944,-1.66,-3.78,-14.75,-14.62,80.3,89.84,0.0,0.04
1630620011.60024214,111028904,-2.61,-5.39,-14.79,-14.44,81.4,93.32,0.0,0.04
1630620011.70020223,111128864,-3.1,-6.41,-14.88,-14.26,82.0,95.17,0.0,0.03
1630620011.80016208,111228824,-3.07,-6.65,-15.03,-14.19,82.37,95.54,0.0,0.02
1630620011.90012217,111328784,-2.61,-6.09,-15.28,-14.31,82.65,94.67,0.0,0.02
1630620012.00008225,111428744,-1.85,-4.87,-15.56,-14.6,82.88,92.87,0.0,0.02
1630620012.10004210,111528704,-1.0,-3.23,-15.84,-15.01,83.11,90.47,0.0,0.02
1630620012.20000219,111628664,-0.15,-1.45,-16.08,-15.47,83.33,87.77,0.0,0.01
1630620012.29996228,111728624,0.59,0.25,-16.22,-15.84,83.55,85.1,0.0,0.01
1630620012.39992213,111828584,1.17,1.69,-16.29,-16.08,83.74,82.77,0.0,0.01
1630620012.49988222,111928544,1.5,2.7,-16.3,-16.18,83.91,81.01,0.0,0.01
1630620012.59984207,112028504,1.6,3.2,-16.31,-16.2,84.05,79.93,0.0,0.01
1630620012.69980216,112128464,1.51,3.25,-16.33,-16.19,84.16,79.55,0.0,0.01
1630620012.79976225,112228424,1.31,2.92,-16.35,-16.2,84.24,79.81,0.0,0.01
1630620012.89972210,112328384,1.01,2.33,-16.37,-16.23,84.29,80.54,0.0,0.01
1630620012.99968219,112428344,0.67,1.59,-16.44,-16.29,84.32,81.6,0.0,0.01
1630620013.09964228,112528304,0.33,0.8,-16.54,-16.4,84.33,82.81,0.0,0.01
1630620013.19960213,112628264,0.01,0.06,-16.63,-16.53,84.34,84.0,0.0,0.01
1630620013.29956222,112728224,-0.23,-0.55,-16.69,-16.63,84.33,85.03,0.0,0.0
1630620013.39952207,112828184,-0.38,-0.99,-16.72,-16.7,84.33,85.82,0.0,0.0
1630620013.50031519,112928977,-0.44,-1.22,-16.74,-16.74,84.32,86.32,0.0,0.0
1630620013.60027528,113028937,-0.4,-1.24,-16.75,-16.75,84.32,86.51,0.0,0.0
1630620013.70023513,113128897,-0.3,-1.09,-16.78,-16.76,84.33,86.44,0.0,0.0
1630620013.80019522,113228857,-0.16,-0.83,-16.81,-16.78,84.34,86.16,0.0,0.0
1630620013.90015507,113328817,-0.02,-0.5,-16.84,-16.81,84.35,85.73,0.0,0.0
1630620014.00011516,113428777,0.09,-0.18,-16.87,-16.84,84.37,85.24,0.0,0.0
1630620014.10007524,113528737,0.19,0.09,-16.92,-16.89,84.38,84.75,0.0,0.0
1630620014.20003510,113628697,0.27,0.32,-16.94,-16.93,84.39,84.32,0.0,0.0
1630620014.29999518,113728657,0.32,0.48,-16.95,-16.95,84.4,83.99,0.0,0.0
1630620014.39995527,113828617,0.37,0.59,-16.97,-16.97,84.41,83.78,0.0,0.0
1630620014.49991512,113928577,0.4,0.64,-16.99,-16.98,84.41,83.68,0.0,0.0
1630620014.59987521,114028537,0.39,0.63,-17.01,-17.0,84.41,83.7,0.0,0.0
1630620014.69983506,114128497,0.33,0.55,-17.06,-17.03,84.4,83.81,0.0,0.0
1630620014.79979515,114228457,0.28,0.43,-17.12,-17.09,84.4,83.98,0.0,0.0
1630620014.89975524,114328417,0.23,0.31,-17.17,-17.16,84.39,84.18,0.0,0.0
1630620014.99971509,114428377,0.18,0.18,-17.22,-17.21,84.38,84.37,0.0,0.0
1630620015.09967518,114528337,0.14,0.07,-17.27,-17.28,84.37,84.55,0.0,0.0
1630620015.19963527,114628297,0.1,-0.01,-17.3,-17.32,84.35,84.68,0.0,0.0
1630620015.29959512,114728257,0.08,-0.06,-17.32,-17.34,84.34,84.76,0.0,0.0
1630620015.39955521,114828217,0.05,-0.1,-17.32,-17.35,84.33,84.79,0.0,0.0
1630620015.49951530,114928177,0.04,-0.1,-17.32,-17.34,84.31,84.76,0.0,0.0
1630620015.60030818,115028970,0.06,-0.08,-17.32,-17.33,84.3,84.7,0.0,0.0
1630620015.70026827,115128930,0.09,-0.03,-17.34,-17.34,84.29,84.62,0.0,0.0
1630620015.80022812,115228890,0.12,0.02,-17.37,-17.36,84.27,84.52,0.0,0.0
1630620015.90018821,115328850,0.18,0.1,-17.4,-17.39,84.26,84.41,0.0,0.0
1630620016.00014806,115428810,0.22,0.17,-17.43,-17.43,84.25,84.32,0.0,0.0
1630620016.10010815,115528770,0.25,0.24,-17.46,-17.46,84.24,84.24,0.0,0.0
1630620016.20006824,115628730,0.23,0.26,-17.48,-17.49,84.23,84.19,0.0,0.0
1630620016.30002809,115728690,0.21,0.25,-17.48,-17.51,84.22,84.16,0.0,0.0
1630620016.39998817,115828650,0.2,0.23,-17.49,-17.5,84.2,84.15,0.0,0.0
1630620016.49994826,115928610,0.22,0.22,-17.51,-17.51,84.19,84.15,0.0,0.0
1630620016.59990811,116028570,0.22,0.21,-17.53,-17.54,84.18,84.17,0.0,0.0
1630620016.69986820,116128530,0.18,0.18,-17.58,-17.57,84.17,84.2,0.0,0.0
1630620016.79982829,116228490,0.18,0.16,-17.62,-17.61,84.15,84.22,0.0,0.0
1630620016.89978814,116328450,0.17,0.14,-17.63,-17.65,84.14,84.24,0.0,0.0
1630620016.99974823,116428410,0.14,0.11,-17.62,-17.65,84.13,84.26,0.0,0.0
1630620017.09970808,116528370,0.12,0.08,-17.64,-17.65,84.11,84.26,0.0,0.0
1630620017.19966817,116628330,0.14,0.07,-17.65,-17.67,84.1,84.25,0.0,0.0
1630620017.29962826,116728290,0.17,0.09,-17.65,-17.68,84.09,84.24,0.0,0.0
1630620017.39958811,116828250,0.17,0.11,-17.65,-17.68,84.08,84.21,0.0,0.0
1630620017.49954820,116928210,0.19,0.13,-17.65,-17.67,84.07,84.19,0.0,0.0
1630620017.59950829,117028170,0.2,0.16,-17.68,-17.68,84.06,84.16,0.0,0.0
1630620017.70030117,117128963,0.22,0.19,-17.68,-17.68,84.05,84.13,0.0,0.0
1630620017.80026126,117228923,0.23,0.21,-17.7,-17.69,84.04,84.1,0.0,0.0
1630620017.90022111,117328883,0.23,0.23,-17.74,-17.72,84.03,84.08,0.0,0.0
1630620018.00018120,117428843,0.24,0.23,-17.79,-17.77,84.02,84.07,0.0,0.0
1630620018.10014129,117528803,0.22,0.22,-17.77,-17.79,84.01,84.06,0.0,0.0
1630620018.20010114,117628763,0.21,0.2,-17.77,-17.78,84.0,84.05,0.0,0.0
1630620018.30006123,117728723,0.2,0.18,-17.77,-17.77,84.0,84.05,0.0,0.0
1630620018.40002108,117828683,0.19,0.16,-17.79,-17.78,83.99,84.05,0.0,0.0
1630620018.49998116,117928643,0.18,0.15,-17.82,-17.81,83.98,84.05,0.0,0.0
1630620018.59994125,118028603,0.19,0.15,-17.84,-17.85,83.97,84.04,0.0,0.0
1630620018.69990110,118128563,0.19,0.15,-17.83,-17.86,83.97,84.04,0.0,0.0
1630620018.79986119,118228523,0.21,0.17,-17.82,-17.85,83.96,84.03,0.0,0.0
1630620018.89982128,118328483,0.23,0.19,-17.8,-17.83,83.96,84.03,0.0,0.0
1630620018.99978113,118428443,0.25,0.22,-17.81,-17.82,83.95,84.02,0.0,0.0
1630620019.09974122,118528403,0.24,0.24,-17.84,-17.82,83.95,84.01,0.0,0.0
1630620019.19970107,118628363,0.23,0.22,-17.88,-17.87,83.94,84.01,0.0,0.0
1630620019.29966116,118728323,0.21,0.2,-17.89,-17.9,83.94,84.0,0.0,0.0
1630620019.39962125,118828283,0.19,0.17,-17.89,-17.91,83.94,84.0,0.0,0.0
1630620019.49958110,118928243,0.19,0.16,-17.91,-17.92,83.93,83.99,0.0,0.0
1630620019.59954119,119028203,0.18,0.16,-17.93,-17.93,83.93,83.99,0.0,0.0
1630620019.69950128,119128163,0.15,0.14,-17.96,-17.95,83.92,83.98,0.0,0.0
1630620019.80029416,119228956,0.13,0.11,-17.97,-17.97,83.91,83.98,0.0,0.0
1630620019.90025425,119328916,0.15,0.1,-17.93,-17.96,83.91,83.98,0.0,0.0
1630620020.00021410,119428876,0.2,0.14,-17.9,-17.93,83.91,83.97,0.0,0.0
1630620020.10017419,119528836,0.25,0.21,-17.92,-17.92,83.9,83.97,0.0,0.0
1630620020.20013428,119628796,0.26,0.24,-17.95,-17.94,83.9,83.96,0.0,0.0
1630620020.30009413,119728756,0.26,0.25,-17.95,-17.96,83.9,83.96,0.0,0.0
1630620020.40005422,119828716,0.26,0.25,-17.92,-17.95,83.9,83.95,0.0,0.0
1630620020.50001407,119928676,0.27,0.25,-17.91,-17.93,83.9,83.95,0.0,0.0
1630620020.59997416,120028636,0.28,0.25,-17.92,-17.92,83.9,83.95,0.0,0.0
1630620020.69993424,120128596,0.28,0.25,-17.95,-17.93,83.9,83.94,0.0,0.0
1630620020.79989409,120228556,0.27,0.25,-17.99,-17.96,83.9,83.94,0.0,0.0
1630620020.89985418,120328516,0.26,0.24,-18.02,-18.01,83.9,83.94,0.0,0.0
1630620020.99981427,120428476,0.28,0.25,-18.02,-18.04,83.9,83.95,0.0,0.0
1630620021.09977412,120528436,0.31,0.27,-18.0,-18.03,83.9,83.95,0.0,0.0
1630620021.19973421,120628396,0.33,0.3,-17.99,-18.01,83.9,83.95,0.0,0.0
1630620021.29969406,120728356,0.32,0.31,-18.01,-18.01,83.91,83.95,0.0,0.0
1630620021.39965415,120828316,0.3,0.31,-18.03,-18.03,83.91,83.96,0.0,0.0
1630620021.49961424,120928276,0.29,0.29,-18.03,-18.04,83.91,83.96,0.0,0.0
1630620021.59957409,121028236,0.31,0.29,-18.04,-18.05,83.91,83.97,0.0,0.0
1630620021.69953418,121128196,0.29,0.28,-18.04,-18.06,83.91,83.97,0.0,0.0
1630620021.79949427,121228156,0.27,0.26,-18.02,-18.06,83.91,83.97,0.0,0.0
1630620021.90028715,121328949,0.25,0.23,-18.01,-18.05,83.92,83.98,0.0,0.0
1630620022.00024724,121428909,0.25,0.21,-18.0,-18.03,83.92,83.98,0.0,0.0
1630620022.10020709,121528869,0.27,0.22,-18.01,-18.02,83.92,83.98,0.0,0.0
1630620022.20016718,121628829,0.31,0.24,-18.02,-18.02,83.92,83.98,0.0,0.0
1630620022.30012727,121728789,0.35,0.29,-18.04,-18.03,83.93,83.98,0.0,0.0
1630620022.40008712,121828749,0.37,0.34,-18.06,-18.05,83.93,83.98,0.0,0.0
1630620022.50004721,121928709,0.36,0.35,-18.08,-18.07,83.94,83.98,0.0,0.0
1630620022.60000730,122028669,0.35,0.35,-18.11,-18.1,83.94,83.98,0.0,0.0
1630620022.69996715,122128629,0.33,0.34,-18.13,-18.14,83.95,83.99,0.0,0.0
1630620022.79992723,122228589,0.29,0.3,-18.14,-18.16,83.95,83.99,0.0,0.0
1630620022.89988708,122328549,0.28,0.27,-18.14,-18.16,83.95,84.0,0.0,0.0
1630620022.99984717,122428509,0.31,0.27,-18.11,-18.15,83.95,84.0,0.0,0.0
1630620023.09980726,122528469,0.34,0.29,-18.07,-18.11,83.95,84.0,0.0,0.0
1630620023.19976711,122628429,0.36,0.33,-18.07,-18.07,83.96,84.01,0.0,0.0
1630620023.29972720,122728389,0.36,0.34,-18.09,-18.07,83.96,84.01,0.0,0.0
1630620023.39968729,122828349,0.34,0.34,-18.13,-18.11,83.96,84.01,0.0,0.0
1630620023.49964714,122928309,0.3,0.32,-18.16,-18.15,83.96,84.01,0.0,0.0
1630620023.59960723,123028269,0.25,0.27,-18.17,-18.17,83.96,84.01,0.0,0.0
1630620023.69956708,123128229,0.27,0.23,-18.16,-18.19,83.96,84.01,0.0,0.0
1630620023.79952717,123228189,0.3,0.25,-18.14,-18.18,83.96,84.0,0.0,0.0
1630620023.90032029,123328982,0.33,0.29,-18.15,-18.16,83.96,84.0,0.0,0.0
1630620024.00028014,123428942,0.35,0.32,-18.15,-18.16,83.96,84.0,0.0,0.0
1630620024.10024023,123528902,0.38,0.34,-18.15,-18.16,83.96,83.99,0.0,0.0
1630620024.20020008,123628862,0.42,0.38,-18.16,-18.17,83.96,83.99,0.0,0.0
1630620024.30016017,123728822,0.42,0.4,-18.16,-18.17,83.96,83.99,0.0,0.0
1630620024.40012026,123828782,0.39,0.39,-18.15,-18.17,83.96,84.0,0.0,0.0
1630620024.50008011,123928742,0.36,0.36,-18.14,-18.17,83.96,84.0,0.0,0.0
1630620024.60004020,124028702,0.33,0.33,-18.14,-18.16,83.97,84.0,0.0,0.0
1630620024.70000029,124128662,0.33,0.31,-18.12,-18.15,83.96,84.01,0.0,0.0
1630620024.79996014,124228622,0.34,0.31,-18.13,-18.15,83.96,84.01,0.0,0.0
1630620024.89992023,124328582,0.35,0.32,-18.16,-18.16,83.96,84.01,0.0,0.0
1630620024.99988008,124428542,0.34,0.32,-18.16,-18.17,83.96,84.01,0.0,0.0
1630620025.09984016,124528502,0.35,0.32,-18.14,-18.17,83.96,84.01,0.0,0.0
1630620025.19980025,124628462,0.37,0.33,-18.13,-18.15,83.96,84.01,0.0,0.0
1630620025.29976010,124728422,0.39,0.35,-18.11,-18.13,83.96,84.0,0.0,0.0
1630620025.39972019,124828382,0.44,0.39,-18.11,-18.11,83.97,84.0,0.0,0.0
1630620025.49968028,124928342,0.46,0.44,-18.1,-18.1,83.97,84.0,0.0,0.0
1630620025.59964013,125028302,0.45,0.46,-18.11,-18.1,83.97,84.0,0.0,0.0
1630620025.69960022,125128262,0.44,0.46,-18.11,-18.11,83.97,84.0,0.0,0.0
1630620025.79956007,125228222,0.43,0.44,-18.13,-18.12,83.98,84.0,0.0,0.0
1630620025.89952016,125328182,0.4,0.42,-18.14,-18.14,83.98,84.0,0.0,0.0
1630620026.00031328,125428975,0.38,0.38,-18.13,-18.14,83.98,84.01,0.0,0.0
1630620026.10027313,125528935,0.37,0.35,-18.11,-18.13,83.98,84.01,0.0,0.0
1630620026.20023322,125628895,0.38,0.35,-18.1,-18.12,83.98,84.01,0.0,0.0
1630620026.30019307,125728855,0.42,0.38,-18.09,-18.11,83.98,84.02,0.0,0.0
1630620026.40015316,125828815,0.44,0.42,-18.08,-18.11,83.98,84.02,0.0,0.0
1630620026.50011325,125928775,0.44,0.43,-18.1,-18.11,83.98,84.02,0.0,0.0
1630620026.60007310,126028735,0.44,0.42,-18.12,-18.11,83.98,84.02,0.0,0.0
