timestamp,TimeUS,DesRoll,Roll,DesPitch,Pitch,DesYaw,Yaw,ErrRP,ErrYaw
1630605387.90003991,63328825,0.0,0.11,0.0,0.09,352.94,352.95,0.0,0.0
1630605388.00000000,63428785,0.0,0.11,0.0,0.09,352.94,352.95,0.0,0.0
1630605388.09995985,63528745,0.0,0.11,0.0,0.09,352.94,352.95,0.0,0.0
1630605388.19991994,63628705,0.0,0.11,0.0,0.09,352.94,352.95,0.0,0.0
1630605388.29988003,63728665,0.0,0.11,0.0,0.09,352.94,352.95,0.0,0.0
1630605388.39983988,63828625,0.0,0.11,0.0,0.09,352.94,352.95,0.0,0.0
1630605388.49979997,63928585,0.0,0.11,0.0,0.09,352.94,352.95,0.0,0.0
1630605388.59975982,64028545,0.0,0.11,0.0,0.09,352.94,352.95,0.0,0.0
1630605388.69971991,64128505,0.0,0.11,0.0,0.09,352.94,352.95,0.0,0.0
1630605388.79967999,64228465,0.0,0.11,0.0,0.09,352.94,352.95,0.0,0.0
1630605388.89963984,64328425,0.0,0.11,0.0,0.09,352.94,352.95,0.0,0.0
1630605388.99959993,64428385,0.0,0.11,0.0,0.09,352.94,352.95,0.0,0.0
1630605389.09956002,64528345,0.0,0.11,0.0,0.09,352.94,352.95,0.0,0.0
1630605389.19951987,64628305,0.0,0.11,0.0,0.09,352.94,352.95,0.0,0.0
1630605389.29947996,64728265,0.0,0.11,0.0,0.1,352.94,352.95,0.0,0.0
1630605389.39943981,64828225,0.0,0.11,0.0,0.09,352.95,352.96,0.0,0.0
1630605389.49939990,64928185,0.0,0.11,0.0,0.1,352.95,352.96,0.0,0.0
1630605389.60019302,65028978,0.0,0.11,0.0,0.1,352.95,352.96,0.0,0.0
1630605389.70015287,65128938,0.0,0.11,0.0,0.1,352.95,352.96,0.0,0.0
1630605389.80011296,65228898,0.0,0.11,0.0,0.1,352.95,352.96,0.0,0.0
1630605389.90007281,65328858,0.0,0.11,0.0,0.1,352.95,352.96,0.0,0.0
1630605390.00003290,65428818,0.0,0.11,0.0,0.1,352.95,352.96,0.0,0.0
1630605390.09999299,65528778,0.0,0.11,0.0,0.1,352.95,352.96,0.0,0.0
1630605390.19995284,65628738,0.0,0.11,0.0,0.1,352.95,352.96,0.0,0.0
1630605390.29991293,65728698,0.0,0.11,0.0,0.1,352.95,352.96,0.0,0.0
1630605390.39987302,65828658,0.0,0.11,0.0,0.1,352.95,352.96,0.0,0.0
1630605390.49983287,65928618,0.0,0.11,0.0,0.1,352.95,352.96,0.0,0.0
1630605390.59979296,66028578,0.0,0.11,0.0,0.1,352.95,352.96,0.0,0.0
1630605390.69975281,66128538,0.0,0.11,0.0,0.1,352.95,352.96,0.0,0.0
1630605390.79971290,66228498,0.0,0.11,0.0,0.1,352.95,352.96,0.0,0.0
1630605390.89967299,66328458,0.0,0.11,0.0,0.1,352.95,352.96,0.0,0.0
1630605390.99963284,66428418,0.0,0.11,0.0,0.1,352.95,352.96,0.0,0.0
1630605391.09959292,66528378,0.0,0.11,0.0,0.1,352.95,352.96,0.0,0.0
1630605391.19955301,66628338,0.0,0.11,0.0,0.1,352.95,352.96,0.0,0.0
1630605391.29951286,66728298,0.0,0.11,0.0,0.1,352.95,352.96,0.0,0.0
1630605391.39947295,66828258,0.0,0.11,0.0,0.1,352.95,352.96,0.0,0.0
1630605391.49943280,66928218,0.0,0.11,0.0,0.1,352.95,352.96,0.0,0.0
1630605391.59939289,67028178,0.0,0.11,0.0,0.1,352.95,352.96,0.0,0.0
1630605391.70018601,67128971,0.0,0.11,0.0,0.1,352.95,352.96,0.0,0.0
1630605391.80014586,67228931,0.0,0.11,0.0,0.1,352.96,352.97,0.0,0.0
1630605391.90010595,67328891,0.0,0.11,0.0,0.1,352.96,352.97,0.0,0.0
1630605392.00006580,67428851,0.0,0.11,0.0,0.1,352.96,352.97,0.0,0.0
1630605392.10002589,67528811,0.0,0.11,0.0,0.1,352.96,352.97,0.0,0.0
1630605392.19998598,67628771,0.0,0.11,0.0,0.1,352.96,352.97,0.0,0.0
1630605392.29994583,67728731,0.0,0.11,0.0,0.1,352.96,352.97,0.0,0.0
1630605392.39990592,67828691,0.0,0.11,0.0,0.1,352.96,352.97,0.0,0.0
1630605392.49986601,67928651,0.0,0.11,0.0,0.1,352.96,352.97,0.0,0.0
1630605392.59982586,68028611,0.0,0.11,0.0,0.1,352.96,352.97,0.0,0.0
1630605392.69978595,68128571,0.0,0.11,0.0,0.1,352.96,352.97,0.0,0.0
1630605392.79974580,68228531,0.0,0.11,0.0,0.1,352.96,352.97,0.0,0.0
1630605392.89970589,68328491,0.0,0.12,0.0,0.1,352.96,352.97,0.0,0.0
1630605392.99966598,68428451,0.0,0.11,0.0,0.1,352.96,352.97,0.0,0.0
1630605393.09962583,68528411,0.0,0.12,0.0,0.1,352.96,352.97,0.0,0.0
1630605393.19958591,68628371,0.0,0.12,0.0,0.1,352.96,352.97,0.0,0.0
1630605393.29954600,68728331,0.0,0.12,0.0,0.1,352.96,352.97,0.0,0.0
1630605393.39950585,68828291,-0.12,0.12,-0.13,0.1,352.96,352.97,0.0,0.0
1630605393.49946594,68928251,-0.21,0.12,-0.22,0.1,352.96,352.97,0.0,0.0
1630605393.59942603,69028211,-0.27,0.12,-0.28,0.1,352.96,352.97,0.0,0.0
1630605393.69938588,69128171,-0.31,0.12,-0.32,0.1,352.96,352.98,0.0,0.0
1630605393.80017900,69228964,-0.34,0.12,-0.35,0.1,352.96,352.98,0.0,0.0
1630605393.90013885,69328924,-0.37,0.12,-0.36,0.1,352.96,352.98,0.0,0.0
1630605394.00009894,69428884,-0.4,0.12,-0.39,0.11,352.96,352.98,0.0,0.0
1630605394.10005903,69528844,-0.43,0.12,-0.41,0.11,352.96,352.98,0.0,0.0
1630605394.20001888,69628804,-0.44,0.12,-0.42,0.11,352.96,352.98,0.0,0.0
1630605394.29997897,69728764,-0.47,0.12,-0.44,0.11,352.96,352.98,0.0,0.0
1630605394.39993882,69828724,-0.52,0.12,-0.46,0.11,352.96,352.98,0.0,0.0
1630605394.49989891,69928684,-0.55,0.12,-0.46,0.11,352.96,352.98,0.0,0.0
1630605394.59985900,70028644,-0.58,0.12,-0.5,0.11,352.96,352.98,0.0,0.0
1630605394.69981885,70128604,-0.59,0.12,-0.56,0.11,352.96,352.98,0.0,0.0
1630605394.79977894,70228564,-0.57,0.12,-0.58,0.11,352.96,352.98,0.0,0.0
1630605394.89973903,70328524,-0.57,0.1,-0.59,0.09,352.96,352.98,0.0,0.0
1630605394.99969888,70428484,-0.6,-0.2,-0.62,-0.2,352.96,352.98,0.0,0.0
1630605395.09965897,70528444,-0.59,-0.63,-0.61,-0.62,352.96,352.98,0.0,0.0
1630605395.19961882,70628404,-0.48,-0.92,-0.5,-0.91,352.96,352.98,0.0,0.0
1630605395.29957891,70728364,-0.27,-0.96,-0.32,-0.97,352.96,352.98,0.0,0.0
1630605395.39953899,70828324,-0.01,-0.79,-0.09,-0.83,352.96,352.98,0.0,0.0
1630605395.49949884,70928284,0.26,-0.48,0.19,-0.54,352.96,352.97,0.0,0.0
1630605395.59945893,71028244,0.48,-0.14,0.43,-0.19,352.96,352.96,0.0,0.0
1630605395.69941902,71128204,0.59,0.12,0.59,0.11,352.96,352.96,0.0,0.0
1630605395.79937887,71228164,0.6,0.26,0.64,0.3,352.96,352.96,0.0,0.0
1630605395.90017200,71328957,0.58,0.29,0.6,0.36,352.96,352.95,0.0,0.0
1630605396.00013185,71428917,0.55,0.27,0.55,0.33,352.96,352.95,0.0,0.0
1630605396.10009193,71528877,0.55,0.25,0.49,0.27,352.96,352.95,0.0,0.0
1630605396.20005202,71628837,0.54,0.23,0.48,0.22,352.96,352.95,0.0,0.0
1630605396.30001187,71728797,0.57,0.26,0.48,0.21,352.96,352.96,0.0,0.0
1630605396.39997196,71828757,0.61,0.32,0.53,0.24,352.96,352.96,0.0,0.0
1630605396.49993181,71928717,0.6,0.37,0.56,0.3,352.96,352.96,0.0,0.0
1630605396.59989190,72028677,0.56,0.38,0.53,0.34,352.96,352.96,0.0,0.0
1630605396.69985199,72128637,0.52,0.36,0.5,0.34,352.66,352.66,0.0,0.0
1630605396.79981184,72228597,0.48,0.33,0.49,0.32,352.66,352.67,0.0,0.0
1630605396.89977193,72328557,0.45,0.3,0.47,0.32,352.66,352.67,0.0,0.0
1630605396.99973202,72428517,0.44,0.28,0.45,0.32,352.66,352.67,0.0,0.0
1630605397.09969187,72528477,0.43,0.28,0.42,0.31,352.66,352.67,0.0,0.0
1630605397.19965196,72628437,0.4,0.29,0.38,0.29,352.66,352.67,0.0,0.0
1630605397.29961181,72728397,0.32,0.25,0.37,0.27,352.66,352.68,0.0,0.0
1630605397.39957190,72828357,0.24,0.18,0.36,0.26,352.66,352.68,0.0,0.0
1630605397.49953198,72928317,0.2,0.11,0.31,0.23,352.66,352.68,0.0,0.0
1630605397.59949183,73028277,0.22,0.09,0.26,0.18,352.66,352.68,0.0,0.0
1630605397.69945192,73128237,0.23,0.11,0.24,0.16,352.66,352.68,0.0,0.0
1630605397.79941201,73228197,0.23,0.14,0.2,0.14,352.66,352.68,0.0,0.0
1630605397.89937186,73328157,0.22,0.15,0.17,0.1,352.66,352.68,0.0,0.0
1630605398.00016499,73428950,0.22,0.16,0.17,0.09,352.66,352.68,0.0,0.0
1630605398.10012484,73528910,0.21,0.18,0.18,0.1,352.66,352.68,0.0,0.0
1630605398.20008492,73628870,0.19,0.16,0.15,0.1,352.66,352.68,0.0,0.0
1630605398.30004501,73728830,0.21,0.16,0.12,0.08,352.66,352.68,0.0,0.0
1630605398.40000486,73828790,0.22,0.17,0.08,0.04,352.66,352.68,0.0,0.0
1630605398.49996495,73928750,0.21,0.18,0.08,0.04,352.66,352.68,0.0,0.0
1630605398.59992480,74028710,0.17,0.16,0.09,0.04,352.66,352.68,0.0,0.0
1630605398.69988489,74128670,0.17,0.13,0.11,0.06,352.66,352.68,0.0,0.0
1630605398.79984498,74228630,0.17,0.13,0.15,0.09,352.66,352.68,0.0,0.0
1630605398.89980483,74328590,0.17,0.13,0.14,0.11,352.66,352.67,0.0,0.0
1630605398.99976492,74428550,0.16,0.13,0.12,0.11,352.66,352.67,0.0,0.0
1630605399.09972501,74528510,0.15,0.12,0.09,0.09,352.66,352.67,0.0,0.0
1630605399.19968486,74628470,0.15,0.12,0.03,0.05,352.66,352.67,0.0,0.0
1630605399.29964495,74728430,0.16,0.13,0.01,0.01,352.66,352.67,0.0,0.0
1630605399.39960480,74828390,0.17,0.15,0.0,-0.01,352.66,352.67,0.0,0.0
1630605399.49956489,74928350,0.14,0.15,0.0,-0.03,352.66,352.67,0.0,0.0
1630605399.59952497,75028310,0.1,0.11,0.03,-0.01,352.66,352.67,0.0,0.0
1630605399.69948483,75128270,0.1,0.08,0.05,0.01,352.66,352.67,0.0,0.0
1630605399.79944491,75228230,0.14,0.09,0.05,0.04,352.66,352.67,0.0,0.0
1630605399.89940500,75328190,0.16,0.11,0.07,0.06,352.66,352.67,0.0,0.0
1630605400.00019789,75428983,0.2,0.15,0.08,0.08,352.66,352.67,0.0,0.0
1630605400.10015798,75528943,0.24,0.21,0.08,0.09,352.66,352.67,0.0,0.0
1630605400.20011783,75628903,0.24,0.24,0.04,0.06,352.66,352.67,0.0,0.0
1630605400.30007792,75728863,0.19,0.22,0.05,0.04,352.66,352.66,0.0,0.0
1630605400.40003800,75828823,0.16,0.18,0.07,0.04,352.66,352.66,0.0,0.0
1630605400.49999785,75928783,0.17,0.16,0.09,0.07,352.66,352.67,0.0,0.0
1630605400.59995794,76028743,0.2,0.17,0.11,0.09,352.66,352.67,0.0,0.0
1630605400.69991803,76128703,0.19,0.18,0.12,0.11,352.66,352.67,0.0,0.0
1630605400.79987788,76228663,0.19,0.18,0.15,0.14,352.66,352.68,0.0,0.0
1630605400.89983797,76328623,0.21,0.19,0.13,0.15,352.66,352.68,0.0,0.0
1630605400.99979782,76428583,0.25,0.21,0.13,0.14,352.66,352.69,0.0,0.0
1630605401.09975791,76528543,0.27,0.23,0.16,0.15,352.66,352.69,0.0,0.0
1630605401.19971800,76628503,0.27,0.26,0.17,0.16,352.66,352.69,0.0,0.0
1630605401.29967785,76728463,0.26,0.26,0.18,0.17,352.66,352.69,0.0,0.0
1630605401.39963794,76828423,0.23,0.24,0.18,0.16,352.66,352.68,0.0,0.0
1630605401.49959803,76928383,0.19,0.21,0.21,0.18,352.66,352.68,0.0,0.0
1630605401.59955788,77028343,0.17,0.17,0.2,0.18,352.66,352.67,0.0,0.0
1630605401.69951797,77128303,0.19,0.16,0.2,0.18,352.66,352.67,0.0,0.0
1630605401.79947782,77228263,0.23,0.19,0.22,0.19,352.66,352.66,0.0,0.0
1630605401.89943790,77328223,0.28,0.23,0.21,0.19,352.66,352.66,0.0,0.0
1630605401.99939799,77428183,0.27,0.26,0.19,0.18,352.66,352.66,0.0,0.0
1630605402.10019088,77528976,0.23,0.25,0.2,0.18,352.66,352.66,0.0,0.0
1630605402.20015097,77628936,0.19,0.2,0.18,0.19,352.66,352.66,0.0,0.0
1630605402.30011082,77728896,0.18,0.17,0.15,0.16,352.66,352.66,0.0,0.0
1630605402.40007091,77828856,0.2,0.17,0.14,0.13,352.66,352.67,0.0,0.0
1630605402.50003099,77928816,0.2,0.19,0.17,0.14,352.66,352.67,0.0,0.0
1630605402.59999084,78028776,0.21,0.2,0.19,0.17,352.66,352.68,0.0,0.0
1630605402.69995093,78128736,0.21,0.22,0.16,0.17,352.66,352.68,0.0,0.0
1630605402.79991102,78228696,0.19,0.22,0.09,0.12,352.66,352.68,0.0,0.0
1630605402.89987087,78328656,0.15,0.18,0.04,0.05,352.66,352.68,0.0,0.0
1630605402.99983096,78428616,0.13,0.14,0.07,0.03,352.66,352.67,0.0,0.0
1630605403.09979081,78528576,0.12,0.12,0.13,0.06,352.66,352.67,0.0,0.0
1630605403.19975090,78628536,0.12,0.11,0.18,0.12,352.66,352.67,0.0,0.0
1630605403.29971099,78728496,0.1,0.1,0.2,0.18,352.66,352.67,0.0,0.0
1630605403.39967084,78828456,0.08,0.09,0.21,0.22,352.66,352.66,0.0,0.0
1630605403.49963093,78928416,0.08,0.06,0.18,0.23,352.66,352.66,0.0,0.0
1630605403.59959102,79028376,0.07,0.04,0.16,0.21,352.66,352.66,0.0,0.0
1630605403.69955087,79128336,0.09,0.04,0.13,0.17,352.66,352.66,0.0,0.0
1630605403.79951096,79228296,0.11,0.07,0.09,0.12,352.66,352.66,0.0,0.0
1630605403.89947081,79328256,0.08,0.09,0.08,0.07,352.66,352.67,0.0,0.0
1630605403.99943089,79428216,0.06,0.07,0.11,0.06,352.66,352.67,0.0,0.0
1630605404.09939098,79528176,0.05,0.06,0.16,0.1,352.66,352.67,0.0,0.0
1630605404.20018387,79628969,0.07,0.06,0.18,0.15,352.66,352.68,0.0,0.0
1630605404.30014396,79728929,0.1,0.08,0.18,0.17,352.66,352.68,0.0,0.0
1630605404.40010381,79828889,0.1,0.1,0.17,0.18,352.66,352.68,0.0,0.0
1630605404.50006390,79928849,0.06,0.09,0.14,0.15,352.66,352.68,0.0,0.0
1630605404.60002398,80028809,0.02,0.05,0.11,0.12,352.66,352.68,0.0,0.0
1630605404.69998384,80128769,0.01,0.02,0.09,0.09,352.66,352.68,0.0,0.0
1630605404.79994392,80228729,0.04,0.02,0.1,0.08,352.66,352.68,0.0,0.0
1630605404.89990401,80328689,0.07,0.05,0.13,0.11,352.66,352.68,0.0,0.0
1630605404.99986386,80428649,0.09,0.08,0.14,0.13,352.66,352.68,0.0,0.0
1630605405.09982395,80528609,0.11,0.11,0.1,0.12,352.66,352.67,0.0,0.0
1630605405.19978380,80628569,0.13,0.12,0.08,0.09,352.66,352.67,0.0,0.0
1630605405.29974389,80728529,0.15,0.14,0.08,0.08,352.66,352.67,0.0,0.0
1630605405.39970398,80828489,0.14,0.15,0.09,0.07,352.66,352.67,0.0,0.0
1630605405.49966383,80928449,0.12,0.13,0.09,0.07,352.66,352.66,0.0,0.0
1630605405.59962392,81028409,0.12,0.11,0.1,0.08,352.66,352.66,0.0,0.0
1630605405.69958401,81128369,0.12,0.1,0.09,0.08,352.66,352.66,0.0,0.0
1630605405.79954386,81228329,0.12,0.09,0.07,0.06,352.66,352.66,0.0,0.0
1630605405.89950395,81328289,0.12,0.1,0.05,0.05,352.66,352.66,0.0,0.0
1630605405.99946380,81428249,0.13,0.12,0.04,0.04,352.66,352.67,0.0,0.0
1630605406.09942389,81528209,0.15,0.14,0.06,0.06,352.66,352.67,0.0,0.0
1630605406.19938397,81628169,0.17,0.16,0.07,0.07,352.66,352.67,0.0,0.0
1630605406.30017686,81728962,0.16,0.17,0.1,0.08,352.66,352.67,0.0,0.0
1630605406.40013695,81828922,0.16,0.16,0.15,0.11,352.66,352.68,0.0,0.0
1630605406.50009680,81928882,0.15,0.15,0.19,0.15,352.66,352.68,0.0,0.0
1630605406.60005689,82028842,0.17,0.16,0.22,0.19,352.66,352.68,0.0,0.0
1630605406.70001698,82128802,0.15,0.16,0.22,0.22,352.66,352.67,0.0,0.0
1630605406.79997683,82228762,0.1,0.12,0.18,0.2,352.66,352.67,0.0,0.0
1630605406.89993691,82328722,0.1,0.09,0.15,0.17,352.66,352.67,0.0,0.0
1630605406.99989700,82428682,0.11,0.09,0.16,0.13,352.66,352.67,0.0,0.0
1630605407.09985685,82528642,0.12,0.1,0.19,0.15,352.66,352.67,0.0,0.0
1630605407.19981694,82628602,0.15,0.12,0.2,0.17,352.66,352.67,0.0,0.0
1630605407.29977703,82728562,0.17,0.15,0.22,0.2,352.66,352.67,0.0,0.0
1630605407.39973688,82828522,0.18,0.17,0.19,0.21,352.66,352.67,0.0,0.0
1630605407.49969697,82928482,0.19,0.18,0.16,0.18,352.66,352.67,0.0,0.0
1630605407.59965682,83028442,0.18,0.18,0.15,0.15,352.66,352.67,0.0,0.0
1630605407.69961691,83128402,0.14,0.15,0.14,0.14,352.66,352.67,0.0,0.0
1630605407.79957700,83228362,0.11,0.11,0.15,0.13,352.66,352.68,0.0,0.0
1630605407.89953685,83328322,0.12,0.09,0.16,0.14,352.66,352.68,0.0,0.0
1630605407.99949694,83428282,0.12,0.09,0.16,0.15,352.66,352.67,0.0,0.0
1630605408.09945703,83528242,0.11,0.09,0.18,0.17,352.66,352.67,0.0,0.0
1630605408.19941688,83628202,0.12,0.09,0.19,0.19,352.66,352.67,0.0,0.0
1630605408.29937696,83728162,0.13,0.11,0.2,0.2,352.66,352.67,0.0,0.0
1630605408.40016985,83828955,0.16,0.13,0.19,0.2,352.66,352.67,0.0,0.0
1630605408.50012994,83928915,0.18,0.14,0.17,0.18,352.66,352.67,0.0,0.0
1630605408.60009003,84028875,0.19,0.17,0.16,0.16,352.66,352.67,0.0,0.0
1630605408.70004988,84128835,0.22,0.2,0.14,0.15,352.66,352.67,0.0,0.0
1630605408.80000997,84228795,0.23,0.22,0.1,0.11,352.66,352.67,0.0,0.0
1630605408.89996982,84328755,0.2,0.21,0.1,0.08,352.66,352.67,0.0,0.0
1630605408.99992990,84428715,0.19,0.2,0.11,0.08,352.66,352.67,0.0,0.0
1630605409.09988999,84528675,0.17,0.18,0.11,0.09,352.66,352.67,0.0,0.0
1630605409.19984984,84628635,0.16,0.16,0.08,0.08,352.66,352.68,0.0,0.0
1630605409.29980993,84728595,0.16,0.15,0.06,0.07,352.66,352.68,0.0,0.0
1630605409.39977002,84828555,0.17,0.15,0.07,0.05,352.66,352.68,0.0,0.0
1630605409.49972987,84928515,0.18,0.16,0.09,0.05,352.66,352.68,0.0,0.0
1630605409.59968996,85028475,0.15,0.15,0.11,0.07,352.66,352.68,0.0,0.0
1630605409.69964981,85128435,0.13,0.13,0.15,0.11,352.66,352.68,0.0,0.0
1630605409.79960990,85228395,0.12,0.11,0.19,0.17,352.66,352.68,0.0,0.0
1630605409.89956999,85328355,0.12,0.11,0.22,0.21,352.66,352.67,0.0,0.0
1630605409.99952984,85428315,0.15,0.12,0.22,0.23,352.66,352.67,0.0,0.0
1630605410.09948993,85528275,0.18,0.15,0.16,0.21,352.66,352.67,0.0,0.0
1630605410.19945002,85628235,0.16,0.16,0.09,0.14,352.66,352.67,0.0,0.0
1630605410.29940987,85728195,0.14,0.14,0.05,0.07,352.66,352.67,0.0,0.0
1630605410.39936996,85828155,0.14,0.13,0.03,0.01,352.66,352.67,0.0,0.0
1630605410.50016284,85928948,0.14,0.12,0.05,0.0,352.66,352.67,0.0,0.0
1630605410.60012293,86028908,0.15,0.13,0.08,0.02,352.66,352.67,0.0,0.0
1630605410.70008302,86128868,0.15,0.15,0.12,0.06,352.66,352.67,0.0,0.0
1630605410.80004287,86228828,0.16,0.16,0.14,0.11,352.66,352.67,0.0,0.0
1630605410.90000296,86328788,0.17,0.18,0.12,0.14,352.66,352.68,0.0,0.0
1630605410.99996281,86428748,0.17,0.18,0.12,0.14,352.66,352.67,0.0,0.0
1630605411.09992290,86528708,0.16,0.17,0.08,0.12,352.66,352.67,0.0,0.0
1630605411.19988298,86628668,0.12,0.14,0.06,0.08,352.66,352.67,0.0,0.0
1630605411.29984283,86728628,0.06,0.1,0.1,0.08,352.66,352.67,0.0,0.0
1630605411.39980292,86828588,0.02,0.04,0.13,0.1,352.66,352.67,0.0,0.0
1630605411.49976301,86928548,0.0,0.0,0.14,0.12,352.66,352.67,0.0,0.0
1630605411.59972286,87028508,0.02,0.0,0.13,0.12,352.66,352.67,0.0,0.0
1630605411.69968295,87128468,0.08,0.03,0.14,0.13,352.66,352.67,0.0,0.0
1630605411.79964280,87228428,0.12,0.09,0.15,0.14,352.66,352.67,0.0,0.0
1630605411.89960289,87328388,0.1,0.11,0.14,0.15,352.66,352.67,0.0,0.0
1630605411.99956298,87428348,0.11,0.12,0.1,0.13,352.66,352.66,0.0,0.0
1630605412.09952283,87528308,0.1,0.11,0.07,0.09,352.66,352.66,0.0,0.0
1630605412.19948292,87628268,0.1,0.1,0.06,0.06,352.66,352.66,0.0,0.0
1630605412.29944301,87728228,0.11,0.1,0.06,0.04,352.66,352.67,0.0,0.0
1630605412.39940286,87828188,0.12,0.11,0.1,0.06,352.66,352.67,0.0,0.0
1630605412.50019598,87928981,0.09,0.1,0.12,0.08,352.66,352.67,0.0,0.0
1630605412.60015583,88028941,0.05,0.06,0.13,0.1,352.66,352.67,0.0,0.0
1630605412.70011592,88128901,0.05,0.02,0.15,0.12,352.66,352.67,0.0,0.0
1630605412.80007601,88228861,0.08,0.03,0.16,0.14,352.66,352.67,0.0,0.0
1630605412.90003586,88328821,0.1,0.05,0.16,0.15,352.66,352.67,0.0,0.0
1630605412.99999595,88428781,0.11,0.08,0.14,0.16,352.66,352.68,0.0,0.0
1630605413.09995580,88528741,0.1,0.1,0.12,0.14,352.66,352.68,0.0,0.0
1630605413.19991589,88628701,0.08,0.09,0.12,0.13,352.66,352.68,0.0,0.0
1630605413.29987597,88728661,0.09,0.09,0.1,0.1,352.66,352.68,0.0,0.0
1630605413.39983582,88828621,0.11,0.09,0.09,0.08,352.66,352.68,0.0,0.0
1630605413.49979591,88928581,0.14,0.11,0.13,0.09,352.66,352.68,0.0,0.0
1630605413.59975600,89028541,0.19,0.14,0.17,0.13,352.66,352.68,0.0,0.0
1630605413.69971585,89128501,0.23,0.19,0.18,0.17,352.66,352.68,0.0,0.0
1630605413.79967594,89228461,0.24,0.23,0.18,0.18,352.66,352.68,0.0,0.0
1630605413.89963603,89328421,0.23,0.24,0.18,0.18,352.66,352.67,0.0,0.0
1630605413.99959588,89428381,0.21,0.23,0.16,0.17,352.66,352.67,0.0,0.0
1630605414.09955597,89528341,0.22,0.21,0.16,0.16,352.66,352.67,0.0,0.0
1630605414.19951582,89628301,0.23,0.22,0.13,0.15,352.66,352.67,0.0,0.0
1630605414.29947591,89728261,0.22,0.21,0.14,0.14,352.66,352.67,0.0,0.0
1630605414.39943600,89828221,0.2,0.19,0.15,0.14,352.66,352.67,0.0,0.0
1630605414.49939585,89928181,0.21,0.19,0.16,0.14,352.66,352.67,0.0,0.0
1630605414.60018897,90028974,0.24,0.21,0.16,0.14,352.66,352.67,0.0,0.0
1630605414.70014882,90128934,0.25,0.23,0.16,0.15,352.66,352.67,0.0,0.0
1630605414.80010891,90228894,0.25,0.24,0.17,0.15,352.66,352.67,0.0,0.0
1630605414.90006900,90328854,0.26,0.25,0.18,0.17,352.66,352.67,0.0,0.0
1630605415.00002885,90428814,0.23,0.24,0.19,0.18,352.66,352.67,0.0,0.0
1630605415.09998894,90528774,0.21,0.21,0.19,0.19,352.66,352.67,0.0,0.0
1630605415.19994903,90628734,0.2,0.2,0.16,0.17,352.66,352.67,0.0,0.0
1630605415.29990888,90728694,0.18,0.17,0.14,0.14,352.66,352.67,0.0,0.0
1630605415.39986897,90828654,0.2,0.18,0.11,0.11,352.66,352.67,0.0,0.0
1630605415.49982882,90928614,0.22,0.2,0.12,0.09,352.66,352.67,0.0,0.0
1630605415.59978890,91028574,0.21,0.22,0.14,0.1,352.66,352.67,0.0,0.0
1630605415.69974899,91128534,0.14,0.18,0.16,0.12,352.66,352.67,0.0,0.0
1630605415.79970884,91228494,0.1,0.12,0.19,0.15,352.66,352.67,0.0,0.0
1630605415.89966893,91328454,0.1,0.08,0.19,0.18,352.66,352.66,0.0,0.0
1630605415.99962902,91428414,0.1,0.08,0.17,0.17,352.66,352.66,0.0,0.0
1630605416.09958887,91528374,0.1,0.08,0.14,0.16,352.66,352.66,0.0,0.0
1630605416.19954896,91628334,0.11,0.09,0.12,0.13,352.66,352.66,0.0,0.0
1630605416.29950881,91728294,0.1,0.09,0.15,0.14,352.66,352.66,0.0,0.0
1630605416.39946890,91828254,0.12,0.1,0.14,0.14,352.66,352.66,0.0,0.0
1630605416.49942899,91928214,0.17,0.14,0.12,0.13,352.66,352.66,0.0,0.0
1630605416.59938884,92028174,0.2,0.18,0.11,0.12,352.66,352.67,0.0,0.0
1630605416.70018196,92128967,0.19,0.19,0.12,0.1,352.66,352.67,0.0,0.0
1630605416.80014181,92228927,0.18,0.19,0.14,0.11,352.66,352.67,0.0,0.0
1630605416.90010190,92328887,0.2,0.19,0.18,0.15,352.66,352.68,0.0,0.0
1630605417.00006199,92428847,0.21,0.2,0.18,0.18,352.66,352.68,0.0,0.0
1630605417.10002184,92528807,0.21,0.21,0.16,0.18,352.66,352.68,0.0,0.0
1630605417.19998193,92628767,0.21,0.2,0.17,0.18,352.66,352.68,0.0,0.0
1630605417.29994202,92728727,0.21,0.2,0.17,0.18,352.66,352.67,0.0,0.0
1630605417.39990187,92828687,0.18,0.18,0.11,0.15,352.66,352.67,0.0,0.0
1630605417.49986196,92928647,0.17,0.16,0.08,0.09,352.66,352.67,0.0,0.0
1630605417.59982181,93028607,0.18,0.16,0.08,0.06,352.66,352.67,0.0,0.0
1630605417.69978189,93128567,0.16,0.15,0.07,0.05,352.66,352.67,0.0,0.0
1630605417.79974198,93228527,0.15,0.14,0.11,0.07,352.66,352.67,0.0,0.0
1630605417.89970183,93328487,0.15,0.14,0.12,0.1,352.66,352.67,0.0,0.0
1630605417.99966192,93428447,0.18,0.15,0.12,0.11,352.66,352.67,0.0,0.0
1630605418.09962201,93528407,0.2,0.18,0.11,0.11,352.66,352.67,0.0,0.0
1630605418.19958186,93628367,0.18,0.19,0.11,0.11,352.66,352.67,0.0,0.0
1630605418.29954195,93728327,0.15,0.16,0.1,0.1,352.66,352.67,0.0,0.0
1630605418.39950180,93828287,0.14,0.14,0.12,0.1,352.66,352.67,0.0,0.0
1630605418.49946189,93928247,0.15,0.13,0.13,0.11,352.66,352.67,0.0,0.0
1630605418.59942198,94028207,0.16,0.14,0.14,0.12,352.66,352.67,0.0,0.0
1630605418.69938183,94128167,0.16,0.15,0.15,0.14,352.66,352.67,0.0,0.0
1630605418.80017495,94228960,0.18,0.16,0.15,0.16,352.66,352.67,0.0,0.0
1630605418.90013480,94328920,0.22,0.19,0.15,0.16,352.66,352.67,0.0,0.0
1630605419.00009489,94428880,0.23,0.22,0.15,0.15,352.66,352.67,0.0,0.0
1630605419.10005498,94528840,0.21,0.23,0.16,0.15,352.66,352.66,0.0,0.0
1630605419.20001483,94628800,0.2,0.21,0.16,0.14,352.66,352.66,0.0,0.0
1630605419.29997492,94728760,0.19,0.2,0.13,0.13,352.66,352.66,0.0,0.0
1630605419.39993501,94828720,0.21,0.19,0.11,0.11,352.66,352.66,0.0,0.0
1630605419.49989486,94928680,0.21,0.19,0.1,0.08,352.66,352.66,0.0,0.0
1630605419.59985495,95028640,0.2,0.19,0.1,0.07,352.66,352.66,0.0,0.0
1630605419.69981480,95128600,0.18,0.18,0.11,0.08,352.66,352.66,0.0,0.0
1630605419.79977489,95228560,0.17,0.17,0.11,0.09,352.66,352.66,0.0,0.0
1630605419.89973497,95328520,0.18,0.16,0.12,0.1,352.66,352.67,0.0,0.0
1630605419.99969482,95428480,0.21,0.19,0.13,0.11,352.66,352.67,0.0,0.0
1630605420.09965491,95528440,0.19,0.18,0.17,0.15,352.66,352.67,0.0,0.0
1630605420.19961500,95628400,0.16,0.16,0.21,0.19,352.66,352.67,0.0,0.0
1630605420.29957485,95728360,0.14,0.14,0.22,0.21,352.66,352.67,0.0,0.0
1630605420.39953494,95828320,0.13,0.12,0.24,0.23,352.66,352.67,0.0,0.0
1630605420.49949503,95928280,0.12,0.11,0.21,0.22,352.66,352.67,0.0,0.0
1630605420.59945488,96028240,0.14,0.12,0.17,0.18,352.66,352.67,0.0,0.0
1630605420.69941497,96128200,0.16,0.15,0.16,0.15,352.66,352.67,0.0,0.0
1630605420.79937482,96228160,0.14,0.16,0.18,0.14,352.66,352.67,0.0,0.0
1630605420.90016794,96328953,0.15,0.16,0.2,0.17,352.66,352.67,0.0,0.0
1630605421.00012803,96428913,0.17,0.16,0.21,0.19,352.66,352.66,0.0,0.0
1630605421.10008788,96528873,0.19,0.17,0.24,0.23,352.66,352.67,0.0,0.0
1630605421.20004797,96628833,0.21,0.19,0.22,0.24,352.66,352.67,0.0,0.0
1630605421.30000782,96728793,0.21,0.21,0.19,0.22,352.66,352.67,0.0,0.0
1630605421.39996791,96828753,0.19,0.21,0.15,0.18,352.66,352.67,0.0,0.0
1630605421.49992800,96928713,0.16,0.2,0.15,0.15,352.66,352.67,0.0,0.0
1630605421.59988785,97028673,0.1,0.14,0.14,0.12,352.66,352.67,0.0,0.0
1630605421.69984794,97128633,0.07,0.07,0.14,0.11,352.66,352.67,0.0,0.0
1630605421.79980803,97228593,0.08,0.04,0.15,0.11,352.66,352.67,0.0,0.0
1630605421.89976788,97328553,0.1,0.05,0.17,0.13,352.66,352.67,0.0,0.0
1630605421.99972796,97428513,0.1,0.06,0.2,0.15,352.66,352.67,0.0,0.0
1630605422.09968781,97528473,0.1,0.08,0.2,0.18,352.66,352.67,0.0,0.0
1630605422.19964790,97628433,0.12,0.08,0.21,0.19,352.66,352.67,0.0,0.0
1630605422.29960799,97728393,0.13,0.09,0.21,0.2,352.66,352.67,0.0,0.0
1630605422.39956784,97828353,0.13,0.1,0.19,0.19,352.66,352.67,0.0,0.0
1630605422.49952793,97928313,0.13,0.11,0.15,0.17,352.66,352.67,0.0,0.0
1630605422.59948802,98028273,0.16,0.13,0.1,0.12,352.66,352.67,0.0,0.0
1630605422.69944787,98128233,0.17,0.15,0.11,0.1,352.66,352.67,0.0,0.0
1630605422.79940796,98228193,0.15,0.15,0.13,0.11,352.66,352.67,0.0,0.0
1630605422.90020084,98328986,0.14,0.13,0.14,0.13,352.66,352.67,0.0,0.0
1630605423.00016093,98428946,0.14,0.13,0.18,0.16,352.66,352.67,0.0,0.0
1630605423.10012102,98528906,0.13,0.12,0.21,0.2,352.66,352.67,0.0,0.0
1630605423.20008087,98628866,0.14,0.12,0.2,0.21,352.66,352.67,0.0,0.0
1630605423.30004096,98728826,0.14,0.12,0.19,0.21,352.66,352.67,0.0,0.0
1630605423.40000081,98828786,0.12,0.12,0.17,0.19,352.66,352.66,0.0,0.0
1630605423.49996090,98928746,0.13,0.12,0.15,0.16,352.66,352.66,0.0,0.0
1630605423.59992099,99028706,0.15,0.13,0.13,0.13,352.66,352.66,0.0,0.0
1630605423.69988084,99128666,0.14,0.14,0.12,0.11,352.66,352.66,0.0,0.0
1630605423.79984093,99228626,0.15,0.13,0.13,0.1,352.66,352.66,0.0,0.0
1630605423.89980102,99328586,0.15,0.15,0.16,0.12,352.66,352.66,0.0,0.0
1630605423.99976087,99428546,0.15,0.15,0.18,0.15,352.66,352.66,0.0,0.0
1630605424.09972095,99528506,0.17,0.16,0.15,0.16,352.66,352.67,0.0,0.0
1630605424.19968081,99628466,0.18,0.17,0.14,0.15,352.66,352.67,0.0,0.0
1630605424.29964089,99728426,0.19,0.18,0.15,0.14,352.66,352.67,0.0,0.0
1630605424.39960098,99828386,0.2,0.2,0.16,0.14,352.66,352.67,0.0,0.0
1630605424.49956083,99928346,0.19,0.2,0.16,0.14,352.66,352.67,0.0,0.0
1630605424.59952092,100028306,0.15,0.18,0.14,0.14,352.66,352.67,0.0,0.0
1630605424.69948101,100128266,0.13,0.14,0.14,0.13,352.66,352.67,0.0,0.0
1630605424.79944086,100228226,0.11,0.1,0.12,0.12,352.66,352.66,0.0,0.0
1630605424.89940095,100328186,0.13,0.09,0.11,0.1,352.66,352.66,0.0,0.0
1630605425.00019383,100428979,0.13,0.1,0.12,0.1,352.66,352.66,0.0,0.0
1630605425.10015392,100528939,0.14,0.12,0.16,0.13,352.66,352.66,0.0,0.0
1630605425.20011401,100628899,0.12,0.12,0.2,0.17,352.66,352.66,0.0,0.0
1630605425.30007386,100728859,0.11,0.1,0.18,0.18,352.66,352.66,0.0,0.0
1630605425.40003395,100828819,0.12,0.1,0.14,0.15,352.66,352.67,0.0,0.0
1630605425.49999380,100928779,0.15,0.14,0.13,0.12,352.66,352.67,0.0,0.0
1630605425.59995389,101028739,0.14,0.16,0.13,0.1,352.66,352.67,0.0,0.0
1630605425.69991398,101128699,0.12,0.14,0.14,0.11,352.66,352.67,0.0,0.0
1630605425.79987383,101228659,0.13,0.12,0.17,0.12,352.66,352.67,0.0,0.0
1630605425.89983392,101328619,0.16,0.13,0.16,0.14,352.66,352.67,0.0,0.0
1630605425.99979401,101428579,0.17,0.15,0.15,0.14,352.66,352.67,0.0,0.0
1630605426.09975386,101528539,0.15,0.15,0.15,0.14,352.66,352.66,0.0,0.0
1630605426.19971395,101628499,0.11,0.12,0.12,0.13,352.66,352.66,0.0,0.0
1630605426.29967380,101728459,0.11,0.09,0.13,0.13,352.66,352.66,0.0,0.0
1630605426.39963388,101828419,0.13,0.09,0.17,0.14,352.66,352.67,0.0,0.0
1630605426.49959397,101928379,0.17,0.12,0.22,0.19,352.66,352.67,0.0,0.0
1630605426.59955382,102028339,0.21,0.17,0.23,0.22,352.66,352.67,0.0,0.0
1630605426.69951391,102128299,0.22,0.21,0.2,0.22,352.66,352.67,0.0,0.0
1630605426.79947400,102228259,0.2,0.22,0.16,0.19,352.66,352.67,0.0,0.0
1630605426.89943385,102328219,0.18,0.2,0.12,0.14,352.66,352.67,0.0,0.0
1630605426.99939394,102428179,0.14,0.16,0.09,0.09,352.66,352.67,0.0,0.0
1630605427.10018682,102528972,0.1,0.11,0.1,0.07,352.66,352.67,0.0,0.0
1630605427.20014691,102628932,0.09,0.07,0.14,0.09,352.66,352.67,0.0,0.0
1630605427.30010700,102728892,0.09,0.05,0.16,0.13,352.66,352.66,0.0,0.0
1630605427.40006685,102828852,0.12,0.07,0.18,0.16,352.66,352.66,0.0,0.0
1630605427.50002694,102928812,0.17,0.11,0.18,0.19,352.66,352.66,0.0,0.0
1630605427.59998703,103028772,0.2,0.17,0.15,0.17,352.66,352.67,0.0,0.0
1630605427.69994688,103128732,0.22,0.21,0.13,0.14,352.66,352.67,0.0,0.0
1630605427.79990697,103228692,0.22,0.23,0.12,0.11,352.66,352.67,0.0,0.0
1630605427.89986682,103328652,0.22,0.23,0.13,0.1,352.66,352.68,0.0,0.0
1630605427.99982691,103428612,0.22,0.22,0.15,0.12,352.66,352.68,0.0,0.0
1630605428.09978700,103528572,0.23,0.23,0.18,0.16,352.66,352.68,0.0,0.0
1630605428.19974685,103628532,0.22,0.23,0.18,0.18,352.66,352.68,0.0,0.0
1630605428.29970694,103728492,0.19,0.21,0.19,0.19,352.66,352.68,0.0,0.0
1630605428.39966702,103828452,0.17,0.18,0.21,0.2,352.66,352.68,0.0,0.0
1630605428.49962687,103928412,0.17,0.17,0.24,0.24,352.66,352.67,0.0,0.0
1630605428.59958696,104028372,0.18,0.16,0.23,0.24,352.66,352.67,0.0,0.0
1630605428.69954681,104128332,0.18,0.16,0.21,0.23,352.66,352.67,0.0,0.0
1630605428.79950690,104228292,0.19,0.16,0.2,0.21,352.66,352.67,0.0,0.0
1630605428.89946699,104328252,0.2,0.18,0.18,0.18,352.66,352.67,0.0,0.0
1630605428.99942684,104428212,0.21,0.19,0.16,0.16,352.66,352.67,0.0,0.0
1630605429.09938693,104528172,0.21,0.2,0.17,0.15,352.66,352.66,0.0,0.0
1630605429.20017982,104628965,0.18,0.18,0.21,0.17,352.66,352.66,0.0,0.0
1630605429.30013990,104728925,0.17,0.17,0.23,0.21,352.66,352.66,0.0,0.0
1630605429.40009999,104828885,0.14,0.14,0.22,0.22,352.66,352.66,0.0,0.0
1630605429.50005984,104928845,0.14,0.12,0.2,0.21,352.66,352.66,0.0,0.0
1630605429.60001993,105028805,0.19,0.14,0.18,0.19,352.66,352.66,0.0,0.0
1630605429.69998002,105128765,0.25,0.2,0.18,0.18,352.66,352.66,0.0,0.0
1630605429.79993987,105228725,0.28,0.26,0.17,0.17,352.66,352.66,0.0,0.0
1630605429.89989996,105328685,0.27,0.28,0.17,0.16,352.66,352.66,0.0,0.0
1630605429.99985981,105428645,0.23,0.26,0.16,0.15,352.66,352.66,0.0,0.0
1630605430.09981990,105528605,0.2,0.22,0.14,0.14,352.66,352.67,0.0,0.0
1630605430.19977999,105628565,0.2,0.2,0.12,0.12,352.66,352.67,0.0,0.0
1630605430.29973984,105728525,0.22,0.21,0.15,0.13,352.66,352.67,0.0,0.0
1630605430.39969993,105828485,0.26,0.23,0.18,0.15,352.66,352.67,0.0,0.0
1630605430.49966002,105928445,0.26,0.25,0.21,0.18,352.66,352.67,0.0,0.0
1630605430.59961987,106028405,0.23,0.24,0.22,0.21,352.66,352.67,0.0,0.0
1630605430.69957995,106128365,0.22,0.22,0.2,0.22,352.66,352.66,0.0,0.0
1630605430.79953980,106228325,0.22,0.2,0.14,0.16,352.66,352.67,0.0,0.0
1630605430.89949989,106328285,0.21,0.19,0.12,0.11,352.66,352.67,0.0,0.0
1630605430.99945998,106428245,0.22,0.2,0.11,0.08,352.66,352.67,0.0,0.0
1630605431.09941983,106528205,0.22,0.21,0.13,0.1,352.66,352.66,0.0,0.0
1630605431.19937992,106628165,0.22,0.22,0.17,0.13,352.66,352.66,0.0,0.0
1630605431.30017281,106728958,0.22,0.22,0.23,0.19,352.66,352.67,0.0,0.0
1630605431.40013289,106828918,0.22,0.22,0.25,0.25,352.66,352.67,0.0,0.0
1630605431.50009298,106928878,0.21,0.21,0.23,0.27,352.66,352.67,0.0,0.0
1630605431.60005283,107028838,0.2,0.2,0.17,0.23,352.66,352.68,0.0,0.0
1630605431.70001292,107128798,0.17,0.17,0.12,0.17,352.66,352.68,0.0,0.0
1630605431.79997301,107228758,0.16,0.15,0.09,0.1,352.66,352.68,0.0,0.0
1630605431.89993286,107328718,0.15,0.14,0.09,0.06,352.66,352.68,0.0,0.0
1630605431.99989295,107428678,0.12,0.11,0.12,0.07,352.66,352.68,0.0,0.0
1630605432.09985280,107528638,0.13,0.1,0.15,0.11,352.66,352.68,0.0,0.0
1630605432.19981289,107628598,0.15,0.12,0.18,0.15,352.66,352.67,0.0,0.0
1630605432.29977298,107728558,0.15,0.13,0.2,0.18,352.66,352.67,0.0,0.0
1630605432.39973283,107828518,0.14,0.13,0.2,0.19,352.66,352.67,0.0,0.0
1630605432.49969292,107928478,0.12,0.11,0.21,0.2,352.66,352.66,0.0,0.0
1630605432.59965301,108028438,0.1,0.08,0.2,0.19,352.66,352.66,0.0,0.0
1630605432.69961286,108128398,0.12,0.08,0.18,0.18,352.66,352.66,0.0,0.0
1630605432.79957294,108228358,0.11,0.09,0.16,0.16,352.66,352.66,0.0,0.0
1630605432.89953303,108328318,0.1,0.09,0.16,0.15,352.66,352.66,0.0,0.0
1630605432.99949288,108428278,0.14,0.11,0.15,0.14,352.66,352.66,0.0,0.0
1630605433.09945297,108528238,0.18,0.15,0.15,0.13,352.66,352.66,0.0,0.0
1630605433.19941282,108628198,0.19,0.19,0.17,0.13,352.66,352.66,0.0,0.0
1630605433.29937291,108728158,0.18,0.19,0.18,0.15,352.66,352.66,0.0,0.0
1630605433.40016580,108828951,0.16,0.18,0.22,0.18,352.66,352.66,0.0,0.0
1630605433.50012589,108928911,0.13,0.15,0.24,0.22,352.66,352.67,0.0,0.0
1630605433.60008597,109028871,0.1,0.11,0.26,0.25,352.66,352.67,0.0,0.0
1630605433.70004582,109128831,0.12,0.1,0.25,0.25,352.66,352.67,0.0,0.0
1630605433.80000591,109228791,0.16,0.11,0.24,0.25,352.66,352.67,0.0,0.0
1630605433.89996600,109328751,0.2,0.15,0.2,0.22,352.66,352.67,0.0,0.0
1630605433.99992585,109428711,0.24,0.21,0.17,0.18,352.66,352.67,0.0,0.0
1630605434.09988594,109528671,0.26,0.26,0.16,0.15,352.66,352.66,0.0,0.0
1630605434.19984603,109628631,0.27,0.28,0.21,0.16,352.66,352.66,0.0,0.0
1630605434.29980588,109728591,0.25,0.27,0.26,0.21,352.66,352.66,0.0,0.0
1630605434.39976597,109828551,0.23,0.25,0.26,0.25,352.66,352.66,0.0,0.0
1630605434.49972582,109928511,0.22,0.23,0.22,0.24,352.66,352.66,0.0,0.0
1630605434.59968591,110028471,0.22,0.21,0.18,0.2,352.66,352.66,0.0,0.0
1630605434.69964600,110128431,0.24,0.22,0.14,0.15,352.66,352.66,0.0,0.0
1630605434.79960585,110228391,0.27,0.24,0.09,0.1,352.66,352.66,0.0,0.0
1630605434.89956594,110328351,0.27,0.26,0.07,0.05,352.66,352.66,0.0,0.0
1630605434.99952602,110428311,0.26,0.26,0.09,0.05,352.66,352.66,0.0,0.0
1630605435.09948587,110528271,0.26,0.26,0.12,0.08,352.66,352.67,0.0,0.0
1630605435.19944596,110628231,0.27,0.26,0.09,0.09,352.66,352.67,0.0,0.0
1630605435.29940581,110728191,0.27,0.26,0.08,0.08,352.66,352.66,0.0,0.0
1630605435.40019894,110828984,0.25,0.25,0.08,0.07,352.66,352.66,0.0,0.0
1630605435.50015903,110928944,0.23,0.23,0.11,0.09,352.66,352.66,0.0,0.0
1630605435.60011888,111028904,0.21,0.2,0.15,0.12,352.66,352.66,0.0,0.0
1630605435.70007896,111128864,0.2,0.19,0.16,0.15,352.66,352.66,0.0,0.0
1630605435.80003881,111228824,0.21,0.18,0.16,0.16,352.66,352.66,0.0,0.0
1630605435.89999890,111328784,0.22,0.19,0.16,0.16,352.66,352.66,0.0,0.0
1630605435.99995899,111428744,0.22,0.2,0.17,0.16,352.66,352.66,0.0,0.0
1630605436.09991884,111528704,0.19,0.2,0.17,0.17,352.66,352.66,0.0,0.0
1630605436.19987893,111628664,0.16,0.16,0.18,0.17,352.66,352.66,0.0,0.0
1630605436.29983902,111728624,0.16,0.14,0.19,0.18,352.66,352.66,0.0,0.0
1630605436.39979887,111828584,0.16,0.14,0.21,0.19,352.66,352.66,0.0,0.0
1630605436.49975896,111928544,0.15,0.14,0.21,0.2,352.66,352.66,0.0,0.0
1630605436.59971881,112028504,0.13,0.12,0.18,0.18,352.66,352.66,0.0,0.0
1630605436.69967890,112128464,0.13,0.11,0.18,0.17,352.66,352.66,0.0,0.0
1630605436.79963899,112228424,0.14,0.11,0.2,0.16,352.66,352.66,0.0,0.0
1630605436.89959884,112328384,0.16,0.12,0.24,0.2,352.66,352.66,0.0,0.0
1630605436.99955893,112428344,0.17,0.14,0.24,0.22,352.66,352.66,0.0,0.0
1630605437.09951901,112528304,0.17,0.16,0.22,0.23,352.66,352.66,0.0,0.0
1630605437.19947886,112628264,0.16,0.16,0.21,0.22,352.66,352.66,0.0,0.0
1630605437.29943895,112728224,0.12,0.14,0.2,0.21,352.66,352.66,0.0,0.0
1630605437.39939880,112828184,0.1,0.12,0.2,0.2,352.66,352.66,0.0,0.0
1630605437.50019193,112928977,0.1,0.09,0.2,0.2,352.66,352.66,0.0,0.0
1630605437.60015202,113028937,0.11,0.09,0.2,0.19,352.66,352.66,0.0,0.0
1630605437.70011187,113128897,0.12,0.1,0.19,0.18,352.66,352.66,0.0,0.0
1630605437.80007195,113228857,0.14,0.12,0.19,0.17,352.66,352.66,0.0,0.0
1630605437.90003181,113328817,0.15,0.13,0.2,0.18,352.66,352.67,0.0,0.0
1630605437.99999189,113428777,0.13,0.12,0.2,0.18,352.66,352.67,0.0,0.0
1630605438.09995198,113528737,0.11,0.11,0.19,0.18,352.66,352.67,0.0,0.0
1630605438.19991183,113628697,0.09,0.08,0.19,0.18,352.66,352.67,0.0,0.0
1630605438.29987192,113728657,0.08,0.06,0.21,0.19,352.66,352.67,0.0,0.0
1630605438.39983201,113828617,0.11,0.07,0.21,0.2,352.66,352.67,0.0,0.0
1630605438.49979186,113928577,0.16,0.11,0.22,0.21,352.66,352.67,0.0,0.0
1630605438.59975195,114028537,0.2,0.16,0.23,0.22,352.66,352.67,0.0,0.0
1630605438.69971180,114128497,0.19,0.19,0.21,0.22,352.66,352.66,0.0,0.0
1630605438.79967189,114228457,0.22,0.21,0.17,0.18,352.66,352.66,0.0,0.0
1630605438.89963198,114328417,0.23,0.24,0.15,0.15,352.66,352.66,0.0,0.0
1630605438.99959183,114428377,0.23,0.25,0.13,0.13,352.66,352.66,0.0,0.0
1630605439.09955192,114528337,0.24,0.25,0.1,0.09,352.66,352.66,0.0,0.0
1630605439.19951200,114628297,0.23,0.25,0.09,0.07,352.66,352.66,0.0,0.0
1630605439.29947186,114728257,0.22,0.23,0.1,0.07,352.66,352.66,0.0,0.0
1630605439.39943194,114828217,0.2,0.2,0.11,0.09,352.66,352.66,0.0,0.0
1630605439.49939203,114928177,0.18,0.17,0.14,0.12,352.66,352.66,0.0,0.0
1630605439.60018492,115028970,0.17,0.15,0.17,0.15,352.66,352.67,0.0,0.0
1630605439.70014501,115128930,0.19,0.16,0.17,0.17,352.66,352.67,0.0,0.0
1630605439.80010486,115228890,0.2,0.17,0.16,0.17,352.66,352.67,0.0,0.0
1630605439.90006495,115328850,0.24,0.21,0.17,0.16,352.66,352.67,0.0,0.0
1630605440.00002480,115428810,0.26,0.24,0.16,0.16,352.66,352.67,0.0,0.0
1630605440.09998488,115528770,0.27,0.27,0.15,0.15,352.66,352.67,0.0,0.0
1630605440.19994497,115628730,0.24,0.26,0.14,0.13,352.66,352.67,0.0,0.0
1630605440.29990482,115728690,0.21,0.23,0.16,0.15,352.66,352.66,0.0,0.0
1630605440.39986491,115828650,0.21,0.2,0.18,0.16,352.66,352.66,0.0,0.0
1630605440.49982500,115928610,0.24,0.21,0.18,0.17,352.66,352.66,0.0,0.0
1630605440.59978485,116028570,0.25,0.23,0.18,0.16,352.66,352.66,0.0,0.0
1630605440.69974494,116128530,0.23,0.23,0.16,0.16,352.66,352.66,0.0,0.0
1630605440.79970503,116228490,0.24,0.22,0.13,0.13,352.66,352.66,0.0,0.0
1630605440.89966488,116328450,0.24,0.22,0.15,0.13,352.66,352.66,0.0,0.0
1630605440.99962497,116428410,0.22,0.21,0.17,0.14,352.66,352.67,0.0,0.0
1630605441.09958482,116528370,0.2,0.19,0.17,0.15,352.66,352.67,0.0,0.0
1630605441.19954491,116628330,0.22,0.19,0.16,0.15,352.66,352.67,0.0,0.0
1630605441.29950500,116728290,0.24,0.22,0.18,0.17,352.66,352.67,0.0,0.0
1630605441.39946485,116828250,0.23,0.22,0.2,0.18,352.66,352.67,0.0,0.0
1630605441.49942493,116928210,0.24,0.23,0.2,0.2,352.66,352.67,0.0,0.0
1630605441.59938502,117028170,0.24,0.23,0.18,0.19,352.66,352.67,0.0,0.0
1630605441.70017791,117128963,0.25,0.24,0.19,0.19,352.66,352.67,0.0,0.0
1630605441.80013800,117228923,0.25,0.24,0.18,0.18,352.66,352.67,0.0,0.0
1630605441.90009785,117328883,0.26,0.24,0.15,0.17,352.66,352.66,0.0,0.0
1630605442.00005794,117428843,0.26,0.25,0.13,0.14,352.66,352.66,0.0,0.0
1630605442.10001802,117528803,0.24,0.24,0.16,0.14,352.66,352.66,0.0,0.0
1630605442.19997787,117628763,0.22,0.22,0.17,0.15,352.66,352.66,0.0,0.0
1630605442.29993796,117728723,0.21,0.2,0.18,0.17,352.66,352.66,0.0,0.0
1630605442.39989781,117828683,0.19,0.18,0.17,0.17,352.66,352.66,0.0,0.0
1630605442.49985790,117928643,0.17,0.16,0.16,0.15,352.66,352.66,0.0,0.0
1630605442.59981799,118028603,0.17,0.14,0.15,0.13,352.66,352.66,0.0,0.0
1630605442.69977784,118128563,0.17,0.14,0.16,0.13,352.66,352.66,0.0,0.0
1630605442.79973793,118228523,0.18,0.15,0.19,0.15,352.66,352.66,0.0,0.0
1630605442.89969802,118328483,0.19,0.17,0.22,0.18,352.66,352.66,0.0,0.0
1630605442.99965787,118428443,0.21,0.19,0.24,0.21,352.66,352.66,0.0,0.0
1630605443.09961796,118528403,0.2,0.21,0.23,0.22,352.66,352.66,0.0,0.0
1630605443.19957781,118628363,0.19,0.2,0.21,0.2,352.66,352.67,0.0,0.0
1630605443.29953790,118728323,0.16,0.18,0.21,0.19,352.66,352.67,0.0,0.0
1630605443.39949799,118828283,0.13,0.13,0.24,0.2,352.66,352.67,0.0,0.0
1630605443.49945784,118928243,0.13,0.11,0.24,0.22,352.66,352.67,0.0,0.0
1630605443.59941792,119028203,0.12,0.09,0.22,0.22,352.66,352.67,0.0,0.0
1630605443.69937801,119128163,0.08,0.08,0.19,0.21,352.66,352.67,0.0,0.0
1630605443.80017090,119228956,0.06,0.05,0.17,0.18,352.66,352.67,0.0,0.0
1630605443.90013099,119328916,0.07,0.04,0.21,0.18,352.66,352.67,0.0,0.0
1630605444.00009084,119428876,0.12,0.07,0.25,0.21,352.66,352.67,0.0,0.0
1630605444.10005093,119528836,0.17,0.12,0.25,0.23,352.66,352.67,0.0,0.0
1630605444.20001101,119628796,0.18,0.17,0.23,0.23,352.66,352.67,0.0,0.0
1630605444.29997087,119728756,0.17,0.19,0.24,0.23,352.66,352.67,0.0,0.0
1630605444.39993095,119828716,0.16,0.18,0.28,0.25,352.66,352.67,0.0,0.0
1630605444.49989080,119928676,0.15,0.17,0.3,0.28,352.66,352.66,0.0,0.0
1630605444.59985089,120028636,0.16,0.16,0.28,0.28,352.66,352.66,0.0,0.0
1630605444.69981098,120128596,0.15,0.15,0.26,0.26,352.66,352.66,0.0,0.0
1630605444.79977083,120228556,0.13,0.13,0.21,0.22,352.66,352.66,0.0,0.0
1630605444.89973092,120328516,0.11,0.11,0.19,0.19,352.66,352.66,0.0,0.0
1630605444.99969101,120428476,0.14,0.11,0.2,0.18,352.66,352.66,0.0,0.0
1630605445.09965086,120528436,0.17,0.14,0.23,0.2,352.66,352.66,0.0,0.0
1630605445.19961095,120628396,0.22,0.18,0.25,0.23,352.66,352.66,0.0,0.0
1630605445.29957080,120728356,0.22,0.21,0.22,0.23,352.66,352.66,0.0,0.0
1630605445.39953089,120828316,0.21,0.21,0.21,0.22,352.66,352.66,0.0,0.0
1630605445.49949098,120928276,0.21,0.21,0.2,0.2,352.66,352.66,0.0,0.0
1630605445.59945083,121028236,0.23,0.22,0.19,0.18,352.66,352.66,0.0,0.0
1630605445.69941092,121128196,0.22,0.23,0.18,0.17,352.66,352.66,0.0,0.0
1630605445.79937100,121228156,0.19,0.21,0.19,0.16,352.66,352.66,0.0,0.0
1630605445.90016389,121328949,0.17,0.17,0.2,0.17,352.66,352.67,0.0,0.0
1630605446.00012398,121428909,0.15,0.14,0.2,0.18,352.66,352.67,0.0,0.0
1630605446.10008383,121528869,0.17,0.14,0.19,0.18,352.66,352.66,0.0,0.0
1630605446.20004392,121628829,0.2,0.16,0.18,0.17,352.66,352.66,0.0,0.0
1630605446.30000401,121728789,0.24,0.2,0.16,0.16,352.66,352.66,0.0,0.0
1630605446.39996386,121828749,0.27,0.24,0.16,0.16,352.66,352.66,0.0,0.0
1630605446.49992394,121928709,0.26,0.25,0.15,0.15,352.66,352.66,0.0,0.0
1630605446.59988403,122028669,0.26,0.25,0.13,0.12,352.66,352.66,0.0,0.0
1630605446.69984388,122128629,0.23,0.23,0.11,0.1,352.66,352.66,0.0,0.0
1630605446.79980397,122228589,0.2,0.2,0.09,0.08,352.66,352.66,0.0,0.0
1630605446.89976382,122328549,0.19,0.18,0.09,0.08,352.66,352.66,0.0,0.0
1630605446.99972391,122428509,0.21,0.18,0.13,0.1,352.66,352.66,0.0,0.0
1630605447.09968400,122528469,0.22,0.2,0.14,0.13,352.66,352.66,0.0,0.0
1630605447.19964385,122628429,0.16,0.18,0.24,0.18,352.66,352.67,0.0,0.0
1630605447.29960394,122728389,-0.04,0.05,0.53,0.38,352.66,352.66,0.0,0.0
1630605447.39956403,122828349,-0.41,-0.25,1.03,0.79,352.66,352.66,0.0,0.0
1630605447.49952388,122928309,-0.92,-0.72,1.7,1.43,352.66,352.66,0.0,0.0
1630605447.59948397,123028269,-1.5,-1.34,2.47,2.23,352.66,352.65,0.0,0.0
1630605447.69944382,123128229,-2.03,-1.97,3.24,3.1,352.66,352.63,0.0,0.0
1630605447.79940391,123228189,-2.44,-2.51,3.9,3.92,352.66,352.61,0.0,0.0
1630605447.90019703,123328982,-2.75,-2.9,4.37,4.55,352.66,352.6,0.0,0.0
1630605448.00015688,123428942,-3.0,-3.18,4.73,4.97,352.66,352.6,0.0,0.0
1630605448.10011697,123528902,-3.21,-3.37,5.06,5.27,352.66,352.61,0.0,0.0
1630605448.20007682,123628862,-3.41,-3.52,5.39,5.53,352.66,352.63,0.0,0.0
1630605448.30003691,123728822,-3.67,-3.7,5.76,5.81,352.66,352.64,0.0,0.0
1630605448.39999700,123828782,-3.97,-3.95,6.14,6.14,352.66,352.64,0.0,0.0
1630605448.49995685,123928742,-4.23,-4.23,6.46,6.47,352.66,352.65,0.0,0.0
1630605448.59991693,124028702,-4.42,-4.46,6.68,6.72,352.66,352.66,0.0,0.0
1630605448.69987702,124128662,-4.55,-4.62,6.86,6.92,352.66,352.67,0.0,0.0
1630605448.79983687,124228622,-4.63,-4.72,6.97,7.06,352.66,352.68,0.0,0.0
1630605448.89979696,124328582,-4.72,-4.77,7.07,7.14,352.66,352.69,0.0,0.0
1630605448.99975681,124428542,-4.85,-4.84,7.23,7.24,352.2,352.69,0.0,0.0
1630605449.09971690,124528502,-5.02,-4.78,7.5,7.55,349.25,352.51,0.0,0.0
1630605449.19967699,124628462,-5.31,-4.57,7.8,8.13,343.78,351.57,0.0,0.0
1630605449.29963684,124728422,-5.81,-4.5,7.98,8.79,337.78,349.16,0.0,0.0
1630605449.39959693,124828382,-6.61,-4.89,7.9,9.21,331.78,345.04,0.0,0.0
1630605449.49955702,124928342,-7.73,-5.85,7.43,9.16,325.78,339.35,0.0,0.01
1630605449.59951687,125028302,-9.07,-7.29,6.51,8.46,319.78,332.44,0.0,0.02
1630605449.69947696,125128262,-10.4,-8.96,5.17,7.11,313.78,324.65,0.0,0.03
1630605449.79943681,125228222,-11.56,-10.58,3.52,5.18,307.78,316.33,0.0,0.05
1630605449.89939690,125328182,-12.45,-11.92,1.68,2.86,301.78,307.76,0.0,0.06
1630605450.00019002,125428975,-13.01,-12.82,-0.23,0.35,295.78,299.18,0.0,0.08
1630605450.10014987,125528935,-13.22,-13.21,-2.12,-2.13,289.78,290.79,0.0,0.08
1630605450.20010996,125628895,-13.11,-13.11,-3.92,-4.43,283.78,282.79,0.0,0.09
1630605450.30006981,125728855,-12.77,-12.62,-5.59,-6.43,277.78,275.3,0.0,0.09
1630605450.40002990,125828815,-12.3,-11.92,-7.12,-8.1,271.78,268.39,0.0,0.09
1630605450.49998999,125928775,-11.71,-11.15,-8.53,-9.47,265.78,262.06,0.0,0.09
1630605450.59994984,126028735,-11.02,-10.36,-9.79,-10.59,259.78,256.26,0.0,0.08
1630605450.69990993,126128695,-10.21,-9.59,-10.9,-11.5,253.78,250.87,0.0,0.08
1630605450.79987001,126228655,-9.33,-8.83,-11.87,-12.24,247.78,245.77,0.0,0.07
1630605450.89982986,126328615,-8.35,-8.07,-12.75,-12.9,241.78,240.8,0.0,0.06
1630605450.99978995,126428575,-7.29,-7.25,-13.55,-13.51,235.78,235.83,0.0,0.06
1630605451.09974980,126528535,-6.12,-6.34,-14.28,-14.12,229.78,230.75,0.0,0.05
1630605451.19970989,126628495,-4.82,-5.29,-14.94,-14.73,223.78,225.47,0.0,0.05
1630605451.29966998,126728455,-3.35,-4.01,-15.47,-15.29,217.78,219.94,0.0,0.05
1630605451.39962983,126828415,-1.71,-2.34,-15.81,-15.74,213.13,214.17,0.0,0.05
1630605451.49958992,126928375,-0.03,-0.04,-15.99,-16.01,210.7,208.49,0.0,0.05
1630605451.59955001,127028335,1.5,2.55,-16.0,-16.0,209.45,203.55,0.0,0.05
1630605451.69950986,127128295,2.62,4.84,-15.94,-15.76,208.8,199.85,0.0,0.05
1630605451.79946995,127228255,3.15,6.35,-15.9,-15.46,208.44,197.65,0.0,0.05
1630605451.89942980,127328215,3.11,6.84,-15.93,-15.26,208.21,196.89,0.0,0.04
1630605451.99938989,127428175,2.61,6.36,-16.02,-15.22,208.03,197.36,0.0,0.04
1630605452.10018301,127528968,1.81,5.1,-16.18,-15.36,207.85,198.76,0.0,0.04
1630605452.20014286,127628928,0.9,3.37,-16.36,-15.64,207.67,200.79,0.0,0.04
1630605452.30010295,127728888,0.06,1.5,-16.55,-15.98,207.49,203.16,0.0,0.05
1630605452.40006280,127828848,-0.62,-0.2,-16.7,-16.32,207.31,205.56,0.0,0.06
1630605452.50002289,127928808,-1.09,-1.56,-16.77,-16.56,207.13,207.7,0.0,0.06
1630605452.59998298,128028768,-1.34,-2.46,-16.76,-16.68,206.98,209.35,0.0,0.06
1630605452.69994283,128128728,-1.41,-2.9,-16.73,-16.69,206.85,210.39,0.0,0.06
1630605452.79990292,128228688,-1.34,-2.93,-16.71,-16.66,206.74,210.81,0.0,0.05
1630605452.89986300,128328648,-1.15,-2.64,-16.7,-16.63,206.66,210.65,0.0,0.05
1630605452.99982285,128428608,-0.88,-2.12,-16.73,-16.63,206.61,210.04,0.0,0.04
1630605453.09978294,128528568,-0.54,-1.44,-16.77,-16.67,206.57,209.12,0.0,0.03
1630605453.19974303,128628528,-0.22,-0.71,-16.81,-16.73,206.55,208.05,0.0,0.02
1630605453.29970288,128728488,0.07,-0.03,-16.85,-16.79,206.54,206.97,0.0,0.02
1630605453.39966297,128828448,0.33,0.56,-16.87,-16.83,206.54,206.01,0.0,0.01
1630605453.49962282,128928408,0.49,1.01,-16.9,-16.87,206.55,205.26,0.0,0.01
1630605453.59958291,129028368,0.54,1.25,-16.91,-16.91,206.55,204.77,0.0,0.01
1630605453.69954300,129128328,0.51,1.29,-16.94,-16.92,206.55,204.56,0.0,0.01
1630605453.79950285,129228288,0.44,1.17,-16.96,-16.95,206.55,204.59,0.0,0.01
1630605453.89946294,129328248,0.33,0.96,-16.96,-16.95,206.55,204.82,0.0,0.01
1630605453.99942303,129428208,0.21,0.68,-16.98,-16.96,206.54,205.19,0.0,0.01
1630605454.09938288,129528168,0.07,0.38,-17.04,-17.01,206.54,205.63,0.0,0.01
1630605454.20017600,129628961,-0.01,0.1,-17.09,-17.07,206.53,206.08,0.0,0.02
1630605454.30013585,129728921,-0.08,-0.1,-17.14,-17.13,206.53,206.48,0.0,0.02
1630605454.40009594,129828881,-0.15,-0.27,-17.17,-17.18,206.53,206.8,0.0,0.02
1630605454.50005603,129928841,-0.2,-0.39,-17.2,-17.21,206.53,207.02,0.0,0.02
1630605454.60001588,130028801,-0.22,-0.45,-17.22,-17.24,206.54,207.13,0.0,0.02
1630605454.69997597,130128761,-0.17,-0.42,-17.24,-17.26,206.55,207.14,0.0,0.02
1630605454.79993582,130228721,-0.09,-0.3,-17.25,-17.27,206.57,207.07,0.0,0.01
1630605454.89989591,130328681,-0.03,-0.17,-17.28,-17.28,206.59,206.94,0.0,0.01
1630605454.99985600,130428641,0.03,-0.02,-17.3,-17.3,206.61,206.78,0.0,0.01
1630605455.09981585,130528601,0.09,0.1,-17.33,-17.32,206.64,206.62,0.0,0.01
1630605455.19977593,130628561,0.11,0.2,-17.37,-17.36,206.67,206.48,0.0,0.01
1630605455.29973602,130728521,0.12,0.26,-17.4,-17.41,206.69,206.37,0.0,0.01
1630605455.39969587,130828481,0.12,0.28,-17.42,-17.43,206.72,206.31,0.0,0.01
1630605455.49965596,130928441,0.13,0.29,-17.44,-17.45,206.75,206.3,0.0,0.01
1630605455.59961581,131028401,0.14,0.29,-17.44,-17.46,206.78,206.33,0.0,0.01
1630605455.69957590,131128361,0.13,0.27,-17.45,-17.47,206.8,206.39,0.0,0.01
1630605455.79953599,131228321,0.11,0.23,-17.47,-17.48,206.83,206.49,0.0,0.01
1630605455.89949584,131328281,0.07,0.17,-17.49,-17.5,206.86,206.59,0.0,0.01
1630605455.99945593,131428241,0.02,0.11,-17.52,-17.52,206.89,206.7,0.0,0.01
1630605456.09941602,131528201,0.01,0.04,-17.54,-17.55,206.92,206.8,0.0,0.01
1630605456.19937587,131628161,0.03,0.03,-17.54,-17.56,206.94,206.89,0.0,0.01
1630605456.30016899,131728954,0.05,0.03,-17.54,-17.56,206.97,206.95,0.0,0.01
1630605456.40012884,131828914,0.07,0.05,-17.55,-17.56,207.01,207.0,0.0,0.01
1630605456.50008893,131928874,0.08,0.08,-17.56,-17.56,207.04,207.04,0.0,0.01
1630605456.60004902,132028834,0.09,0.1,-17.59,-17.58,207.07,207.06,0.0,0.01
1630605456.70000887,132128794,0.09,0.11,-17.6,-17.61,207.1,207.07,0.0,0.01
1630605456.79996896,132228754,0.1,0.13,-17.6,-17.63,207.14,207.07,0.0,0.01
1630605456.89992881,132328714,0.12,0.15,-17.61,-17.64,207.17,207.08,0.0,0.01
1630605456.99988890,132428674,0.14,0.18,-17.6,-17.63,207.2,207.09,0.0,0.0
1630605457.09984899,132528634,0.18,0.21,-17.61,-17.62,207.24,207.1,0.0,0.0
1630605457.19980884,132628594,0.2,0.26,-17.64,-17.64,207.27,207.12,0.0,0.0
1630605457.29976892,132728554,0.18,0.26,-17.69,-17.68,207.31,207.14,0.0,0.0
1630605457.39972901,132828514,0.17,0.24,-17.73,-17.73,207.34,207.18,0.0,0.0
1630605457.49968886,132928474,0.18,0.24,-17.76,-17.77,207.37,207.22,0.0,0.0
1630605457.59964895,133028434,3.2,1.57,-14.86,-16.5,207.4,207.28,0.0,0.0
1630605457.69960880,133128394,5.45,4.48,-12.71,-13.68,207.43,207.46,0.0,0.0
1630605457.79956889,133228354,5.09,5.85,-13.04,-12.34,207.44,207.56,0.0,0.01
1630605457.89952898,133328314,3.72,5.33,-14.33,-12.81,207.43,207.49,0.0,0.01
1630605457.99948883,133428274,2.32,3.76,-15.65,-14.3,207.38,207.34,0.0,0.01
1630605458.09944892,133528234,1.35,2.07,-16.55,-15.89,207.31,207.25,0.0,0.01
1630605458.19940901,133628194,0.94,0.87,-16.96,-17.01,207.21,207.21,0.0,0.01
1630605458.29936886,133728154,0.98,0.4,-16.97,-17.48,207.11,207.17,0.0,0.01
1630605458.40016198,133828947,1.23,0.5,-16.75,-17.41,207.0,207.11,0.0,0.01
1630605458.50012183,133928907,1.48,0.9,-16.5,-17.04,206.9,207.03,0.0,0.01
1630605458.60008192,134028867,1.62,1.31,-16.4,-16.67,206.8,206.92,0.0,0.01
1630605458.70004201,134128827,1.66,1.58,-16.42,-16.46,206.71,206.79,0.0,0.0
1630605458.80000186,134228787,1.59,1.68,-16.54,-16.43,206.62,206.64,0.0,0.0
1630605458.89996195,134328747,1.47,1.63,-16.67,-16.53,206.52,206.49,0.0,0.0
1630605458.99992180,134428707,1.37,1.51,-16.82,-16.7,206.43,206.34,0.0,0.0
1630605459.09988189,134528667,1.3,1.38,-16.96,-16.89,206.33,206.21,0.0,0.0
1630605459.19984198,134628627,1.27,1.3,-17.06,-17.05,206.23,206.08,0.0,0.0
1630605459.29980183,134728587,1.27,1.27,-17.11,-17.15,206.14,205.97,0.0,0.0
1630605459.39976192,134828547,1.29,1.28,-17.11,-17.19,206.05,205.88,0.0,0.0
1630605459.49972200,134928507,1.27,1.29,-17.1,-17.17,205.96,205.8,0.0,0.0
1630605459.59968185,135028467,1.24,1.28,-17.11,-17.15,205.87,205.73,0.0,0.0
1630605459.69964194,135128427,1.22,1.26,-17.15,-17.15,205.79,205.66,0.0,0.0
1630605459.79960203,135228387,1.21,1.24,-17.18,-17.18,205.71,205.6,0.0,0.0
1630605459.89956188,135328347,1.19,1.22,-17.21,-17.2,205.63,205.53,0.0,0.0
1630605459.99952197,135428307,1.16,1.19,-17.27,-17.26,205.55,205.47,0.0,0.0
1630605460.09948182,135528267,1.13,1.16,-17.33,-17.33,205.48,205.4,0.0,0.0
1630605460.19944191,135628227,1.13,1.13,-17.37,-17.39,205.41,205.34,0.0,0.0
1630605460.29940200,135728187,1.14,1.14,-17.41,-17.44,205.35,205.27,0.0,0.0
1630605460.40019488,135828980,1.16,1.16,-17.44,-17.47,205.29,205.21,0.0,0.0
1630605460.50015497,135928940,1.19,1.19,-17.43,-17.49,205.22,205.15,0.0,0.0
1630605460.60011482,136028900,1.22,1.23,-17.36,-17.43,205.17,205.09,0.0,0.0
1630605460.70007491,136128860,1.22,1.25,-17.28,-17.35,205.11,205.04,0.0,0.0
1630605460.80003500,136228820,1.21,1.25,-17.22,-17.25,205.05,204.98,0.0,0.0
1630605460.89999485,136328780,1.18,1.23,-17.19,-17.19,205.0,204.93,0.0,0.0
1630605460.99995494,136428740,1.16,1.2,-17.18,-17.16,204.95,204.87,0.0,0.0
1630605461.09991503,136528700,1.17,1.18,-17.19,-17.15,204.9,204.82,0.0,0.0
1630605461.19987488,136628660,1.21,1.19,-17.22,-17.17,204.85,204.77,0.0,0.0
1630605461.29983497,136728620,1.24,1.23,-17.25,-17.21,204.81,204.72,0.0,0.0
1630605461.39979482,136828580,1.26,1.26,-17.26,-17.25,204.77,204.68,0.0,0.0
1630605461.49975491,136928540,1.27,1.29,-17.24,-17.26,204.73,204.64,0.0,0.0
1630605461.59971499,137028500,1.28,1.3,-17.23,-17.25,204.7,204.61,0.0,0.0
1630605461.69967484,137128460,1.27,1.31,-17.21,-17.23,204.66,204.58,0.0,0.0
1630605461.79963493,137228420,1.28,1.31,-17.2,-17.21,204.63,204.55,0.0,0.0
1630605461.89959502,137328380,1.31,1.33,-17.17,-17.19,204.61,204.52,0.0,0.0
1630605461.99955487,137428340,1.32,1.34,-17.11,-17.14,204.58,204.5,0.0,0.0
1630605462.09951496,137528300,1.32,1.35,-17.09,-17.1,204.56,204.48,0.0,0.0
1630605462.19947481,137628260,1.34,1.35,-17.1,-17.09,204.54,204.46,0.0,0.0
1630605462.29943490,137728220,1.34,1.36,-17.12,-17.1,204.52,204.44,0.0,0.0
1630605462.39939499,137828180,1.34,1.36,-17.13,-17.12,204.5,204.42,0.0,0.0
1630605462.50018787,137928973,1.35,1.36,-17.14,-17.14,204.48,204.4,0.0,0.0
1630605462.60014796,138028933,1.34,1.35,-17.13,-17.15,204.46,204.39,0.0,0.0
1630605462.70010781,138128893,1.33,1.35,-17.11,-17.13,204.45,204.38,0.0,0.0
1630605462.80006790,138228853,1.33,1.35,-17.1,-17.11,204.43,204.37,0.0,0.0
1630605462.90002799,138328813,1.34,1.35,-17.13,-17.11,204.42,204.36,0.0,0.0
1630605462.99998784,138428773,1.36,1.36,-17.14,-17.13,204.41,204.35,0.0,0.0
1630605463.09994793,138528733,1.4,1.4,-17.14,-17.15,204.4,204.34,0.0,0.0
1630605463.19990802,138628693,1.42,1.43,-17.13,-17.15,204.39,204.33,0.0,0.0
1630605463.29986787,138728653,1.44,1.46,-17.11,-17.14,204.39,204.32,0.0,0.0
1630605463.39982796,138828613,1.44,1.47,-17.08,-17.11,204.38,204.31,0.0,0.0
1630605463.49978781,138928573,1.44,1.46,-17.06,-17.08,204.38,204.31,0.0,0.0
1630605463.59974790,139028533,1.43,1.46,-17.07,-17.06,204.37,204.31,0.0,0.0
1630605463.69970798,139128493,1.45,1.46,-17.09,-17.08,204.37,204.3,0.0,0.0
1630605463.79966784,139228453,1.48,1.48,-17.1,-17.1,204.37,204.3,0.0,0.0
1630605463.89962792,139328413,1.48,1.49,-17.12,-17.12,204.36,204.3,0.0,0.0
1630605463.99958801,139428373,1.46,1.49,-17.14,-17.15,204.36,204.3,0.0,0.0
1630605464.09954786,139528333,1.44,1.47,-17.14,-17.16,204.36,204.3,0.0,0.0
1630605464.19950795,139628293,1.43,1.45,-17.11,-17.14,204.36,204.3,0.0,0.0
1630605464.29946780,139728253,1.46,1.43,-17.08,-17.12,204.35,204.3,0.0,0.0
1630605464.39942789,139828213,1.5,1.46,-17.06,-17.09,204.35,204.31,0.0,0.0
1630605464.49938798,139928173,1.51,1.49,-17.06,-17.07,204.35,204.3,0.0,0.0
1630605464.60018086,140028966,1.5,1.5,-17.06,-17.07,204.34,204.3,0.0,0.0
1630605464.70014095,140128926,1.46,1.48,-17.05,-17.06,204.34,204.3,0.0,0.0
1630605464.80010080,140228886,1.43,1.44,-17.04,-17.06,204.34,204.3,0.0,0.0
1630605464.90006089,140328846,1.43,1.43,-17.06,-17.06,204.33,204.29,0.0,0.0
1630605465.00002098,140428806,1.44,1.43,-17.08,-17.09,204.33,204.28,0.0,0.0
1630605465.09998083,140528766,1.45,1.44,-17.08,-17.11,204.33,204.28,0.0,0.0
1630605465.19994092,140628726,1.47,1.45,-17.07,-17.11,204.32,204.27,0.0,0.0
1630605465.29990101,140728686,1.49,1.49,-17.07,-17.1,204.32,204.27,0.0,0.0
1630605465.39986086,140828646,1.49,1.52,-17.08,-17.09,204.32,204.26,0.0,0.0
1630605465.49982095,140928606,1.5,1.53,-17.07,-17.08,204.32,204.26,0.0,0.0
1630605465.59978080,141028566,1.5,1.54,-17.07,-17.07,204.32,204.26,0.0,0.0
1630605465.69974089,141128526,1.48,1.53,-17.06,-17.06,204.31,204.26,0.0,0.0
1630605465.79970098,141228486,1.46,1.5,-17.05,-17.05,204.31,204.26,0.0,0.0
1630605465.89966083,141328446,1.47,1.49,-17.03,-17.04,204.31,204.26,0.0,0.0
1630605465.99962091,141428406,1.48,1.48,-17.03,-17.04,204.31,204.26,0.0,0.0
1630605466.09958100,141528366,1.47,1.48,-17.05,-17.05,204.31,204.26,0.0,0.0
1630605466.19954085,141628326,1.46,1.47,-17.09,-17.08,204.3,204.26,0.0,0.0
1630605466.29950094,141728286,1.45,1.46,-17.1,-17.11,204.3,204.26,0.0,0.0
1630605466.39946103,141828246,1.45,1.45,-17.09,-17.11,204.3,204.27,0.0,0.0
1630605466.49942088,141928206,1.47,1.47,-17.09,-17.11,204.3,204.27,0.0,0.0
1630605466.59938097,142028166,1.49,1.49,-17.09,-17.11,204.3,204.27,0.0,0.0
1630605466.70017385,142128959,1.51,1.51,-17.09,-17.11,204.3,204.27,0.0,0.0
1630605466.80013394,142228919,1.53,1.52,-17.1,-17.12,204.3,204.27,0.0,0.0
1630605466.90009403,142328879,1.55,1.54,-17.1,-17.12,204.3,204.26,0.0,0.0
1630605467.00005388,142428839,1.55,1.55,-17.1,-17.12,204.3,204.26,0.0,0.0
1630605467.10001397,142528799,1.56,1.56,-17.09,-17.11,204.3,204.26,0.0,0.0
1630605467.19997382,142628759,1.56,1.57,-17.06,-17.1,204.31,204.26,0.0,0.0
1630605467.29993391,142728719,1.54,1.57,-17.04,-17.08,204.31,204.26,0.0,0.0
1630605467.39989400,142828679,1.54,1.56,-17.03,-17.06,204.31,204.26,0.0,0.0
1630605467.49985385,142928639,1.58,1.57,-17.03,-17.04,204.31,204.26,0.0,0.0
1630605467.59981394,143028599,1.59,1.59,-17.03,-17.04,204.32,204.27,0.0,0.0
1630605467.69977403,143128559,1.58,1.6,-17.04,-17.03,204.32,204.27,0.0,0.0
1630605467.79973388,143228519,1.55,1.58,-17.05,-17.04,204.32,204.27,0.0,0.0
1630605467.89969397,143328479,1.52,1.55,-17.04,-17.05,204.32,204.28,0.0,0.0
1630605467.99965382,143428439,1.53,1.53,-17.06,-17.06,204.33,204.28,0.0,0.0
1630605468.09961390,143528399,1.54,1.53,-17.05,-17.07,204.33,204.29,0.0,0.0
1630605468.19957399,143628359,1.55,1.55,-17.04,-17.05,204.33,204.29,0.0,0.0
1630605468.29953384,143728319,1.57,1.56,-17.03,-17.04,204.33,204.3,0.0,0.0
1630605468.39949393,143828279,1.55,1.56,-17.03,-17.04,204.33,204.3,0.0,0.0
1630605468.49945402,143928239,1.53,1.53,-17.04,-17.05,204.33,204.3,0.0,0.0
1630605468.59941387,144028199,1.51,1.5,-17.05,-17.06,204.33,204.31,0.0,0.0
1630605468.69937396,144128159,1.49,1.47,-17.04,-17.06,204.33,204.31,0.0,0.0
1630605468.80016685,144228952,1.49,1.47,-17.04,-17.06,204.33,204.31,0.0,0.0
1630605468.90012693,144328912,1.5,1.49,-17.05,-17.06,204.33,204.31,0.0,0.0
1630605469.00008702,144428872,1.53,1.51,-17.05,-17.06,204.33,204.31,0.0,0.0
1630605469.10004687,144528832,1.57,1.55,-17.03,-17.05,204.33,204.3,0.0,0.0
1630605469.20000696,144628792,1.56,1.57,-16.99,-17.02,204.33,204.3,0.0,0.0
1630605469.29996681,144728752,1.57,1.58,-16.98,-16.99,204.33,204.3,0.0,0.0
1630605469.39992690,144828712,1.57,1.58,-17.01,-17.0,204.33,204.3,0.0,0.0
1630605469.49988699,144928672,1.59,1.59,-17.03,-17.03,204.34,204.3,0.0,0.0
1630605469.59984684,145028632,1.59,1.59,-17.02,-17.04,204.34,204.3,0.0,0.0
1630605469.69980693,145128592,1.57,1.58,-17.02,-17.04,204.34,204.3,0.0,0.0
1630605469.79976702,145228552,1.58,1.58,-17.04,-17.05,204.34,204.31,0.0,0.0
1630605469.89972687,145328512,1.58,1.58,-17.06,-17.07,204.34,204.31,0.0,0.0
1630605469.99968696,145428472,1.57,1.57,-17.1,-17.11,204.35,204.32,0.0,0.0
1630605470.09964681,145528432,1.55,1.55,-17.1,-17.12,204.35,204.32,0.0,0.0
1630605470.19960690,145628392,1.55,1.54,-17.08,-17.11,204.35,204.33,0.0,0.0
1630605470.29956698,145728352,1.56,1.55,-17.04,-17.08,204.35,204.33,0.0,0.0
1630605470.39952683,145828312,1.58,1.56,-17.03,-17.05,204.36,204.33,0.0,0.0
1630605470.49948692,145928272,1.6,1.59,-17.04,-17.04,204.36,204.33,0.0,0.0
1630605470.59944701,146028232,1.62,1.62,-17.07,-17.05,204.36,204.33,0.0,0.0
1630605470.69940686,146128192,1.63,1.65,-17.11,-17.08,204.36,204.33,0.0,0.0
