timestamp,TimeUS,DesRoll,Roll,DesPitch,Pitch,DesYaw,Yaw,ErrRP,ErrYaw
1630610717.20000005,40028982,0.0,0.08,0.0,0.06,352.89,352.9,0.0,0.0
1630610717.29996014,40128942,0.0,0.08,0.0,0.06,352.89,352.9,0.0,0.0
1630610717.39992023,40228902,0.0,0.08,0.0,0.06,352.89,352.9,0.0,0.0
1630610717.49988008,40328862,0.0,0.08,0.0,0.06,352.89,352.9,0.0,0.0
1630610717.59984016,40428822,0.0,0.08,0.0,0.06,352.89,352.9,0.0,0.0
1630610717.69980001,40528782,0.0,0.08,0.0,0.07,352.89,352.9,0.0,0.0
1630610717.79976010,40628742,0.0,0.09,0.0,0.07,352.89,352.9,0.0,0.0
1630610717.89972019,40728702,0.0,0.09,0.0,0.07,352.89,352.9,0.0,0.0
1630610717.99968004,40828662,0.0,0.09,0.0,0.07,352.89,352.9,0.0,0.0
1630610718.09964013,40928622,0.0,0.09,0.0,0.07,352.89,352.9,0.0,0.0
1630610718.19960022,41028582,0.0,0.09,0.0,0.07,352.89,352.9,0.0,0.0
1630610718.29956007,41128542,0.0,0.09,0.0,0.08,352.89,352.9,0.0,0.0
1630610718.39952016,41228502,0.0,0.09,0.0,0.08,352.89,352.9,0.0,0.0
1630610718.49948001,41328462,0.0,0.1,0.0,0.08,352.89,352.9,0.0,0.0
1630610718.59944010,41428422,0.0,0.1,0.0,0.08,352.89,352.9,0.0,0.0
1630610718.69940019,41528382,0.0,0.1,0.0,0.08,352.89,352.9,0.0,0.0
1630610718.79936004,41628342,0.0,0.1,0.0,0.08,352.89,352.9,0.0,0.0
1630610718.89932013,41728302,0.0,0.1,0.0,0.08,352.88,352.89,0.0,0.0
1630610718.99928021,41828262,0.0,0.1,0.0,0.08,352.88,352.89,0.0,0.0
1630610719.09924006,41928222,0.0,0.1,0.0,0.08,352.88,352.89,0.0,0.0
1630610719.19920015,42028182,0.0,0.1,0.0,0.08,352.88,352.89,0.0,0.0
1630610719.29999304,42128975,0.0,0.1,0.0,0.08,352.88,352.89,0.0,0.0
1630610719.39995313,42228935,0.0,0.1,0.0,0.08,352.88,352.89,0.0,0.0
1630610719.49991322,42328895,0.0,0.1,0.0,0.09,352.88,352.89,0.0,0.0
1630610719.59987307,42428855,0.0,0.1,0.0,0.09,352.88,352.89,0.0,0.0
1630610719.69983315,42528815,0.0,0.1,0.0,0.09,352.88,352.89,0.0,0.0
1630610719.79979300,42628775,0.0,0.1,0.0,0.08,352.88,352.89,0.0,0.0
1630610719.89975309,42728735,0.0,0.1,0.0,0.09,352.88,352.89,0.0,0.0
1630610719.99971318,42828695,0.0,0.1,0.0,0.08,352.88,352.89,0.0,0.0
1630610720.09967303,42928655,0.0,0.1,0.0,0.08,352.88,352.89,0.0,0.0
1630610720.19963312,43028615,-0.09,0.1,-0.09,0.08,352.88,352.88,0.0,0.0
1630610720.29959321,43128575,-0.08,0.1,-0.08,0.08,352.88,352.88,0.0,0.0
1630610720.39955306,43228535,-0.14,0.1,-0.13,0.08,352.88,352.88,0.0,0.0
1630610720.49951315,43328495,-0.21,0.1,-0.2,0.08,352.88,352.88,0.0,0.0
1630610720.59947324,43428455,-0.28,0.1,-0.26,0.08,352.88,352.88,0.0,0.0
1630610720.69943309,43528415,-0.32,0.1,-0.3,0.08,352.88,352.88,0.0,0.0
1630610720.79939318,43628375,-0.35,0.1,-0.33,0.08,352.88,352.88,0.0,0.0
1630610720.89935303,43728335,-0.37,0.1,-0.37,0.08,352.88,352.88,0.0,0.0
1630610720.99931312,43828295,-0.4,0.1,-0.4,0.08,352.88,352.88,0.0,0.0
1630610721.09927320,43928255,-0.41,0.1,-0.41,0.08,352.88,352.88,0.0,0.0
1630610721.19923306,44028215,-0.44,0.1,-0.4,0.08,352.88,352.88,0.0,0.0
1630610721.29919314,44128175,-0.46,0.1,-0.4,0.08,352.88,352.88,0.0,0.0
1630610721.39998603,44228968,-0.49,0.09,-0.42,0.08,352.88,352.88,0.0,0.0
1630610721.49994612,44328928,-0.5,0.09,-0.44,0.08,352.88,352.88,0.0,0.0
1630610721.59990621,44428888,-0.52,0.09,-0.48,0.07,352.88,352.88,0.0,0.0
1630610721.69986606,44528848,-0.53,0.09,-0.47,0.07,352.88,352.88,0.0,0.0
1630610721.79982615,44628808,-0.57,-0.17,-0.46,-0.13,352.88,352.88,0.0,0.0
1630610721.89978623,44728768,-0.58,-0.56,-0.46,-0.45,352.88,352.88,0.0,0.0
1630610721.99974608,44828728,-0.51,-0.86,-0.41,-0.71,352.88,352.88,0.0,0.0
1630610722.09970617,44928688,-0.35,-0.93,-0.28,-0.79,352.88,352.88,0.0,0.0
1630610722.19966602,45028648,-0.1,-0.8,-0.07,-0.69,352.88,352.88,0.0,0.0
1630610722.29962611,45128608,0.18,-0.51,0.12,-0.47,352.88,352.88,0.0,0.0
1630610722.39958620,45228568,0.42,-0.17,0.31,-0.21,352.88,352.88,0.0,0.0
1630610722.49954605,45328528,0.59,0.13,0.48,0.04,352.88,352.88,0.0,0.0
1630610722.59950614,45428488,0.67,0.35,0.58,0.25,352.88,352.89,0.0,0.0
1630610722.69946623,45528448,0.65,0.43,0.61,0.36,352.88,352.89,0.0,0.0
1630610722.79942608,45628408,0.58,0.4,0.58,0.4,352.88,352.88,0.0,0.0
1630610722.89938617,45728368,0.5,0.32,0.51,0.35,352.88,352.88,0.0,0.0
1630610722.99934602,45828328,0.46,0.23,0.44,0.27,352.88,352.88,0.0,0.0
1630610723.09930611,45928288,0.44,0.18,0.38,0.19,352.88,352.88,0.0,0.0
1630610723.19926620,46028248,0.45,0.19,0.36,0.14,352.88,352.88,0.0,0.0
1630610723.29922605,46128208,0.49,0.24,0.39,0.15,352.88,352.88,0.0,0.0
1630610723.39918613,46228168,0.52,0.3,0.44,0.2,352.88,352.88,0.0,0.0
1630610723.49997902,46328961,0.49,0.33,0.46,0.26,352.81,352.82,0.0,0.0
1630610723.59993911,46428921,0.44,0.31,0.42,0.28,352.81,352.82,0.0,0.0
1630610723.69989920,46528881,0.41,0.28,0.38,0.27,352.81,352.81,0.0,0.0
1630610723.79985905,46628841,0.41,0.26,0.32,0.25,352.81,352.81,0.0,0.0
1630610723.89981914,46728801,0.42,0.28,0.27,0.21,352.81,352.82,0.0,0.0
1630610723.99977922,46828761,0.38,0.26,0.24,0.17,352.81,352.82,0.0,0.0
1630610724.09973907,46928721,0.33,0.24,0.22,0.12,352.81,352.82,0.0,0.0
1630610724.19969916,47028681,0.32,0.22,0.23,0.12,352.81,352.82,0.0,0.0
1630610724.29965901,47128641,0.29,0.21,0.23,0.13,352.81,352.82,0.0,0.0
1630610724.39961910,47228601,0.28,0.2,0.23,0.16,352.81,352.82,0.0,0.0
1630610724.49957919,47328561,0.27,0.19,0.24,0.18,352.81,352.82,0.0,0.0
1630610724.59953904,47428521,0.28,0.2,0.2,0.18,352.81,352.82,0.0,0.0
1630610724.69949913,47528481,0.3,0.24,0.14,0.13,352.81,352.82,0.0,0.0
1630610724.79945922,47628441,0.27,0.25,0.11,0.09,352.81,352.82,0.0,0.0
1630610724.89941907,47728401,0.2,0.21,0.1,0.05,352.81,352.82,0.0,0.0
1630610724.99937916,47828361,0.13,0.14,0.1,0.04,352.81,352.82,0.0,0.0
1630610725.09933901,47928321,0.12,0.09,0.07,0.03,352.81,352.82,0.0,0.0
1630610725.19929910,48028281,0.12,0.07,0.04,0.01,352.81,352.82,0.0,0.0
1630610725.29925919,48128241,0.11,0.07,0.02,0.0,352.81,352.82,0.0,0.0
1630610725.39921904,48228201,0.1,0.06,0.01,-0.02,352.81,352.82,0.0,0.0
1630610725.49917912,48328161,0.06,0.04,0.0,-0.03,352.81,352.82,0.0,0.0
1630610725.59997201,48428954,0.03,0.02,0.01,-0.03,352.81,352.82,0.0,0.0
1630610725.69993210,48528914,0.01,0.0,0.03,0.0,352.81,352.82,0.0,0.0
1630610725.79989219,48628874,0.0,-0.03,0.02,0.0,352.81,352.82,0.0,0.0
1630610725.89985204,48728834,-0.01,-0.04,0.01,0.01,352.81,352.82,0.0,0.0
1630610725.99981213,48828794,0.0,-0.05,-0.01,0.0,352.81,352.82,0.0,0.0
1630610726.09977221,48928754,0.03,-0.02,-0.05,-0.03,352.81,352.82,0.0,0.0
1630610726.19973207,49028714,0.07,0.02,-0.07,-0.06,352.81,352.82,0.0,0.0
1630610726.29969215,49128674,0.11,0.07,-0.07,-0.09,352.81,352.82,0.0,0.0
1630610726.39965224,49228634,0.13,0.12,-0.04,-0.09,352.81,352.82,0.0,0.0
1630610726.49961209,49328594,0.13,0.15,-0.03,-0.06,352.81,352.82,0.0,0.0
1630610726.59957218,49428554,0.09,0.13,-0.03,-0.04,352.81,352.82,0.0,0.0
1630610726.69953203,49528514,0.07,0.09,-0.05,-0.03,352.81,352.83,0.0,0.0
1630610726.79949212,49628474,0.05,0.06,-0.07,-0.05,352.81,352.83,0.0,0.0
1630610726.89945221,49728434,0.04,0.03,-0.05,-0.06,352.81,352.82,0.0,0.0
1630610726.99941206,49828394,0.01,0.01,0.01,-0.03,352.81,352.82,0.0,0.0
1630610727.09937215,49928354,0.02,0.0,0.1,0.04,352.81,352.82,0.0,0.0
1630610727.19933224,50028314,0.05,0.01,0.13,0.11,352.81,352.81,0.0,0.0
1630610727.29929209,50128274,0.08,0.05,0.11,0.13,352.81,352.81,0.0,0.0
1630610727.39925218,50228234,0.09,0.08,0.07,0.1,352.81,352.81,0.0,0.0
1630610727.49921203,50328194,0.11,0.1,0.03,0.07,352.81,352.81,0.0,0.0
1630610727.59917212,50428154,0.1,0.11,-0.01,0.01,352.81,352.81,0.0,0.0
1630610727.69996524,50528947,0.1,0.11,-0.04,-0.04,352.81,352.81,0.0,0.0
1630610727.79992509,50628907,0.09,0.09,-0.03,-0.06,352.81,352.81,0.0,0.0
1630610727.89988518,50728867,0.09,0.08,0.02,-0.03,352.81,352.81,0.0,0.0
1630610727.99984503,50828827,0.09,0.07,0.1,0.04,352.81,352.82,0.0,0.0
1630610728.09980512,50928787,0.13,0.09,0.16,0.13,352.81,352.82,0.0,0.0
1630610728.19976521,51028747,0.16,0.13,0.16,0.19,352.81,352.82,0.0,0.0
1630610728.29972506,51128707,0.17,0.16,0.12,0.18,352.81,352.82,0.0,0.0
1630610728.39968514,51228667,0.19,0.18,0.08,0.13,352.81,352.82,0.0,0.0
1630610728.49964523,51328627,0.22,0.21,0.07,0.08,352.81,352.82,0.0,0.0
1630610728.59960508,51428587,0.2,0.23,0.09,0.06,352.81,352.82,0.0,0.0
1630610728.69956517,51528547,0.15,0.2,0.14,0.09,352.81,352.82,0.0,0.0
1630610728.79952502,51628507,0.1,0.14,0.16,0.13,352.81,352.82,0.0,0.0
1630610728.89948511,51728467,0.06,0.07,0.15,0.15,352.81,352.82,0.0,0.0
1630610728.99944520,51828427,0.04,0.02,0.14,0.16,352.81,352.82,0.0,0.0
1630610729.09940505,51928387,0.03,0.01,0.14,0.15,352.81,352.82,0.0,0.0
1630610729.19936514,52028347,0.03,0.01,0.15,0.15,352.81,352.82,0.0,0.0
1630610729.29932523,52128307,0.03,0.02,0.14,0.14,352.81,352.82,0.0,0.0
1630610729.39928508,52228267,0.02,0.02,0.1,0.12,352.81,352.82,0.0,0.0
1630610729.49924517,52328227,0.04,0.02,0.09,0.09,352.81,352.82,0.0,0.0
1630610729.59920502,52428187,0.06,0.03,0.09,0.09,352.81,352.82,0.0,0.0
1630610729.69999814,52528980,0.08,0.04,0.08,0.08,352.81,352.82,0.0,0.0
1630610729.79995823,52628940,0.07,0.06,0.06,0.06,352.81,352.82,0.0,0.0
1630610729.89991808,52728900,0.06,0.06,0.07,0.05,352.81,352.82,0.0,0.0
1630610729.99987817,52828860,0.08,0.07,0.09,0.05,352.81,352.82,0.0,0.0
1630610730.09983802,52928820,0.07,0.07,0.14,0.1,352.81,352.82,0.0,0.0
1630610730.19979811,53028780,0.06,0.06,0.17,0.15,352.81,352.82,0.0,0.0
1630610730.29975820,53128740,0.07,0.06,0.15,0.16,352.81,352.82,0.0,0.0
1630610730.39971805,53228700,0.05,0.06,0.12,0.15,352.81,352.82,0.0,0.0
1630610730.49967813,53328660,0.04,0.05,0.08,0.11,352.81,352.81,0.0,0.0
1630610730.59963822,53428620,0.04,0.04,0.07,0.06,352.81,352.81,0.0,0.0
1630610730.69959807,53528580,0.05,0.04,0.08,0.05,352.81,352.82,0.0,0.0
1630610730.79955816,53628540,0.05,0.05,0.13,0.09,352.81,352.82,0.0,0.0
1630610730.89951801,53728500,0.08,0.06,0.15,0.13,352.81,352.82,0.0,0.0
1630610730.99947810,53828460,0.12,0.09,0.17,0.16,352.81,352.82,0.0,0.0
1630610731.09943819,53928420,0.14,0.13,0.16,0.17,352.81,352.83,0.0,0.0
1630610731.19939804,54028380,0.14,0.14,0.13,0.16,352.81,352.83,0.0,0.0
1630610731.29935813,54128340,0.09,0.12,0.08,0.12,352.81,352.83,0.0,0.0
1630610731.39931822,54228300,0.04,0.07,0.04,0.07,352.81,352.83,0.0,0.0
1630610731.49927807,54328260,0.0,0.01,0.01,0.02,352.81,352.83,0.0,0.0
1630610731.59923816,54428220,0.01,-0.01,0.03,0.0,352.81,352.82,0.0,0.0
1630610731.69919801,54528180,0.04,0.0,0.07,0.02,352.81,352.82,0.0,0.0
1630610731.79999113,54628973,0.06,0.02,0.07,0.05,352.81,352.82,0.0,0.0
1630610731.89995122,54728933,0.07,0.06,0.03,0.04,352.81,352.82,0.0,0.0
1630610731.99991107,54828893,0.11,0.1,0.01,0.01,352.81,352.82,0.0,0.0
1630610732.09987116,54928853,0.11,0.12,0.0,-0.01,352.81,352.82,0.0,0.0
1630610732.19983101,55028813,0.09,0.12,0.0,-0.02,352.81,352.82,0.0,0.0
1630610732.29979110,55128773,0.03,0.08,0.0,-0.01,352.81,352.82,0.0,0.0
1630610732.39975119,55228733,0.0,0.02,-0.01,-0.02,352.81,352.82,0.0,0.0
1630610732.49971104,55328693,0.0,0.0,0.01,0.0,352.81,352.82,0.0,0.0
1630610732.59967113,55428653,0.01,0.0,0.07,0.04,352.81,352.82,0.0,0.0
1630610732.69963121,55528613,0.05,0.01,0.07,0.08,352.81,352.82,0.0,0.0
1630610732.79959106,55628573,0.08,0.05,0.06,0.08,352.81,352.82,0.0,0.0
1630610732.89955115,55728533,0.07,0.07,0.04,0.06,352.81,352.82,0.0,0.0
1630610732.99951124,55828493,0.05,0.05,0.03,0.04,352.81,352.82,0.0,0.0
1630610733.09947109,55928453,0.06,0.05,0.04,0.03,352.81,352.82,0.0,0.0
1630610733.19943118,56028413,0.08,0.07,0.04,0.03,352.81,352.82,0.0,0.0
1630610733.29939103,56128373,0.08,0.08,0.05,0.03,352.81,352.82,0.0,0.0
1630610733.39935112,56228333,0.08,0.08,0.03,0.03,352.81,352.82,0.0,0.0
1630610733.49931121,56328293,0.07,0.07,0.02,0.02,352.81,352.82,0.0,0.0
1630610733.59927106,56428253,0.05,0.05,0.04,0.03,352.81,352.82,0.0,0.0
1630610733.69923115,56528213,0.06,0.04,0.04,0.04,352.81,352.82,0.0,0.0
1630610733.79919124,56628173,0.08,0.06,0.04,0.04,352.81,352.82,0.0,0.0
1630610733.89998412,56728966,0.11,0.08,0.03,0.04,352.81,352.82,0.0,0.0
1630610733.99994421,56828926,0.11,0.1,0.02,0.03,352.81,352.82,0.0,0.0
1630610734.09990406,56928886,0.09,0.11,0.03,0.03,352.81,352.82,0.0,0.0
1630610734.19986415,57028846,0.08,0.1,0.04,0.04,352.81,352.81,0.0,0.0
1630610734.29982424,57128806,0.06,0.1,0.07,0.05,352.81,352.81,0.0,0.0
1630610734.39978409,57228766,0.05,0.07,0.08,0.06,352.81,352.81,0.0,0.0
1630610734.49974418,57328726,0.06,0.05,0.11,0.08,352.81,352.81,0.0,0.0
1630610734.59970403,57428686,0.06,0.05,0.14,0.11,352.81,352.81,0.0,0.0
1630610734.69966412,57528646,0.04,0.04,0.16,0.15,352.81,352.81,0.0,0.0
1630610734.79962420,57628606,0.05,0.03,0.14,0.16,352.81,352.81,0.0,0.0
1630610734.89958405,57728566,0.1,0.05,0.15,0.16,352.81,352.81,0.0,0.0
1630610734.99954414,57828526,0.12,0.1,0.16,0.17,352.81,352.81,0.0,0.0
1630610735.09950423,57928486,0.13,0.13,0.16,0.17,352.81,352.81,0.0,0.0
1630610735.19946408,58028446,0.11,0.14,0.14,0.16,352.81,352.81,0.0,0.0
1630610735.29942417,58128406,0.07,0.1,0.11,0.12,352.81,352.81,0.0,0.0
1630610735.39938402,58228366,0.05,0.06,0.1,0.1,352.81,352.81,0.0,0.0
1630610735.49934411,58328326,0.02,0.02,0.1,0.09,352.81,352.82,0.0,0.0
1630610735.59930420,58428286,0.04,0.01,0.11,0.09,352.81,352.82,0.0,0.0
1630610735.69926405,58528246,0.05,0.02,0.12,0.1,352.81,352.82,0.0,0.0
1630610735.79922414,58628206,0.06,0.04,0.12,0.11,352.81,352.82,0.0,0.0
1630610735.89918423,58728166,0.08,0.06,0.14,0.12,352.81,352.82,0.0,0.0
1630610735.99997711,58828959,0.07,0.07,0.14,0.13,352.81,352.82,0.0,0.0
1630610736.09993720,58928919,0.08,0.08,0.11,0.12,352.81,352.82,0.0,0.0
1630610736.19989705,59028879,0.09,0.09,0.07,0.09,352.81,352.82,0.0,0.0
1630610736.29985714,59128839,0.11,0.1,0.04,0.06,352.81,352.82,0.0,0.0
1630610736.39981723,59228799,0.11,0.11,0.03,0.03,352.81,352.81,0.0,0.0
1630610736.49977708,59328759,0.12,0.12,0.05,0.03,352.81,352.81,0.0,0.0
1630610736.59973717,59428719,0.13,0.12,0.08,0.06,352.81,352.81,0.0,0.0
1630610736.69969702,59528679,0.11,0.12,0.08,0.07,352.81,352.81,0.0,0.0
1630610736.79965711,59628639,0.11,0.1,0.07,0.06,352.81,352.81,0.0,0.0
1630610736.89961720,59728599,0.08,0.08,0.04,0.04,352.81,352.81,0.0,0.0
1630610736.99957705,59828559,0.07,0.06,0.03,0.02,352.81,352.81,0.0,0.0
1630610737.09953713,59928519,0.08,0.05,0.02,0.01,352.81,352.81,0.0,0.0
1630610737.19949722,60028479,0.12,0.07,0.0,0.0,352.81,352.82,0.0,0.0
1630610737.29945707,60128439,0.11,0.09,-0.01,-0.01,352.81,352.82,0.0,0.0
1630610737.39941716,60228399,0.11,0.09,0.0,-0.01,352.81,352.82,0.0,0.0
1630610737.49937701,60328359,0.11,0.1,0.04,0.0,352.81,352.82,0.0,0.0
1630610737.59933710,60428319,0.11,0.1,0.06,0.03,352.81,352.82,0.0,0.0
1630610737.69929719,60528279,0.1,0.1,0.07,0.06,352.81,352.82,0.0,0.0
1630610737.79925704,60628239,0.09,0.1,0.05,0.07,352.81,352.82,0.0,0.0
1630610737.89921713,60728199,0.11,0.1,0.02,0.04,352.81,352.82,0.0,0.0
1630610737.99917722,60828159,0.14,0.12,0.03,0.03,352.81,352.82,0.0,0.0
1630610738.09997010,60928952,0.14,0.14,0.01,0.02,352.81,352.82,0.0,0.0
1630610738.19993019,61028912,0.11,0.13,0.0,0.0,352.81,352.81,0.0,0.0
1630610738.29989004,61128872,0.08,0.1,0.02,0.01,352.81,352.81,0.0,0.0
1630610738.39985013,61228832,0.09,0.08,0.05,0.03,352.81,352.81,0.0,0.0
1630610738.49981022,61328792,0.12,0.09,0.07,0.05,352.81,352.81,0.0,0.0
1630610738.59977007,61428752,0.13,0.11,0.09,0.08,352.81,352.81,0.0,0.0
1630610738.69973016,61528712,0.13,0.13,0.1,0.09,352.81,352.81,0.0,0.0
1630610738.79969001,61628672,0.13,0.13,0.1,0.09,352.81,352.81,0.0,0.0
1630610738.89965010,61728632,0.14,0.13,0.12,0.1,352.81,352.81,0.0,0.0
1630610738.99961019,61828592,0.14,0.13,0.14,0.13,352.81,352.81,0.0,0.0
1630610739.09957004,61928552,0.15,0.14,0.13,0.14,352.81,352.81,0.0,0.0
1630610739.19953012,62028512,0.15,0.15,0.07,0.1,352.81,352.81,0.0,0.0
1630610739.29949021,62128472,0.11,0.14,0.05,0.06,352.81,352.81,0.0,0.0
1630610739.39945006,62228432,0.1,0.12,0.06,0.04,352.81,352.81,0.0,0.0
1630610739.49941015,62328392,0.13,0.12,0.09,0.06,352.81,352.81,0.0,0.0
1630610739.59937024,62428352,0.15,0.13,0.11,0.09,352.81,352.81,0.0,0.0
1630610739.69933009,62528312,0.14,0.14,0.13,0.12,352.81,352.81,0.0,0.0
1630610739.79929018,62628272,0.12,0.13,0.12,0.14,352.81,352.81,0.0,0.0
1630610739.89925003,62728232,0.07,0.09,0.09,0.12,352.81,352.81,0.0,0.0
1630610739.99921012,62828192,0.06,0.06,0.08,0.08,352.81,352.82,0.0,0.0
1630610740.10000324,62928985,0.07,0.05,0.07,0.07,352.81,352.82,0.0,0.0
1630610740.19996309,63028945,0.07,0.06,0.08,0.06,352.81,352.82,0.0,0.0
1630610740.29992318,63128905,0.06,0.06,0.1,0.07,352.81,352.82,0.0,0.0
1630610740.39988303,63228865,0.05,0.06,0.11,0.09,352.81,352.82,0.0,0.0
1630610740.49984312,63328825,0.02,0.04,0.16,0.12,352.81,352.82,0.0,0.0
1630610740.59980321,63428785,0.03,0.02,0.2,0.18,352.81,352.82,0.0,0.0
1630610740.69976306,63528745,0.05,0.03,0.2,0.22,352.81,352.82,0.0,0.0
1630610740.79972315,63628705,0.06,0.04,0.19,0.22,352.81,352.82,0.0,0.0
1630610740.89968324,63728665,0.09,0.07,0.17,0.2,352.81,352.82,0.0,0.0
1630610740.99964309,63828625,0.1,0.08,0.16,0.17,352.81,352.82,0.0,0.0
1630610741.09960318,63928585,0.11,0.1,0.13,0.14,352.81,352.82,0.0,0.0
1630610741.19956303,64028545,0.1,0.1,0.12,0.12,352.81,352.82,0.0,0.0
1630610741.29952312,64128505,0.09,0.09,0.13,0.11,352.81,352.81,0.0,0.0
1630610741.39948320,64228465,0.07,0.07,0.13,0.11,352.81,352.81,0.0,0.0
1630610741.49944305,64328425,0.07,0.06,0.1,0.09,352.81,352.81,0.0,0.0
1630610741.59940314,64428385,0.08,0.06,0.09,0.08,352.81,352.81,0.0,0.0
1630610741.69936323,64528345,0.08,0.07,0.08,0.07,352.81,352.81,0.0,0.0
1630610741.79932308,64628305,0.11,0.08,0.08,0.06,352.81,352.82,0.0,0.0
1630610741.89928317,64728265,0.13,0.12,0.09,0.07,352.81,352.82,0.0,0.0
1630610741.99924302,64828225,0.12,0.13,0.07,0.07,352.81,352.82,0.0,0.0
1630610742.09920311,64928185,0.14,0.13,0.07,0.06,352.81,352.82,0.0,0.0
1630610742.19999623,65028978,0.14,0.13,0.08,0.07,352.81,352.82,0.0,0.0
1630610742.29995608,65128938,0.15,0.13,0.08,0.07,352.81,352.82,0.0,0.0
1630610742.39991617,65228898,0.18,0.15,0.08,0.08,352.81,352.82,0.0,0.0
1630610742.49987602,65328858,0.16,0.16,0.09,0.08,352.81,352.82,0.0,0.0
1630610742.59983611,65428818,0.1,0.12,0.12,0.1,352.81,352.82,0.0,0.0
1630610742.69979620,65528778,0.07,0.08,0.14,0.13,352.81,352.82,0.0,0.0
1630610742.79975605,65628738,0.05,0.04,0.15,0.15,352.81,352.82,0.0,0.0
1630610742.89971614,65728698,0.07,0.04,0.11,0.13,352.81,352.82,0.0,0.0
1630610742.99967623,65828658,0.07,0.04,0.09,0.1,352.81,352.82,0.0,0.0
1630610743.09963608,65928618,0.07,0.05,0.07,0.08,352.81,352.82,0.0,0.0
1630610743.19959617,66028578,0.07,0.06,0.05,0.05,352.81,352.82,0.0,0.0
1630610743.29955602,66128538,0.06,0.06,0.02,0.01,352.81,352.82,0.0,0.0
1630610743.39951611,66228498,0.04,0.04,0.02,0.0,352.81,352.82,0.0,0.0
1630610743.49947619,66328458,0.03,0.02,0.04,0.01,352.81,352.81,0.0,0.0
1630610743.59943604,66428418,0.05,0.02,0.07,0.03,352.81,352.81,0.0,0.0
1630610743.69939613,66528378,0.06,0.03,0.1,0.05,352.81,352.81,0.0,0.0
1630610743.79935622,66628338,0.07,0.04,0.11,0.08,352.81,352.81,0.0,0.0
1630610743.89931607,66728298,0.06,0.05,0.11,0.1,352.81,352.81,0.0,0.0
1630610743.99927616,66828258,0.07,0.07,0.11,0.11,352.81,352.81,0.0,0.0
1630610744.09923601,66928218,0.09,0.08,0.08,0.09,352.81,352.81,0.0,0.0
1630610744.19919610,67028178,0.08,0.09,0.05,0.06,352.81,352.81,0.0,0.0
1630610744.29998922,67128971,0.07,0.09,0.04,0.03,352.81,352.82,0.0,0.0
1630610744.39994907,67228931,0.08,0.08,0.08,0.05,352.81,352.82,0.0,0.0
1630610744.49990916,67328891,0.14,0.11,0.11,0.08,352.81,352.82,0.0,0.0
1630610744.59986901,67428851,0.18,0.16,0.13,0.12,352.81,352.82,0.0,0.0
1630610744.69982910,67528811,0.22,0.21,0.12,0.13,352.81,352.83,0.0,0.0
1630610744.79978919,67628771,0.19,0.22,0.11,0.13,352.81,352.83,0.0,0.0
1630610744.89974904,67728731,0.18,0.2,0.11,0.12,352.81,352.83,0.0,0.0
1630610744.99970913,67828691,0.18,0.18,0.1,0.11,352.81,352.82,0.0,0.0
1630610745.09966922,67928651,0.16,0.17,0.08,0.08,352.81,352.82,0.0,0.0
1630610745.19962907,68028611,0.14,0.16,0.1,0.08,352.81,352.82,0.0,0.0
1630610745.29958916,68128571,0.1,0.14,0.12,0.09,352.81,352.82,0.0,0.0
1630610745.39954901,68228531,0.1,0.1,0.14,0.11,352.81,352.82,0.0,0.0
1630610745.49950910,68328491,0.13,0.1,0.16,0.15,352.81,352.82,0.0,0.0
1630610745.59946918,68428451,0.17,0.13,0.17,0.17,352.81,352.82,0.0,0.0
1630610745.69942904,68528411,0.19,0.16,0.17,0.18,352.81,352.82,0.0,0.0
1630610745.79938912,68628371,0.19,0.17,0.15,0.17,352.81,352.82,0.0,0.0
1630610745.89934921,68728331,0.18,0.17,0.12,0.14,352.81,352.82,0.0,0.0
1630610745.99930906,68828291,0.14,0.15,0.08,0.09,352.81,352.82,0.0,0.0
1630610746.09926915,68928251,0.14,0.14,0.09,0.07,352.81,352.82,0.0,0.0
1630610746.19922924,69028211,0.15,0.14,0.12,0.08,352.81,352.82,0.0,0.0
1630610746.29918909,69128171,0.15,0.14,0.14,0.11,352.81,352.82,0.0,0.0
1630610746.39998221,69228964,0.16,0.15,0.15,0.13,352.81,352.82,0.0,0.0
1630610746.49994206,69328924,0.15,0.15,0.18,0.16,352.81,352.82,0.0,0.0
1630610746.59990215,69428884,0.11,0.13,0.18,0.19,352.81,352.82,0.0,0.0
1630610746.69986224,69528844,0.08,0.1,0.15,0.19,352.81,352.82,0.0,0.0
1630610746.79982209,69628804,0.1,0.08,0.13,0.16,352.81,352.82,0.0,0.0
1630610746.89978218,69728764,0.13,0.09,0.1,0.13,352.81,352.82,0.0,0.0
1630610746.99974203,69828724,0.13,0.1,0.09,0.09,352.81,352.82,0.0,0.0
1630610747.09970212,69928684,0.12,0.1,0.11,0.09,352.81,352.82,0.0,0.0
1630610747.19966221,70028644,0.09,0.08,0.12,0.1,352.81,352.81,0.0,0.0
1630610747.29962206,70128604,0.08,0.07,0.09,0.09,352.81,352.81,0.0,0.0
1630610747.39958215,70228564,0.11,0.08,0.06,0.06,352.81,352.81,0.0,0.0
1630610747.49954224,70328524,0.15,0.12,0.06,0.04,352.81,352.81,0.0,0.0
1630610747.59950209,70428484,0.17,0.16,0.04,0.03,352.81,352.81,0.0,0.0
1630610747.69946218,70528444,0.15,0.16,0.05,0.03,352.81,352.81,0.0,0.0
1630610747.79942203,70628404,0.13,0.15,0.07,0.04,352.81,352.81,0.0,0.0
1630610747.89938211,70728364,0.11,0.13,0.06,0.05,352.81,352.82,0.0,0.0
1630610747.99934220,70828324,0.09,0.1,0.04,0.04,352.81,352.82,0.0,0.0
1630610748.09930205,70928284,0.08,0.08,0.05,0.04,352.81,352.82,0.0,0.0
1630610748.19926214,71028244,0.07,0.06,0.07,0.05,352.81,352.82,0.0,0.0
1630610748.29922223,71128204,0.05,0.05,0.1,0.08,352.81,352.82,0.0,0.0
1630610748.39918208,71228164,0.02,0.03,0.1,0.1,352.81,352.81,0.0,0.0
1630610748.49997520,71328957,0.02,0.01,0.09,0.09,352.81,352.81,0.0,0.0
1630610748.59993505,71428917,0.04,0.02,0.08,0.07,352.81,352.81,0.0,0.0
1630610748.69989514,71528877,0.07,0.04,0.07,0.05,352.81,352.81,0.0,0.0
1630610748.79985523,71628837,0.09,0.07,0.09,0.05,352.81,352.81,0.0,0.0
1630610748.89981508,71728797,0.11,0.1,0.1,0.07,352.81,352.81,0.0,0.0
1630610748.99977517,71828757,0.14,0.13,0.14,0.11,352.81,352.81,0.0,0.0
1630610749.09973502,71928717,0.12,0.14,0.15,0.14,352.81,352.81,0.0,0.0
1630610749.19969511,72028677,0.07,0.11,0.1,0.13,352.81,352.81,0.0,0.0
1630610749.29965520,72128637,0.05,0.06,0.07,0.09,352.81,352.81,0.0,0.0
1630610749.39961505,72228597,0.04,0.03,0.07,0.06,352.81,352.81,0.0,0.0
1630610749.49957514,72328557,0.04,0.02,0.07,0.06,352.81,352.81,0.0,0.0
1630610749.59953523,72428517,0.07,0.04,0.08,0.06,352.81,352.81,0.0,0.0
1630610749.69949508,72528477,0.09,0.07,0.08,0.07,352.81,352.81,0.0,0.0
1630610749.79945517,72628437,0.08,0.09,0.08,0.08,352.81,352.81,0.0,0.0
1630610749.89941502,72728397,0.03,0.06,0.1,0.09,352.81,352.81,0.0,0.0
1630610749.99937510,72828357,-0.01,0.0,0.13,0.11,352.81,352.81,0.0,0.0
1630610750.09933519,72928317,-0.03,-0.04,0.1,0.12,352.81,352.81,0.0,0.0
1630610750.19929504,73028277,0.01,-0.04,0.08,0.09,352.81,352.82,0.0,0.0
1630610750.29925513,73128237,0.06,0.0,0.08,0.08,352.81,352.82,0.0,0.0
1630610750.39921522,73228197,0.09,0.04,0.06,0.06,352.81,352.82,0.0,0.0
1630610750.49917507,73328157,0.1,0.08,0.04,0.04,352.81,352.83,0.0,0.0
1630610750.59996819,73428950,0.13,0.11,0.07,0.04,352.81,352.83,0.0,0.0
1630610750.69992805,73528910,0.14,0.14,0.1,0.07,352.81,352.83,0.0,0.0
1630610750.79988813,73628870,0.14,0.15,0.09,0.09,352.81,352.82,0.0,0.0
1630610750.89984822,73728830,0.17,0.16,0.07,0.09,352.81,352.82,0.0,0.0
1630610750.99980807,73828790,0.19,0.19,0.04,0.06,352.81,352.82,0.0,0.0
1630610751.09976816,73928750,0.18,0.19,0.04,0.04,352.81,352.82,0.0,0.0
1630610751.19972801,74028710,0.15,0.17,0.04,0.04,352.81,352.81,0.0,0.0
1630610751.29968810,74128670,0.15,0.14,0.07,0.04,352.81,352.81,0.0,0.0
1630610751.39964819,74228630,0.17,0.15,0.11,0.07,352.81,352.81,0.0,0.0
1630610751.49960804,74328590,0.19,0.17,0.11,0.1,352.81,352.81,0.0,0.0
1630610751.59956813,74428550,0.19,0.19,0.1,0.1,352.81,352.81,0.0,0.0
1630610751.69952822,74528510,0.19,0.2,0.08,0.09,352.81,352.81,0.0,0.0
1630610751.79948807,74628470,0.19,0.2,0.03,0.06,352.81,352.81,0.0,0.0
1630610751.89944816,74728430,0.19,0.2,0.01,0.02,352.81,352.81,0.0,0.0
1630610751.99940801,74828390,0.19,0.2,0.0,0.0,352.81,352.81,0.0,0.0
1630610752.09936810,74928350,0.15,0.18,-0.01,-0.01,352.81,352.81,0.0,0.0
1630610752.19932818,75028310,0.11,0.13,0.01,-0.01,352.81,352.81,0.0,0.0
1630610752.29928803,75128270,0.11,0.1,0.03,0.01,352.81,352.81,0.0,0.0
1630610752.39924812,75228230,0.15,0.11,0.03,0.02,352.81,352.81,0.0,0.0
1630610752.49920821,75328190,0.17,0.13,0.05,0.03,352.81,352.8,0.0,0.0
1630610752.60000110,75428983,0.21,0.17,0.07,0.06,352.81,352.8,0.0,0.0
1630610752.69996119,75528943,0.24,0.21,0.08,0.08,352.81,352.8,0.0,0.0
1630610752.79992104,75628903,0.23,0.23,0.04,0.06,352.81,352.8,0.0,0.0
1630610752.89988112,75728863,0.18,0.2,0.05,0.05,352.81,352.8,0.0,0.0
1630610752.99984121,75828823,0.15,0.16,0.06,0.05,352.81,352.81,0.0,0.0
1630610753.09980106,75928783,0.16,0.15,0.07,0.06,352.81,352.81,0.0,0.0
1630610753.19976115,76028743,0.18,0.16,0.08,0.07,352.81,352.81,0.0,0.0
1630610753.29972124,76128703,0.16,0.16,0.09,0.09,352.81,352.82,0.0,0.0
1630610753.39968109,76228663,0.14,0.15,0.11,0.11,352.81,352.82,0.0,0.0
1630610753.49964118,76328623,0.15,0.15,0.09,0.1,352.81,352.81,0.0,0.0
1630610753.59960103,76428583,0.18,0.16,0.08,0.07,352.81,352.81,0.0,0.0
1630610753.69956112,76528543,0.18,0.18,0.11,0.09,352.81,352.81,0.0,0.0
1630610753.79952121,76628503,0.18,0.18,0.12,0.11,352.81,352.81,0.0,0.0
1630610753.89948106,76728463,0.16,0.17,0.12,0.12,352.81,352.81,0.0,0.0
1630610753.99944115,76828423,0.13,0.14,0.12,0.12,352.81,352.81,0.0,0.0
1630610754.09940124,76928383,0.1,0.11,0.14,0.11,352.81,352.81,0.0,0.0
1630610754.19936109,77028343,0.09,0.08,0.12,0.11,352.81,352.82,0.0,0.0
1630610754.29932117,77128303,0.12,0.09,0.12,0.1,352.81,352.81,0.0,0.0
1630610754.39928102,77228263,0.16,0.13,0.14,0.12,352.81,352.81,0.0,0.0
1630610754.49924111,77328223,0.2,0.18,0.14,0.14,352.81,352.81,0.0,0.0
1630610754.59920120,77428183,0.19,0.2,0.11,0.13,352.81,352.81,0.0,0.0
1630610754.69999409,77528976,0.15,0.17,0.12,0.11,352.81,352.81,0.0,0.0
1630610754.79995418,77628936,0.11,0.13,0.11,0.1,352.81,352.82,0.0,0.0
1630610754.89991403,77728896,0.11,0.1,0.08,0.07,352.81,352.82,0.0,0.0
1630610754.99987411,77828856,0.13,0.1,0.08,0.05,352.81,352.82,0.0,0.0
1630610755.09983420,77928816,0.14,0.12,0.13,0.08,352.81,352.82,0.0,0.0
1630610755.19979405,78028776,0.16,0.13,0.16,0.13,352.81,352.82,0.0,0.0
1630610755.29975414,78128736,0.16,0.15,0.13,0.15,352.81,352.82,0.0,0.0
1630610755.39971423,78228696,0.15,0.15,0.06,0.11,352.81,352.82,0.0,0.0
1630610755.49967408,78328656,0.12,0.14,0.01,0.06,352.81,352.82,0.0,0.0
1630610755.59963417,78428616,0.12,0.12,0.03,0.02,352.81,352.82,0.0,0.0
1630610755.69959402,78528576,0.12,0.12,0.09,0.05,352.81,352.82,0.0,0.0
1630610755.79955411,78628536,0.12,0.11,0.14,0.1,352.81,352.82,0.0,0.0
1630610755.89951420,78728496,0.1,0.1,0.17,0.15,352.81,352.82,0.0,0.0
1630610755.99947405,78828456,0.08,0.08,0.17,0.18,352.81,352.81,0.0,0.0
1630610756.09943414,78928416,0.09,0.08,0.16,0.17,352.81,352.81,0.0,0.0
1630610756.19939423,79028376,0.09,0.08,0.14,0.15,352.81,352.81,0.0,0.0
1630610756.29935408,79128336,0.11,0.09,0.13,0.13,352.81,352.81,0.0,0.0
1630610756.39931417,79228296,0.12,0.11,0.11,0.11,352.81,352.81,0.0,0.0
1630610756.49927402,79328256,0.09,0.1,0.11,0.09,352.81,352.81,0.0,0.0
1630610756.59923410,79428216,0.07,0.07,0.15,0.11,352.81,352.81,0.0,0.0
1630610756.69919419,79528176,0.07,0.05,0.18,0.15,352.81,352.81,0.0,0.0
1630610756.79998708,79628969,0.09,0.07,0.18,0.17,352.81,352.81,0.0,0.0
1630610756.89994717,79728929,0.12,0.1,0.17,0.18,352.81,352.81,0.0,0.0
1630610756.99990702,79828889,0.13,0.13,0.16,0.18,352.81,352.82,0.0,0.0
1630610757.09986711,79928849,0.09,0.12,0.12,0.16,352.81,352.81,0.0,0.0
1630610757.19982719,80028809,0.04,0.07,0.09,0.11,352.81,352.81,0.0,0.0
1630610757.29978704,80128769,0.03,0.03,0.07,0.07,352.81,352.81,0.0,0.0
1630610757.39974713,80228729,0.05,0.01,0.08,0.05,352.81,352.81,0.0,0.0
1630610757.49970722,80328689,0.08,0.04,0.11,0.06,352.81,352.81,0.0,0.0
1630610757.59966707,80428649,0.11,0.07,0.13,0.09,352.81,352.81,0.0,0.0
1630610757.69962716,80528609,0.13,0.11,0.11,0.09,352.81,352.81,0.0,0.0
1630610757.79958701,80628569,0.15,0.14,0.11,0.09,352.81,352.81,0.0,0.0
1630610757.89954710,80728529,0.17,0.16,0.12,0.1,352.81,352.81,0.0,0.0
1630610757.99950719,80828489,0.16,0.17,0.13,0.11,352.81,352.81,0.0,0.0
1630610758.09946704,80928449,0.14,0.15,0.13,0.13,352.81,352.81,0.0,0.0
1630610758.19942713,81028409,0.13,0.14,0.14,0.13,352.81,352.81,0.0,0.0
1630610758.29938722,81128369,0.13,0.13,0.12,0.13,352.81,352.81,0.0,0.0
1630610758.39934707,81228329,0.13,0.12,0.1,0.12,352.81,352.82,0.0,0.0
1630610758.49930716,81328289,0.12,0.12,0.07,0.09,352.81,352.82,0.0,0.0
1630610758.59926701,81428249,0.12,0.12,0.06,0.06,352.81,352.82,0.0,0.0
1630610758.69922709,81528209,0.13,0.12,0.08,0.05,352.81,352.82,0.0,0.0
1630610758.79918718,81628169,0.15,0.12,0.1,0.07,352.81,352.83,0.0,0.0
1630610758.89998007,81728962,0.15,0.13,0.13,0.1,352.81,352.83,0.0,0.0
1630610758.99994016,81828922,0.15,0.14,0.18,0.15,352.81,352.83,0.0,0.0
1630610759.09990001,81928882,0.14,0.13,0.21,0.21,352.81,352.82,0.0,0.0
1630610759.19986010,82028842,0.15,0.13,0.22,0.24,352.81,352.82,0.0,0.0
1630610759.29982018,82128802,0.12,0.13,0.2,0.24,352.81,352.82,0.0,0.0
1630610759.39978004,82228762,0.07,0.09,0.14,0.19,352.81,352.81,0.0,0.0
1630610759.49974012,82328722,0.07,0.06,0.1,0.13,352.81,352.81,0.0,0.0
1630610759.59970021,82428682,0.07,0.04,0.1,0.09,352.81,352.81,0.0,0.0
1630610759.69966006,82528642,0.08,0.04,0.14,0.1,352.81,352.81,0.0,0.0
1630610759.79962015,82628602,0.11,0.06,0.16,0.12,352.81,352.81,0.0,0.0
1630610759.89958024,82728562,0.14,0.1,0.18,0.15,352.81,352.81,0.0,0.0
1630610759.99954009,82828522,0.15,0.14,0.16,0.16,352.81,352.81,0.0,0.0
1630610760.09950018,82928482,0.16,0.17,0.12,0.15,352.81,352.81,0.0,0.0
1630610760.19946003,83028442,0.15,0.18,0.11,0.12,352.81,352.81,0.0,0.0
1630610760.29942012,83128402,0.1,0.14,0.09,0.1,352.81,352.81,0.0,0.0
1630610760.39938021,83228362,0.06,0.09,0.1,0.08,352.81,352.81,0.0,0.0
1630610760.49934006,83328322,0.06,0.06,0.11,0.08,352.81,352.81,0.0,0.0
1630610760.59930015,83428282,0.06,0.05,0.12,0.08,352.81,352.81,0.0,0.0
1630610760.69926023,83528242,0.06,0.05,0.15,0.11,352.81,352.81,0.0,0.0
1630610760.79922009,83628202,0.07,0.05,0.17,0.14,352.81,352.82,0.0,0.0
1630610760.89918017,83728162,0.08,0.06,0.18,0.17,352.81,352.82,0.0,0.0
1630610760.99997306,83828955,0.11,0.08,0.18,0.18,352.81,352.82,0.0,0.0
1630610761.09993315,83928915,0.13,0.12,0.15,0.17,352.81,352.82,0.0,0.0
1630610761.19989324,84028875,0.15,0.14,0.14,0.15,352.81,352.82,0.0,0.0
1630610761.29985309,84128835,0.18,0.16,0.13,0.13,352.81,352.82,0.0,0.0
1630610761.39981318,84228795,0.19,0.18,0.09,0.1,352.81,352.82,0.0,0.0
1630610761.49977303,84328755,0.17,0.18,0.1,0.08,352.81,352.82,0.0,0.0
1630610761.59973311,84428715,0.17,0.17,0.12,0.09,352.81,352.82,0.0,0.0
1630610761.69969320,84528675,0.16,0.16,0.12,0.1,352.81,352.81,0.0,0.0
1630610761.79965305,84628635,0.16,0.15,0.1,0.1,352.81,352.81,0.0,0.0
1630610761.89961314,84728595,0.16,0.15,0.08,0.08,352.81,352.81,0.0,0.0
1630610761.99957323,84828555,0.19,0.16,0.06,0.06,352.81,352.81,0.0,0.0
1630610762.09953308,84928515,0.19,0.18,0.06,0.05,352.81,352.81,0.0,0.0
1630610762.19949317,85028475,0.18,0.18,0.06,0.04,352.81,352.81,0.0,0.0
1630610762.29945302,85128435,0.17,0.17,0.09,0.06,352.81,352.81,0.0,0.0
1630610762.39941311,85228395,0.16,0.15,0.14,0.11,352.81,352.81,0.0,0.0
1630610762.49937320,85328355,0.16,0.15,0.18,0.16,352.81,352.81,0.0,0.0
1630610762.59933305,85428315,0.17,0.15,0.2,0.2,352.81,352.81,0.0,0.0
1630610762.69929314,85528275,0.19,0.17,0.17,0.2,352.81,352.81,0.0,0.0
1630610762.79925323,85628235,0.18,0.17,0.12,0.15,352.81,352.81,0.0,0.0
1630610762.89921308,85728195,0.15,0.15,0.09,0.09,352.81,352.81,0.0,0.0
1630610762.99917316,85828155,0.15,0.14,0.08,0.07,352.81,352.81,0.0,0.0
1630610763.09996605,85928948,0.16,0.15,0.09,0.06,352.81,352.82,0.0,0.0
1630610763.19992614,86028908,0.15,0.15,0.1,0.07,352.81,352.82,0.0,0.0
1630610763.29988623,86128868,0.14,0.14,0.12,0.1,352.81,352.82,0.0,0.0
1630610763.39984608,86228828,0.15,0.14,0.13,0.12,352.81,352.81,0.0,0.0
1630610763.49980617,86328788,0.16,0.15,0.11,0.12,352.81,352.81,0.0,0.0
1630610763.59976602,86428748,0.16,0.15,0.11,0.11,352.81,352.81,0.0,0.0
1630610763.69972610,86528708,0.16,0.16,0.08,0.1,352.81,352.81,0.0,0.0
1630610763.79968619,86628668,0.14,0.14,0.08,0.07,352.81,352.81,0.0,0.0
1630610763.89964604,86728628,0.1,0.11,0.12,0.08,352.81,352.81,0.0,0.0
1630610763.99960613,86828588,0.06,0.07,0.14,0.11,352.81,352.81,0.0,0.0
1630610764.09956622,86928548,0.05,0.03,0.14,0.13,352.81,352.81,0.0,0.0
1630610764.19952607,87028508,0.07,0.03,0.14,0.13,352.81,352.81,0.0,0.0
1630610764.29948616,87128468,0.11,0.07,0.14,0.13,352.81,352.81,0.0,0.0
1630610764.39944601,87228428,0.13,0.11,0.15,0.14,352.81,352.81,0.0,0.0
1630610764.49940610,87328388,0.11,0.11,0.14,0.13,352.81,352.8,0.0,0.0
1630610764.59936619,87428348,0.11,0.1,0.11,0.11,352.81,352.81,0.0,0.0
1630610764.69932604,87528308,0.11,0.09,0.08,0.08,352.81,352.81,0.0,0.0
1630610764.79928613,87628268,0.11,0.09,0.08,0.07,352.81,352.81,0.0,0.0
1630610764.89924622,87728228,0.12,0.1,0.08,0.07,352.81,352.81,0.0,0.0
1630610764.99920607,87828188,0.14,0.12,0.11,0.09,352.81,352.81,0.0,0.0
1630610765.09999919,87928981,0.1,0.11,0.12,0.11,352.81,352.82,0.0,0.0
1630610765.19995904,88028941,0.06,0.07,0.13,0.12,352.81,352.82,0.0,0.0
1630610765.29991913,88128901,0.06,0.06,0.13,0.12,352.81,352.82,0.0,0.0
1630610765.39987922,88228861,0.08,0.06,0.14,0.13,352.81,352.82,0.0,0.0
1630610765.49983907,88328821,0.08,0.07,0.14,0.13,352.81,352.82,0.0,0.0
1630610765.59979916,88428781,0.08,0.07,0.13,0.12,352.81,352.82,0.0,0.0
1630610765.69975901,88528741,0.08,0.07,0.12,0.11,352.81,352.81,0.0,0.0
1630610765.79971910,88628701,0.06,0.06,0.12,0.1,352.81,352.81,0.0,0.0
1630610765.89967918,88728661,0.07,0.06,0.11,0.09,352.81,352.81,0.0,0.0
1630610765.99963903,88828621,0.09,0.07,0.11,0.08,352.81,352.81,0.0,0.0
1630610766.09959912,88928581,0.12,0.09,0.14,0.1,352.81,352.81,0.0,0.0
1630610766.19955921,89028541,0.16,0.13,0.17,0.14,352.81,352.81,0.0,0.0
1630610766.29951906,89128501,0.19,0.17,0.18,0.17,352.81,352.81,0.0,0.0
1630610766.39947915,89228461,0.21,0.2,0.18,0.18,352.81,352.81,0.0,0.0
1630610766.49943924,89328421,0.2,0.2,0.18,0.18,352.81,352.81,0.0,0.0
1630610766.59939909,89428381,0.19,0.19,0.17,0.18,352.81,352.81,0.0,0.0
1630610766.69935918,89528341,0.19,0.19,0.17,0.18,352.81,352.82,0.0,0.0
1630610766.79931903,89628301,0.21,0.2,0.14,0.16,352.81,352.82,0.0,0.0
1630610766.89927912,89728261,0.2,0.2,0.15,0.14,352.81,352.82,0.0,0.0
1630610766.99923921,89828221,0.18,0.19,0.16,0.14,352.81,352.82,0.0,0.0
1630610767.09919906,89928181,0.19,0.18,0.17,0.14,352.81,352.82,0.0,0.0
1630610767.19999218,90028974,0.21,0.18,0.17,0.15,352.81,352.82,0.0,0.0
1630610767.29995203,90128934,0.22,0.2,0.17,0.16,352.81,352.82,0.0,0.0
1630610767.39991212,90228894,0.23,0.22,0.17,0.16,352.81,352.81,0.0,0.0
1630610767.49987221,90328854,0.24,0.23,0.18,0.17,352.81,352.81,0.0,0.0
1630610767.59983206,90428814,0.22,0.24,0.19,0.19,352.81,352.81,0.0,0.0
1630610767.69979215,90528774,0.21,0.22,0.2,0.2,352.81,352.81,0.0,0.0
1630610767.79975224,90628734,0.2,0.2,0.17,0.19,352.81,352.81,0.0,0.0
1630610767.89971209,90728694,0.18,0.18,0.15,0.17,352.81,352.81,0.0,0.0
1630610767.99967217,90828654,0.2,0.17,0.13,0.15,352.81,352.81,0.0,0.0
1630610768.09963202,90928614,0.22,0.19,0.13,0.13,352.81,352.81,0.0,0.0
1630610768.19959211,91028574,0.21,0.21,0.14,0.13,352.81,352.82,0.0,0.0
1630610768.29955220,91128534,0.16,0.17,0.15,0.13,352.81,352.82,0.0,0.0
1630610768.39951205,91228494,0.12,0.13,0.17,0.15,352.81,352.82,0.0,0.0
1630610768.49947214,91328454,0.13,0.11,0.17,0.16,352.81,352.82,0.0,0.0
1630610768.59943223,91428414,0.12,0.1,0.16,0.16,352.81,352.82,0.0,0.0
1630610768.69939208,91528374,0.11,0.1,0.14,0.14,352.81,352.81,0.0,0.0
1630610768.79935217,91628334,0.12,0.1,0.13,0.11,352.81,352.81,0.0,0.0
1630610768.89931202,91728294,0.11,0.1,0.16,0.12,352.81,352.81,0.0,0.0
1630610768.99927211,91828254,0.12,0.1,0.16,0.14,352.81,352.82,0.0,0.0
1630610769.09923220,91928214,0.16,0.12,0.15,0.15,352.81,352.82,0.0,0.0
1630610769.19919205,92028174,0.18,0.17,0.13,0.13,352.81,352.82,0.0,0.0
1630610769.29998517,92128967,0.17,0.17,0.14,0.13,352.81,352.82,0.0,0.0
1630610769.39994502,92228927,0.16,0.16,0.15,0.14,352.81,352.82,0.0,0.0
1630610769.49990511,92328887,0.17,0.16,0.19,0.17,352.81,352.82,0.0,0.0
1630610769.59986520,92428847,0.18,0.17,0.18,0.19,352.81,352.82,0.0,0.0
1630610769.69982505,92528807,0.18,0.17,0.17,0.19,352.81,352.82,0.0,0.0
1630610769.79978514,92628767,0.18,0.17,0.17,0.17,352.81,352.82,0.0,0.0
1630610769.89974523,92728727,0.18,0.17,0.18,0.18,352.81,352.82,0.0,0.0
1630610769.99970508,92828687,0.17,0.16,0.14,0.15,352.81,352.81,0.0,0.0
1630610770.09966516,92928647,0.16,0.15,0.11,0.1,352.81,352.81,0.0,0.0
1630610770.19962502,93028607,0.17,0.15,0.11,0.08,352.81,352.81,0.0,0.0
1630610770.29958510,93128567,0.16,0.16,0.11,0.08,352.81,352.81,0.0,0.0
1630610770.39954519,93228527,0.15,0.15,0.13,0.09,352.81,352.81,0.0,0.0
1630610770.49950504,93328487,0.15,0.14,0.14,0.12,352.81,352.81,0.0,0.0
1630610770.59946513,93428447,0.17,0.14,0.13,0.13,352.81,352.81,0.0,0.0
1630610770.69942522,93528407,0.19,0.16,0.13,0.13,352.81,352.81,0.0,0.0
1630610770.79938507,93628367,0.18,0.18,0.11,0.12,352.81,352.81,0.0,0.0
1630610770.89934516,93728327,0.16,0.16,0.1,0.1,352.81,352.81,0.0,0.0
1630610770.99930501,93828287,0.15,0.15,0.11,0.1,352.81,352.81,0.0,0.0
1630610771.09926510,93928247,0.16,0.14,0.11,0.1,352.81,352.81,0.0,0.0
1630610771.19922519,94028207,0.16,0.14,0.12,0.1,352.81,352.81,0.0,0.0
1630610771.29918504,94128167,0.17,0.15,0.12,0.11,352.81,352.82,0.0,0.0
1630610771.39997816,94228960,0.19,0.17,0.13,0.12,352.81,352.82,0.0,0.0
1630610771.49993801,94328920,0.23,0.21,0.13,0.13,352.81,352.82,0.0,0.0
1630610771.59989810,94428880,0.23,0.24,0.13,0.14,352.81,352.82,0.0,0.0
1630610771.69985819,94528840,0.22,0.24,0.14,0.14,352.81,352.81,0.0,0.0
1630610771.79981804,94628800,0.2,0.21,0.14,0.13,352.81,352.81,0.0,0.0
1630610771.89977813,94728760,0.2,0.19,0.11,0.11,352.81,352.81,0.0,0.0
1630610771.99973822,94828720,0.22,0.2,0.09,0.09,352.81,352.81,0.0,0.0
1630610772.09969807,94928680,0.22,0.22,0.07,0.07,352.81,352.81,0.0,0.0
1630610772.19965816,95028640,0.21,0.21,0.07,0.05,352.81,352.81,0.0,0.0
1630610772.29961801,95128600,0.18,0.19,0.07,0.06,352.81,352.82,0.0,0.0
1630610772.39957809,95228560,0.16,0.16,0.06,0.04,352.81,352.82,0.0,0.0
1630610772.49953818,95328520,0.17,0.14,0.07,0.05,352.81,352.82,0.0,0.0
1630610772.59949803,95428480,0.2,0.16,0.09,0.07,352.81,352.82,0.0,0.0
1630610772.69945812,95528440,0.19,0.19,0.14,0.1,352.81,352.82,0.0,0.0
1630610772.79941821,95628400,0.16,0.18,0.18,0.15,352.81,352.82,0.0,0.0
1630610772.89937806,95728360,0.15,0.16,0.21,0.2,352.81,352.82,0.0,0.0
1630610772.99933815,95828320,0.13,0.13,0.22,0.23,352.81,352.82,0.0,0.0
1630610773.09929824,95928280,0.12,0.11,0.2,0.23,352.81,352.81,0.0,0.0
1630610773.19925809,96028240,0.14,0.1,0.17,0.2,352.81,352.81,0.0,0.0
1630610773.29921818,96128200,0.16,0.13,0.15,0.18,352.81,352.81,0.0,0.0
1630610773.39917803,96228160,0.15,0.13,0.16,0.16,352.81,352.81,0.0,0.0
1630610773.49997115,96328953,0.17,0.14,0.18,0.16,352.81,352.81,0.0,0.0
1630610773.59993124,96428913,0.19,0.16,0.19,0.16,352.81,352.81,0.0,0.0
1630610773.69989109,96528873,0.21,0.19,0.21,0.19,352.81,352.81,0.0,0.0
1630610773.79985118,96628833,0.23,0.22,0.21,0.2,352.81,352.81,0.0,0.0
1630610773.89981103,96728793,0.22,0.23,0.19,0.19,352.81,352.81,0.0,0.0
1630610773.99977112,96828753,0.21,0.21,0.17,0.16,352.81,352.82,0.0,0.0
1630610774.09973121,96928713,0.17,0.18,0.18,0.16,352.81,352.82,0.0,0.0
1630610774.19969106,97028673,0.13,0.14,0.17,0.17,352.81,352.82,0.0,0.0
1630610774.29965115,97128633,0.11,0.11,0.17,0.17,352.81,352.82,0.0,0.0
1630610774.39961123,97228593,0.11,0.09,0.16,0.16,352.81,352.82,0.0,0.0
1630610774.49957108,97328553,0.13,0.1,0.17,0.16,352.81,352.82,0.0,0.0
1630610774.59953117,97428513,0.11,0.11,0.18,0.16,352.81,352.82,0.0,0.0
1630610774.69949102,97528473,0.1,0.1,0.18,0.16,352.81,352.82,0.0,0.0
1630610774.79945111,97628433,0.11,0.1,0.18,0.16,352.81,352.82,0.0,0.0
1630610774.89941120,97728393,0.12,0.1,0.19,0.16,352.81,352.81,0.0,0.0
1630610774.99937105,97828353,0.12,0.1,0.18,0.17,352.81,352.81,0.0,0.0
1630610775.09933114,97928313,0.12,0.11,0.15,0.15,352.81,352.81,0.0,0.0
1630610775.19929123,98028273,0.14,0.13,0.12,0.11,352.81,352.81,0.0,0.0
1630610775.29925108,98128233,0.16,0.15,0.12,0.1,352.81,352.81,0.0,0.0
1630610775.39921117,98228193,0.14,0.16,0.15,0.1,352.81,352.81,0.0,0.0
1630610775.50000405,98328986,0.13,0.15,0.16,0.12,352.81,352.81,0.0,0.0
1630610775.59996414,98428946,0.13,0.14,0.19,0.15,352.81,352.81,0.0,0.0
1630610775.69992423,98528906,0.12,0.13,0.22,0.19,352.81,352.81,0.0,0.0
1630610775.79988408,98628866,0.12,0.11,0.21,0.2,352.81,352.81,0.0,0.0
1630610775.89984417,98728826,0.13,0.11,0.2,0.21,352.81,352.81,0.0,0.0
1630610775.99980402,98828786,0.12,0.1,0.19,0.2,352.81,352.82,0.0,0.0
1630610776.09976411,98928746,0.13,0.1,0.17,0.19,352.81,352.82,0.0,0.0
1630610776.19972420,99028706,0.15,0.11,0.15,0.16,352.81,352.82,0.0,0.0
1630610776.29968405,99128666,0.15,0.12,0.14,0.14,352.81,352.82,0.0,0.0
1630610776.39964414,99228626,0.16,0.14,0.14,0.13,352.81,352.82,0.0,0.0
1630610776.49960423,99328586,0.16,0.16,0.16,0.14,352.81,352.82,0.0,0.0
1630610776.59956408,99428546,0.16,0.17,0.17,0.16,352.81,352.82,0.0,0.0
1630610776.69952416,99528506,0.18,0.18,0.15,0.16,352.81,352.82,0.0,0.0
1630610776.79948401,99628466,0.18,0.19,0.14,0.14,352.81,352.82,0.0,0.0
1630610776.89944410,99728426,0.19,0.2,0.15,0.13,352.81,352.82,0.0,0.0
1630610776.99940419,99828386,0.2,0.2,0.17,0.14,352.81,352.82,0.0,0.0
1630610777.09936404,99928346,0.19,0.2,0.18,0.15,352.81,352.81,0.0,0.0
1630610777.19932413,100028306,0.16,0.18,0.16,0.16,352.81,352.81,0.0,0.0
1630610777.29928422,100128266,0.14,0.16,0.15,0.16,352.81,352.81,0.0,0.0
1630610777.39924407,100228226,0.13,0.12,0.12,0.15,352.81,352.81,0.0,0.0
1630610777.49920416,100328186,0.14,0.11,0.1,0.13,352.81,352.81,0.0,0.0
1630610777.59999704,100428979,0.14,0.11,0.11,0.11,352.81,352.81,0.0,0.0
1630610777.69995713,100528939,0.15,0.12,0.14,0.11,352.81,352.81,0.0,0.0
1630610777.79991722,100628899,0.13,0.12,0.17,0.14,352.81,352.82,0.0,0.0
1630610777.89987707,100728859,0.12,0.12,0.16,0.16,352.81,352.82,0.0,0.0
1630610777.99983716,100828819,0.13,0.12,0.13,0.15,352.81,352.82,0.0,0.0
1630610778.09979701,100928779,0.15,0.14,0.12,0.13,352.81,352.82,0.0,0.0
1630610778.19975710,101028739,0.14,0.14,0.12,0.12,352.81,352.82,0.0,0.0
1630610778.29971719,101128699,0.11,0.11,0.13,0.11,352.81,352.82,0.0,0.0
1630610778.39967704,101228659,0.12,0.11,0.15,0.13,352.81,352.82,0.0,0.0
1630610778.49963713,101328619,0.15,0.13,0.14,0.13,352.81,352.81,0.0,0.0
1630610778.59959722,101428579,0.16,0.15,0.13,0.13,352.81,352.81,0.0,0.0
1630610778.69955707,101528539,0.14,0.15,0.12,0.12,352.81,352.81,0.0,0.0
1630610778.79951715,101628499,0.11,0.11,0.11,0.1,352.81,352.81,0.0,0.0
1630610778.89947701,101728459,0.11,0.09,0.12,0.09,352.81,352.81,0.0,0.0
1630610778.99943709,101828419,0.12,0.08,0.16,0.11,352.81,352.81,0.0,0.0
1630610779.09939718,101928379,0.15,0.11,0.21,0.16,352.81,352.81,0.0,0.0
1630610779.19935703,102028339,0.18,0.14,0.22,0.21,352.81,352.81,0.0,0.0
1630610779.29931712,102128299,0.19,0.17,0.2,0.22,352.81,352.81,0.0,0.0
1630610779.39927721,102228259,0.19,0.18,0.16,0.18,352.81,352.81,0.0,0.0
1630610779.49923706,102328219,0.18,0.18,0.12,0.14,352.81,352.81,0.0,0.0
1630610779.59919715,102428179,0.15,0.16,0.09,0.09,352.81,352.81,0.0,0.0
1630610779.69999003,102528972,0.12,0.12,0.09,0.07,352.81,352.81,0.0,0.0
1630610779.79995012,102628932,0.1,0.09,0.12,0.08,352.81,352.82,0.0,0.0
1630610779.89991021,102728892,0.08,0.08,0.11,0.09,352.81,352.81,0.0,0.0
1630610779.99987006,102828852,0.0,0.03,0.15,0.11,352.81,352.82,0.0,0.0
1630610780.09983015,102928812,-0.26,-0.12,0.29,0.2,352.81,352.82,0.0,0.0
1630610780.19979024,103028772,-0.76,-0.53,0.52,0.4,352.81,352.82,0.0,0.0
1630610780.29975009,103128732,-1.47,-1.17,0.86,0.71,352.81,352.82,0.0,0.0
1630610780.39971018,103228692,-2.29,-2.02,1.25,1.1,352.81,352.81,0.0,0.0
1630610780.49967003,103328652,-3.11,-2.96,1.66,1.56,352.81,352.79,0.0,0.0
1630610780.59963012,103428612,-3.79,-3.82,2.0,1.98,352.81,352.78,0.0,0.0
1630610780.69959021,103528572,-4.28,-4.48,2.26,2.32,352.81,352.76,0.0,0.0
1630610780.79955006,103628532,-4.68,-4.94,2.44,2.55,352.81,352.76,0.0,0.0
1630610780.89951015,103728492,-5.06,-5.29,2.62,2.71,352.81,352.77,0.0,0.0
1630610780.99947023,103828452,-5.44,-5.6,2.81,2.86,352.81,352.77,0.0,0.0
1630610781.09943008,103928412,-5.83,-5.92,3.02,3.03,352.81,352.78,0.0,0.0
1630610781.19939017,104028372,-6.25,-6.28,3.21,3.21,352.81,352.78,0.0,0.0
1630610781.29935002,104128332,-6.63,-6.66,3.37,3.39,352.81,352.78,0.0,0.0
1630610781.39931011,104228292,-6.92,-6.99,3.49,3.52,352.81,352.79,0.0,0.0
1630610781.49927020,104328252,-7.12,-7.23,3.55,3.61,352.81,352.81,0.0,0.0
1630610781.59923005,104428212,-7.27,-7.39,3.6,3.66,352.81,352.82,0.0,0.0
1630610781.69919014,104528172,-7.4,-7.49,3.67,3.69,352.81,352.84,0.0,0.0
1630610781.79998302,104628965,-7.55,-7.59,3.76,3.74,352.81,352.84,0.0,0.0
1630610781.89994311,104728925,-7.75,-7.72,3.86,3.85,352.3,352.83,0.0,0.0
1630610781.99990320,104828885,-8.07,-7.86,3.98,4.17,349.27,352.62,0.0,0.0
1630610782.09986305,104928845,-8.48,-8.01,4.05,4.75,343.74,351.62,0.0,0.0
1630610782.19982314,105028805,-9.0,-8.3,3.91,5.3,337.74,349.13,0.0,0.0
1630610782.29978323,105128765,-9.65,-8.84,3.4,5.42,331.74,344.96,0.0,0.0
1630610782.39974308,105228725,-10.38,-9.62,2.38,4.87,325.74,339.3,0.0,0.01
1630610782.49970317,105328685,-11.05,-10.47,0.9,3.55,319.74,332.45,0.0,0.02
1630610782.59966302,105428645,-11.54,-11.23,-0.94,1.52,313.74,324.75,0.0,0.04
1630610782.69962311,105528605,-11.72,-11.68,-2.99,-0.98,307.74,316.48,0.0,0.05
1630610782.79958320,105628565,-11.53,-11.67,-5.04,-3.71,301.74,307.87,0.0,0.06
1630610782.89954305,105728525,-10.98,-11.15,-6.93,-6.35,295.74,299.14,0.0,0.07
1630610782.99950314,105828485,-10.14,-10.14,-8.63,-8.69,289.74,290.53,0.0,0.08
1630610783.09946322,105928445,-9.13,-8.81,-10.11,-10.6,283.74,282.28,0.0,0.08
1630610783.19942307,106028405,-8.01,-7.32,-11.38,-12.08,277.74,274.6,0.0,0.08
1630610783.29938316,106128365,-6.03,-5.72,-12.63,-13.21,271.74,267.59,0.0,0.08
1630610783.39934301,106228325,4.12,0.35,-13.82,-14.59,265.73,261.26,0.0,0.08
1630610783.49930310,106328285,10.05,9.21,-13.63,-14.85,259.73,255.49,0.0,0.08
1630610783.59926319,106428245,9.64,13.16,-13.26,-13.97,253.73,250.37,0.0,0.08
1630610783.69922304,106528205,6.87,12.03,-13.17,-13.0,247.73,245.6,0.0,0.07
1630610783.79918313,106628165,4.07,8.25,-13.37,-12.57,242.92,240.89,0.0,0.05
1630610783.89997602,106728958,2.47,4.67,-13.7,-12.74,240.04,236.41,0.0,0.05
1630610783.99993610,106828918,2.31,2.8,-13.99,-13.19,238.24,232.58,0.0,0.04
1630610784.09989619,106928878,3.11,2.82,-14.17,-13.6,237.01,229.72,0.0,0.03
1630610784.19985604,107028838,4.14,4.02,-14.26,-13.84,236.12,227.95,0.0,0.03
1630610784.29981613,107128798,4.84,5.44,-14.33,-13.93,235.41,227.24,0.01,0.03
1630610784.39977622,107228758,4.96,6.32,-14.47,-14.02,234.82,227.41,0.01,0.02
1630610784.49973607,107328718,4.47,6.28,-14.7,-14.19,234.29,228.26,0.0,0.02
1630610784.59969616,107428678,3.6,5.34,-14.99,-14.49,233.78,229.52,0.0,0.02
1630610784.69965601,107528638,2.64,3.86,-15.29,-14.88,233.3,230.94,0.0,0.02
1630610784.79961610,107628598,1.83,2.29,-15.54,-15.29,232.84,232.29,0.0,0.03
1630610784.89957619,107728558,1.27,0.98,-15.74,-15.64,232.41,233.4,0.0,0.03
1630610784.99953604,107828518,0.99,0.14,-15.86,-15.9,232.02,234.12,0.0,0.03
1630610785.09949613,107928478,0.95,-0.21,-15.93,-16.04,231.66,234.4,0.0,0.03
1630610785.19945621,108028438,1.09,-0.12,-15.99,-16.11,231.34,234.24,0.0,0.03
1630610785.29941607,108128398,1.33,0.25,-16.03,-16.13,231.06,233.72,0.0,0.02
1630610785.39937615,108228358,1.58,0.8,-16.07,-16.14,230.82,232.93,0.0,0.02
1630610785.49933624,108328318,1.81,1.36,-16.1,-16.14,230.61,231.98,0.0,0.02
1630610785.59929609,108428278,2.04,1.9,-16.15,-16.14,230.42,230.99,0.0,0.01
1630610785.69925618,108528238,2.23,2.37,-16.18,-16.16,230.26,230.06,0.0,0.01
1630610785.79921603,108628198,2.35,2.72,-16.21,-16.17,230.12,229.28,0.0,0.01
1630610785.89917612,108728158,2.4,2.92,-16.25,-16.18,229.99,228.69,0.0,0.0
1630610785.99996901,108828951,2.41,3.0,-16.26,-16.2,229.87,228.32,0.0,0.0
1630610786.09992909,108928911,2.38,2.96,-16.28,-16.21,229.76,228.16,0.0,0.01
1630610786.19988918,109028871,2.31,2.84,-16.32,-16.23,229.66,228.17,0.0,0.01
1630610786.29984903,109128831,2.25,2.67,-16.37,-16.28,229.57,228.32,0.0,0.01
1630610786.39980912,109228791,2.2,2.49,-16.44,-16.36,229.49,228.56,0.0,0.01
1630610786.49976921,109328751,2.16,2.33,-16.52,-16.46,229.42,228.84,0.0,0.01
1630610786.59972906,109428711,2.13,2.2,-16.6,-16.57,229.36,229.1,0.0,0.01
1630610786.69968915,109528671,2.1,2.09,-16.65,-16.65,229.32,229.33,0.0,0.01
1630610786.79964924,109628631,2.08,2.01,-16.65,-16.7,229.28,229.5,0.0,0.01
1630610786.89960909,109728591,2.07,1.97,-16.64,-16.69,229.25,229.59,0.0,0.01
1630610786.99956918,109828551,2.08,1.96,-16.67,-16.7,229.23,229.61,0.0,0.01
1630610787.09952903,109928511,2.12,2.0,-16.73,-16.73,229.22,229.57,0.0,0.01
1630610787.19948912,110028471,2.18,2.07,-16.79,-16.78,229.21,229.48,0.0,0.01
1630610787.29944921,110128431,2.25,2.18,-16.85,-16.84,229.22,229.36,0.0,0.01
1630610787.39940906,110228391,2.32,2.32,-16.91,-16.91,229.23,229.23,0.0,0.01
1630610787.49936914,110328351,2.35,2.42,-16.95,-16.96,229.24,229.11,0.0,0.01
1630610787.59932923,110428311,2.37,2.48,-16.97,-16.99,229.26,229.03,0.0,0.01
1630610787.69928908,110528271,2.39,2.53,-16.97,-16.99,229.28,228.97,0.0,0.01
1630610787.79924917,110628231,2.39,2.54,-16.99,-17.0,229.31,228.95,0.0,0.01
1630610787.89920902,110728191,2.37,2.52,-17.02,-17.02,229.33,228.97,0.0,0.01
1630610788.00000215,110828984,2.36,2.49,-17.04,-17.04,229.36,229.02,0.0,0.01
1630610788.09996223,110928944,2.34,2.45,-17.05,-17.06,229.39,229.09,0.0,0.01
1630610788.19992208,111028904,2.32,2.41,-17.05,-17.07,229.42,229.18,0.0,0.01
1630610788.29988217,111128864,2.32,2.38,-17.09,-17.09,229.46,229.27,0.0,0.01
1630610788.39984202,111228824,2.34,2.37,-17.12,-17.12,229.49,229.36,0.0,0.01
1630610788.49980211,111328784,2.35,2.37,-17.16,-17.16,229.53,229.45,0.0,0.01
1630610788.59976220,111428744,2.36,2.36,-17.18,-17.18,229.57,229.53,0.0,0.01
1630610788.69972205,111528704,2.34,2.36,-17.2,-17.2,229.61,229.59,0.0,0.01
1630610788.79968214,111628664,2.33,2.35,-17.21,-17.22,229.66,229.64,0.0,0.01
1630610788.89964223,111728624,2.35,2.35,-17.23,-17.23,229.7,229.68,0.0,0.01
1630610788.99960208,111828584,2.38,2.37,-17.24,-17.24,229.75,229.72,0.0,0.01
1630610789.09956217,111928544,2.4,2.4,-17.27,-17.26,229.8,229.74,0.0,0.01
1630610789.19952202,112028504,2.41,2.43,-17.32,-17.3,229.84,229.77,0.0,0.01
1630610789.29948211,112128464,2.42,2.46,-17.36,-17.35,229.89,229.79,0.0,0.01
1630610789.39944220,112228424,2.45,2.49,-17.37,-17.38,229.94,229.82,0.0,0.01
1630610789.49940205,112328384,2.47,2.52,-17.36,-17.38,229.99,229.86,0.0,0.0
1630610789.59936213,112428344,2.48,2.54,-17.37,-17.38,230.04,229.9,0.0,0.0
1630610789.69932222,112528304,2.48,2.54,-17.41,-17.39,230.09,229.95,0.0,0.0
1630610789.79928207,112628264,2.46,2.52,-17.44,-17.42,230.14,230.01,0.0,0.0
1630610789.89924216,112728224,2.43,2.49,-17.47,-17.45,230.19,230.07,0.0,0.0
1630610789.99920201,112828184,2.42,2.44,-17.48,-17.48,230.23,230.12,0.0,0.0
1630610790.09999514,112928977,2.42,2.41,-17.49,-17.51,230.28,230.18,0.0,0.0
1630610790.19995522,113028937,2.43,2.42,-17.5,-17.52,230.32,230.24,0.0,0.0
1630610790.29991508,113128897,2.46,2.44,-17.51,-17.52,230.37,230.3,0.0,0.0
1630610790.39987516,113228857,2.48,2.48,-17.52,-17.53,230.41,230.35,0.0,0.0
1630610790.49983501,113328817,2.48,2.51,-17.53,-17.53,230.46,230.39,0.0,0.0
1630610790.59979510,113428777,2.46,2.51,-17.54,-17.53,230.5,230.44,0.0,0.0
1630610790.69975519,113528737,2.43,2.5,-17.56,-17.54,230.55,230.48,0.0,0.0
1630610790.79971504,113628697,2.4,2.46,-17.57,-17.55,230.59,230.52,0.0,0.0
1630610790.89967513,113728657,2.39,2.42,-17.56,-17.56,230.63,230.56,0.0,0.0
1630610790.99963522,113828617,2.41,2.41,-17.58,-17.57,230.67,230.59,0.0,0.0
1630610791.09959507,113928577,2.45,2.43,-17.59,-17.58,230.71,230.63,0.0,0.0
1630610791.19955516,114028537,2.49,2.48,-17.59,-17.59,230.75,230.67,0.0,0.0
1630610791.29951501,114128497,2.48,2.51,-17.62,-17.61,230.79,230.7,0.0,0.0
1630610791.39947510,114228457,2.5,2.52,-17.64,-17.64,230.82,230.74,0.0,0.0
1630610791.49943519,114328417,2.51,2.54,-17.61,-17.64,230.85,230.78,0.0,0.0
1630610791.59939504,114428377,2.5,2.53,-17.58,-17.61,230.88,230.82,0.0,0.0
1630610791.69935513,114528337,2.5,2.52,-17.57,-17.58,230.9,230.85,0.0,0.0
1630610791.79931521,114628297,2.49,2.51,-17.56,-17.56,230.93,230.88,0.0,0.0
1630610791.89927506,114728257,2.47,2.49,-17.55,-17.54,230.95,230.91,0.0,0.0
1630610791.99923515,114828217,2.44,2.47,-17.54,-17.53,230.97,230.93,0.0,0.0
1630610792.09919524,114928177,2.42,2.44,-17.52,-17.53,230.99,230.95,0.0,0.0
1630610792.19998813,115028970,2.41,2.42,-17.5,-17.52,231.0,230.96,0.0,0.0
1630610792.29994822,115128930,2.43,2.42,-17.5,-17.51,231.02,230.98,0.0,0.0
1630610792.39990807,115228890,2.44,2.43,-17.5,-17.5,231.04,230.99,0.0,0.0
1630610792.49986815,115328850,2.48,2.46,-17.5,-17.5,231.06,231.0,0.0,0.0
1630610792.59982800,115428810,2.51,2.51,-17.5,-17.51,231.07,231.01,0.0,0.0
1630610792.69978809,115528770,2.52,2.54,-17.5,-17.51,231.09,231.03,0.0,0.0
1630610792.79974818,115628730,2.49,2.54,-17.5,-17.52,231.11,231.04,0.0,0.0
1630610792.89970803,115728690,2.46,2.51,-17.48,-17.51,231.12,231.05,0.0,0.0
1630610792.99966812,115828650,2.46,2.49,-17.47,-17.49,231.14,231.07,0.0,0.0
1630610793.09962821,115928610,2.48,2.49,-17.47,-17.47,231.15,231.09,0.0,0.0
1630610793.19958806,116028570,2.49,2.5,-17.47,-17.47,231.17,231.11,0.0,0.0
1630610793.29954815,116128530,2.47,2.49,-17.5,-17.48,231.18,231.12,0.0,0.0
1630610793.39950824,116228490,2.48,2.49,-17.52,-17.51,231.19,231.14,0.0,0.0
1630610793.49946809,116328450,2.47,2.49,-17.5,-17.52,231.21,231.15,0.0,0.0
1630610793.59942818,116428410,2.45,2.48,-17.48,-17.51,231.22,231.17,0.0,0.0
1630610793.69938803,116528370,2.44,2.46,-17.47,-17.49,231.23,231.18,0.0,0.0
1630610793.79934812,116628330,2.46,2.45,-17.47,-17.48,231.24,231.2,0.0,0.0
1630610793.89930820,116728290,2.48,2.47,-17.46,-17.47,231.25,231.21,0.0,0.0
1630610793.99926805,116828250,2.48,2.48,-17.45,-17.46,231.27,231.22,0.0,0.0
1630610794.09922814,116928210,2.49,2.49,-17.45,-17.45,231.28,231.23,0.0,0.0
1630610794.19918823,117028170,2.49,2.49,-17.46,-17.47,231.29,231.24,0.0,0.0
1630610794.29998112,117128963,2.51,2.51,-17.45,-17.46,231.3,231.25,0.0,0.0
1630610794.39994121,117228923,2.51,2.53,-17.46,-17.45,231.31,231.26,0.0,0.0
1630610794.49990106,117328883,2.52,2.55,-17.48,-17.46,231.32,231.27,0.0,0.0
1630610794.59986115,117428843,2.53,2.56,-17.5,-17.48,231.33,231.27,0.0,0.0
1630610794.69982123,117528803,2.51,2.55,-17.48,-17.49,231.34,231.28,0.0,0.0
1630610794.79978108,117628763,2.5,2.53,-17.46,-17.49,231.35,231.29,0.0,0.0
1630610794.89974117,117728723,2.49,2.51,-17.46,-17.47,231.36,231.3,0.0,0.0
1630610794.99970102,117828683,2.48,2.5,-17.46,-17.47,231.36,231.31,0.0,0.0
1630610795.09966111,117928643,2.46,2.48,-17.47,-17.47,231.37,231.32,0.0,0.0
1630610795.19962120,118028603,2.46,2.46,-17.48,-17.47,231.38,231.33,0.0,0.0
1630610795.29958105,118128563,2.47,2.46,-17.47,-17.48,231.38,231.34,0.0,0.0
1630610795.39954114,118228523,2.48,2.47,-17.46,-17.47,231.39,231.35,0.0,0.0
1630610795.49950123,118328483,2.5,2.5,-17.44,-17.46,231.39,231.36,0.0,0.0
1630610795.59946108,118428443,2.51,2.52,-17.43,-17.45,231.4,231.36,0.0,0.0
1630610795.69942117,118528403,2.5,2.52,-17.44,-17.44,231.4,231.37,0.0,0.0
1630610795.79938102,118628363,2.48,2.5,-17.46,-17.46,231.41,231.37,0.0,0.0
1630610795.89934111,118728323,2.47,2.49,-17.47,-17.47,231.41,231.37,0.0,0.0
1630610795.99930120,118828283,2.44,2.45,-17.47,-17.48,231.41,231.37,0.0,0.0
1630610796.09926105,118928243,2.45,2.44,-17.47,-17.49,231.41,231.37,0.0,0.0
1630610796.19922113,119028203,2.44,2.43,-17.49,-17.5,231.41,231.38,0.0,0.0
1630610796.29918122,119128163,2.41,2.42,-17.51,-17.51,231.41,231.37,0.0,0.0
1630610796.39997411,119228956,2.4,2.39,-17.52,-17.53,231.42,231.37,0.0,0.0
1630610796.49993420,119328916,2.41,2.39,-17.46,-17.5,231.41,231.37,0.0,0.0
1630610796.59989405,119428876,2.46,2.43,-17.42,-17.45,231.42,231.37,0.0,0.0
1630610796.69985414,119528836,2.51,2.49,-17.43,-17.43,231.42,231.37,0.0,0.0
1630610796.79981422,119628796,2.51,2.53,-17.45,-17.44,231.42,231.37,0.0,0.0
1630610796.89977407,119728756,2.5,2.54,-17.45,-17.46,231.42,231.37,0.0,0.0
1630610796.99973416,119828716,2.5,2.52,-17.42,-17.44,231.42,231.37,0.0,0.0
1630610797.09969401,119928676,2.5,2.52,-17.4,-17.43,231.43,231.37,0.0,0.0
1630610797.19965410,120028636,2.52,2.51,-17.41,-17.42,231.43,231.37,0.0,0.0
1630610797.29961419,120128596,2.52,2.51,-17.43,-17.43,231.43,231.38,0.0,0.0
1630610797.39957404,120228556,2.5,2.5,-17.47,-17.46,231.43,231.39,0.0,0.0
1630610797.49953413,120328516,2.49,2.5,-17.48,-17.49,231.43,231.39,0.0,0.0
1630610797.59949422,120428476,2.51,2.5,-17.47,-17.5,231.43,231.4,0.0,0.0
1630610797.69945407,120528436,2.54,2.52,-17.44,-17.48,231.44,231.41,0.0,0.0
1630610797.79941416,120628396,2.56,2.55,-17.43,-17.45,231.44,231.41,0.0,0.0
1630610797.89937401,120728356,2.55,2.56,-17.45,-17.45,231.44,231.42,0.0,0.0
1630610797.99933410,120828316,2.52,2.54,-17.46,-17.46,231.44,231.42,0.0,0.0
1630610798.09929419,120928276,2.52,2.52,-17.46,-17.47,231.45,231.42,0.0,0.0
1630610798.19925404,121028236,2.54,2.52,-17.47,-17.47,231.45,231.42,0.0,0.0
1630610798.29921412,121128196,2.53,2.53,-17.46,-17.47,231.45,231.42,0.0,0.0
1630610798.39917421,121228156,2.51,2.53,-17.45,-17.47,231.45,231.43,0.0,0.0
1630610798.49996710,121328949,2.49,2.51,-17.43,-17.45,231.46,231.43,0.0,0.0
1630610798.59992719,121428909,2.48,2.49,-17.43,-17.43,231.46,231.43,0.0,0.0
1630610798.69988704,121528869,2.5,2.49,-17.43,-17.42,231.46,231.43,0.0,0.0
1630610798.79984713,121628829,2.52,2.51,-17.43,-17.42,231.46,231.43,0.0,0.0
1630610798.89980721,121728789,2.56,2.54,-17.45,-17.44,231.46,231.44,0.0,0.0
1630610798.99976707,121828749,2.57,2.57,-17.46,-17.46,231.47,231.44,0.0,0.0
1630610799.09972715,121928709,2.56,2.58,-17.47,-17.48,231.47,231.44,0.0,0.0
1630610799.19968724,122028669,2.56,2.59,-17.5,-17.5,231.47,231.44,0.0,0.0
1630610799.29964709,122128629,2.53,2.58,-17.51,-17.52,231.47,231.44,0.0,0.0
1630610799.39960718,122228589,2.49,2.53,-17.51,-17.53,231.48,231.44,0.0,0.0
1630610799.49956703,122328549,2.48,2.49,-17.5,-17.53,231.47,231.45,0.0,0.0
1630610799.59952712,122428509,2.51,2.48,-17.46,-17.5,231.48,231.45,0.0,0.0
1630610799.69948721,122528469,2.54,2.51,-17.42,-17.45,231.48,231.45,0.0,0.0
1630610799.79944706,122628429,2.57,2.55,-17.41,-17.42,231.48,231.46,0.0,0.0
1630610799.89940715,122728389,2.57,2.58,-17.43,-17.42,231.48,231.45,0.0,0.0
1630610799.99936724,122828349,2.55,2.57,-17.47,-17.45,231.48,231.45,0.0,0.0
1630610800.09932709,122928309,2.51,2.55,-17.49,-17.48,231.48,231.45,0.0,0.0
1630610800.19928718,123028269,2.46,2.49,-17.5,-17.51,231.48,231.45,0.0,0.0
1630610800.29924703,123128229,2.48,2.47,-17.5,-17.52,231.47,231.45,0.0,0.0
1630610800.39920712,123228189,2.51,2.48,-17.48,-17.51,231.47,231.45,0.0,0.0
