timestamp,TimeUS,DesRoll,Roll,DesPitch,Pitch,DesYaw,Yaw,ErrRP,ErrYaw
1630625131.00000000,88828621,0.0,0.16,0.0,0.14,353.06,353.07,0.0,0.0
1630625131.09996009,88928581,0.0,0.16,0.0,0.14,353.06,353.07,0.0,0.0
1630625131.19992018,89028541,0.0,0.16,0.0,0.14,353.07,353.08,0.0,0.0
1630625131.29988003,89128501,0.0,0.16,0.0,0.14,353.07,353.08,0.0,0.0
1630625131.39984012,89228461,0.0,0.16,0.0,0.14,353.07,353.08,0.0,0.0
1630625131.49980021,89328421,0.0,0.16,0.0,0.14,353.07,353.08,0.0,0.0
1630625131.59976006,89428381,0.0,0.16,0.0,0.14,353.07,353.08,0.0,0.0
1630625131.69972014,89528341,0.0,0.16,0.0,0.14,353.07,353.08,0.0,0.0
1630625131.79967999,89628301,0.0,0.16,0.0,0.14,353.07,353.08,0.0,0.0
1630625131.89964008,89728261,0.0,0.16,0.0,0.14,353.07,353.08,0.0,0.0
1630625131.99960017,89828221,0.0,0.16,0.0,0.14,353.07,353.08,0.0,0.0
1630625132.09956002,89928181,0.0,0.16,0.0,0.14,353.07,353.08,0.0,0.0
1630625132.20035315,90028974,0.0,0.16,0.0,0.14,353.07,353.08,0.0,0.0
1630625132.30031300,90128934,0.0,0.16,0.0,0.14,353.07,353.08,0.0,0.0
1630625132.40027308,90228894,0.0,0.16,0.0,0.14,353.07,353.08,0.0,0.0
1630625132.50023317,90328854,0.0,0.16,0.0,0.15,353.07,353.08,0.0,0.0
1630625132.60019302,90428814,0.0,0.16,0.0,0.15,353.07,353.08,0.0,0.0
1630625132.70015311,90528774,0.0,0.16,0.0,0.15,353.08,353.09,0.0,0.0
1630625132.80011320,90628734,0.0,0.16,0.0,0.15,353.08,353.09,0.0,0.0
1630625132.90007305,90728694,0.0,0.16,0.0,0.15,353.08,353.09,0.0,0.0
1630625133.00003314,90828654,0.0,0.16,0.0,0.15,353.08,353.09,0.0,0.0
1630625133.09999299,90928614,0.0,0.16,0.0,0.15,353.08,353.09,0.0,0.0
1630625133.19995308,91028574,0.0,0.16,0.0,0.15,353.08,353.09,0.0,0.0
1630625133.29991317,91128534,0.0,0.16,0.0,0.15,353.08,353.09,0.0,0.0
1630625133.39987302,91228494,0.0,0.16,0.0,0.15,353.08,353.09,0.0,0.0
1630625133.49983311,91328454,0.0,0.16,0.0,0.15,353.08,353.09,0.0,0.0
1630625133.59979320,91428414,0.0,0.16,0.0,0.15,353.08,353.09,0.0,0.0
1630625133.69975305,91528374,0.0,0.16,0.0,0.15,353.08,353.09,0.0,0.0
1630625133.79971313,91628334,0.0,0.16,0.0,0.15,353.08,353.09,0.0,0.0
1630625133.89967299,91728294,0.0,0.16,0.0,0.15,353.08,353.09,0.0,0.0
1630625133.99963307,91828254,0.0,0.16,0.0,0.15,353.08,353.09,0.0,0.0
1630625134.09959316,91928214,-0.06,0.16,-0.06,0.15,353.09,353.1,0.0,0.0
1630625134.19955301,92028174,-0.22,0.16,-0.22,0.15,353.09,353.1,0.0,0.0
1630625134.30034614,92128967,-0.31,0.16,-0.31,0.15,353.09,353.1,0.0,0.0
1630625134.40030599,92228927,-0.37,0.16,-0.37,0.15,353.09,353.1,0.0,0.0
1630625134.50026608,92328887,-0.41,0.16,-0.42,0.15,353.09,353.1,0.0,0.0
1630625134.60022616,92428847,-0.46,0.16,-0.46,0.15,353.09,353.1,0.0,0.0
1630625134.70018601,92528807,-0.49,0.16,-0.49,0.15,353.09,353.1,0.0,0.0
1630625134.80014610,92628767,-0.52,0.16,-0.51,0.15,353.09,353.1,0.0,0.0
1630625134.90010619,92728727,-0.55,0.16,-0.54,0.15,353.09,353.1,0.0,0.0
1630625135.00006604,92828687,-0.58,0.16,-0.59,0.15,353.09,353.1,0.0,0.0
1630625135.10002613,92928647,-0.58,0.16,-0.61,0.15,353.09,353.1,0.0,0.0
1630625135.19998598,93028607,-0.6,0.16,-0.63,0.15,353.09,353.1,0.0,0.0
1630625135.29994607,93128567,-0.65,0.16,-0.67,0.15,353.09,353.1,0.0,0.0
1630625135.39990616,93228527,-0.69,0.16,-0.7,0.15,353.09,353.1,0.0,0.0
1630625135.49986601,93328487,-0.72,0.16,-0.75,0.15,353.09,353.1,0.0,0.0
1630625135.59982610,93428447,-0.74,0.17,-0.8,0.15,353.09,353.11,0.0,0.0
1630625135.69978619,93528407,-0.77,0.02,-0.81,0.01,353.09,353.11,0.0,0.0
1630625135.79974604,93628367,-0.85,-0.52,-0.81,-0.49,353.09,353.11,0.0,0.0
1630625135.89970613,93728327,-0.82,-1.07,-0.73,-0.99,353.09,353.11,0.0,0.0
1630625135.99966598,93828287,-0.61,-1.33,-0.54,-1.24,353.09,353.11,0.0,0.0
1630625136.09962606,93928247,-0.26,-1.24,-0.25,-1.19,353.09,353.1,0.0,0.0
1630625136.19958615,94028207,0.12,-0.89,0.1,-0.9,353.09,353.1,0.0,0.0
1630625136.29954600,94128167,0.48,-0.42,0.45,-0.47,353.09,353.09,0.0,0.0
1630625136.40033913,94228960,0.75,0.01,0.71,-0.03,353.09,353.08,0.0,0.0
1630625136.50029898,94328920,0.91,0.36,0.84,0.29,353.09,353.08,0.0,0.01
1630625136.60025907,94428880,0.93,0.54,0.87,0.46,353.09,353.08,0.0,0.01
1630625136.70021915,94528840,0.87,0.56,0.83,0.51,353.09,353.08,0.0,0.0
1630625136.80017900,94628800,0.79,0.49,0.77,0.46,353.09,353.08,0.0,0.0
1630625136.90013909,94728760,0.76,0.42,0.69,0.37,353.09,353.07,0.0,0.0
1630625137.00009918,94828720,0.77,0.38,0.65,0.3,353.09,353.07,0.0,0.0
1630625137.10005903,94928680,0.78,0.4,0.64,0.27,353.09,353.07,0.0,0.0
1630625137.20001912,95028640,0.79,0.44,0.66,0.3,353.09,353.08,0.0,0.0
1630625137.29997897,95128600,0.78,0.48,0.68,0.35,353.09,353.08,0.0,0.0
1630625137.39993906,95228560,0.76,0.49,0.67,0.38,352.54,352.54,0.0,0.0
1630625137.49989915,95328520,0.75,0.5,0.66,0.41,352.54,352.54,0.0,0.0
1630625137.59985900,95428480,0.74,0.52,0.64,0.43,352.54,352.54,0.0,0.0
1630625137.69981909,95528440,0.69,0.52,0.64,0.44,352.54,352.55,0.0,0.0
1630625137.79977918,95628400,0.61,0.47,0.63,0.45,352.54,352.56,0.0,0.0
1630625137.89973903,95728360,0.55,0.41,0.61,0.46,352.54,352.56,0.0,0.0
1630625137.99969912,95828320,0.49,0.35,0.58,0.45,352.54,352.57,0.0,0.0
1630625138.09965920,95928280,0.45,0.31,0.51,0.42,352.54,352.57,0.0,0.0
1630625138.19961905,96028240,0.43,0.29,0.43,0.35,352.54,352.57,0.0,0.0
1630625138.29957914,96128200,0.42,0.31,0.37,0.28,352.54,352.57,0.0,0.0
1630625138.39953899,96228160,0.37,0.3,0.35,0.24,352.54,352.57,0.0,0.0
1630625138.50033212,96328953,0.35,0.27,0.34,0.22,352.54,352.57,0.0,0.0
1630625138.60029221,96428913,0.33,0.26,0.33,0.22,352.54,352.56,0.0,0.0
1630625138.70025206,96528873,0.32,0.23,0.34,0.25,352.54,352.56,0.0,0.0
1630625138.80021214,96628833,0.31,0.22,0.3,0.24,352.54,352.55,0.0,0.0
1630625138.90017200,96728793,0.28,0.21,0.25,0.2,352.54,352.55,0.0,0.0
1630625139.00013208,96828753,0.24,0.18,0.2,0.15,352.54,352.55,0.0,0.0
1630625139.10009217,96928713,0.19,0.15,0.19,0.13,352.54,352.55,0.0,0.0
1630625139.20005202,97028673,0.14,0.09,0.17,0.11,352.54,352.55,0.0,0.0
1630625139.30001211,97128633,0.1,0.04,0.16,0.1,352.54,352.55,0.0,0.0
1630625139.39997220,97228593,0.1,0.02,0.15,0.09,352.54,352.55,0.0,0.0
1630625139.49993205,97328553,0.11,0.04,0.16,0.11,352.54,352.55,0.0,0.0
1630625139.59989214,97428513,0.1,0.05,0.18,0.13,352.54,352.55,0.0,0.0
1630625139.69985199,97528473,0.09,0.05,0.17,0.15,352.54,352.55,0.0,0.0
1630625139.79981208,97628433,0.1,0.05,0.17,0.15,352.54,352.55,0.0,0.0
1630625139.89977217,97728393,0.11,0.07,0.17,0.15,352.54,352.55,0.0,0.0
1630625139.99973202,97828353,0.11,0.08,0.16,0.13,352.54,352.55,0.0,0.0
1630625140.09969211,97928313,0.12,0.08,0.12,0.12,352.54,352.55,0.0,0.0
1630625140.19965219,98028273,0.15,0.1,0.09,0.08,352.54,352.55,0.0,0.0
1630625140.29961205,98128233,0.18,0.14,0.1,0.06,352.54,352.55,0.0,0.0
1630625140.39957213,98228193,0.17,0.16,0.13,0.08,352.54,352.55,0.0,0.0
1630625140.50036502,98328986,0.17,0.16,0.15,0.11,352.54,352.55,0.0,0.0
1630625140.60032511,98428946,0.17,0.16,0.19,0.15,352.54,352.55,0.0,0.0
1630625140.70028520,98528906,0.16,0.16,0.21,0.19,352.54,352.55,0.0,0.0
1630625140.80024505,98628866,0.18,0.15,0.21,0.2,352.54,352.55,0.0,0.0
1630625140.90020514,98728826,0.19,0.15,0.21,0.21,352.54,352.56,0.0,0.0
1630625141.00016499,98828786,0.18,0.15,0.2,0.19,352.54,352.56,0.0,0.0
1630625141.10012507,98928746,0.19,0.17,0.2,0.18,352.54,352.56,0.0,0.0
1630625141.20008516,99028706,0.22,0.18,0.19,0.18,352.54,352.56,0.0,0.0
1630625141.30004501,99128666,0.21,0.21,0.19,0.17,352.54,352.56,0.0,0.0
1630625141.40000510,99228626,0.22,0.21,0.2,0.17,352.54,352.56,0.0,0.0
1630625141.49996519,99328586,0.23,0.23,0.23,0.19,352.54,352.55,0.0,0.0
1630625141.59992504,99428546,0.23,0.24,0.24,0.21,352.54,352.56,0.0,0.0
1630625141.69988513,99528506,0.25,0.25,0.22,0.21,352.54,352.56,0.0,0.0
1630625141.79984498,99628466,0.27,0.26,0.21,0.2,352.54,352.55,0.0,0.0
1630625141.89980507,99728426,0.28,0.28,0.22,0.2,352.54,352.55,0.0,0.0
1630625141.99976516,99828386,0.3,0.29,0.25,0.22,352.54,352.55,0.0,0.0
1630625142.09972501,99928346,0.28,0.29,0.25,0.24,352.54,352.55,0.0,0.0
1630625142.19968510,100028306,0.24,0.26,0.23,0.24,352.54,352.55,0.0,0.0
1630625142.29964519,100128266,0.21,0.23,0.22,0.24,352.54,352.55,0.0,0.0
1630625142.39960504,100228226,0.2,0.19,0.19,0.23,352.54,352.55,0.0,0.0
1630625142.49956512,100328186,0.21,0.17,0.18,0.21,352.54,352.55,0.0,0.0
1630625142.60035801,100428979,0.21,0.18,0.18,0.18,352.54,352.55,0.0,0.0
1630625142.70031810,100528939,0.22,0.19,0.22,0.19,352.54,352.56,0.0,0.0
1630625142.80027819,100628899,0.2,0.19,0.25,0.22,352.54,352.56,0.0,0.0
1630625142.90023804,100728859,0.19,0.19,0.24,0.24,352.54,352.56,0.0,0.0
1630625143.00019813,100828819,0.2,0.18,0.21,0.22,352.54,352.56,0.0,0.0
1630625143.10015798,100928779,0.22,0.2,0.19,0.21,352.54,352.56,0.0,0.0
1630625143.20011806,101028739,0.21,0.2,0.19,0.19,352.54,352.56,0.0,0.0
1630625143.30007815,101128699,0.17,0.18,0.2,0.18,352.54,352.56,0.0,0.0
1630625143.40003800,101228659,0.18,0.16,0.21,0.19,352.54,352.56,0.0,0.0
1630625143.49999809,101328619,0.2,0.18,0.2,0.2,352.54,352.56,0.0,0.0
1630625143.59995818,101428579,0.21,0.19,0.18,0.19,352.54,352.56,0.0,0.0
1630625143.69991803,101528539,0.18,0.19,0.17,0.18,352.54,352.56,0.0,0.0
1630625143.79987812,101628499,0.14,0.15,0.15,0.15,352.54,352.55,0.0,0.0
1630625143.89983797,101728459,0.13,0.12,0.15,0.13,352.54,352.55,0.0,0.0
1630625143.99979806,101828419,0.15,0.12,0.19,0.14,352.54,352.55,0.0,0.0
1630625144.09975815,101928379,0.18,0.14,0.25,0.19,352.54,352.55,0.0,0.0
1630625144.19971800,102028339,0.22,0.17,0.26,0.25,352.54,352.55,0.0,0.0
1630625144.29967809,102128299,0.23,0.21,0.23,0.25,352.54,352.55,0.0,0.0
1630625144.39963818,102228259,0.23,0.22,0.17,0.21,352.54,352.55,0.0,0.0
1630625144.49959803,102328219,0.22,0.22,0.13,0.15,352.54,352.55,0.0,0.0
1630625144.59955812,102428179,0.18,0.19,0.09,0.09,352.54,352.55,0.0,0.0
1630625144.70035100,102528972,0.14,0.15,0.1,0.07,352.54,352.55,0.0,0.0
1630625144.80031109,102628932,0.12,0.11,0.13,0.08,352.54,352.55,0.0,0.0
1630625144.90027118,102728892,0.11,0.09,0.15,0.11,352.54,352.55,0.0,0.0
1630625145.00023103,102828852,0.13,0.09,0.17,0.14,352.54,352.55,0.0,0.0
1630625145.10019112,102928812,0.17,0.12,0.17,0.16,352.54,352.55,0.0,0.0
1630625145.20015121,103028772,0.21,0.16,0.14,0.16,352.54,352.55,0.0,0.0
1630625145.30011106,103128732,0.22,0.2,0.13,0.15,352.54,352.54,0.0,0.0
1630625145.40007114,103228692,0.23,0.23,0.12,0.13,352.54,352.54,0.0,0.0
1630625145.50003099,103328652,0.22,0.24,0.13,0.12,352.54,352.54,0.0,0.0
1630625145.59999108,103428612,0.22,0.23,0.14,0.11,352.54,352.55,0.0,0.0
1630625145.69995117,103528572,0.23,0.23,0.17,0.13,352.54,352.55,0.0,0.0
1630625145.79991102,103628532,0.22,0.22,0.17,0.14,352.54,352.55,0.0,0.0
1630625145.89987111,103728492,0.19,0.19,0.2,0.17,352.54,352.55,0.0,0.0
1630625145.99983120,103828452,0.17,0.16,0.23,0.2,352.54,352.55,0.0,0.0
1630625146.09979105,103928412,0.18,0.15,0.26,0.23,352.54,352.55,0.0,0.0
1630625146.19975114,104028372,0.19,0.15,0.26,0.25,352.54,352.55,0.0,0.0
1630625146.29971099,104128332,0.2,0.18,0.24,0.25,352.54,352.55,0.0,0.0
1630625146.39967108,104228292,0.21,0.2,0.22,0.24,352.54,352.55,0.0,0.0
1630625146.49963117,104328252,0.21,0.21,0.19,0.21,352.54,352.55,0.0,0.0
1630625146.59959102,104428212,0.21,0.21,0.17,0.18,352.54,352.55,0.0,0.0
1630625146.69955111,104528172,0.21,0.21,0.17,0.16,352.54,352.55,0.0,0.0
1630625146.80034399,104628965,0.18,0.2,0.19,0.16,352.54,352.55,0.0,0.0
1630625146.90030408,104728925,0.16,0.18,0.21,0.18,352.54,352.55,0.0,0.0
1630625147.00026417,104828885,0.14,0.15,0.2,0.18,352.54,352.55,0.0,0.0
1630625147.10022402,104928845,0.14,0.13,0.19,0.18,352.54,352.55,0.0,0.0
1630625147.20018411,105028805,0.19,0.15,0.17,0.17,352.54,352.55,0.0,0.0
1630625147.30014420,105128765,0.25,0.19,0.17,0.15,352.54,352.55,0.0,0.0
1630625147.40010405,105228725,0.28,0.24,0.17,0.14,352.54,352.55,0.0,0.0
1630625147.50006413,105328685,0.28,0.28,0.17,0.14,352.54,352.55,0.0,0.0
1630625147.60002398,105428645,0.24,0.27,0.16,0.14,352.54,352.55,0.0,0.0
1630625147.69998407,105528605,0.22,0.24,0.14,0.14,352.54,352.55,0.0,0.0
1630625147.79994416,105628565,0.22,0.2,0.11,0.11,352.54,352.55,0.0,0.0
1630625147.89990401,105728525,0.24,0.2,0.14,0.11,352.54,352.55,0.0,0.0
1630625147.99986410,105828485,0.28,0.23,0.17,0.13,352.54,352.55,0.0,0.0
1630625148.09982419,105928445,0.29,0.27,0.2,0.17,352.54,352.55,0.0,0.0
1630625148.19978404,106028405,0.25,0.27,0.21,0.2,352.54,352.55,0.0,0.0
1630625148.29974413,106128365,0.24,0.25,0.19,0.21,352.54,352.55,0.0,0.0
1630625148.39970398,106228325,0.23,0.24,0.12,0.17,352.54,352.55,0.0,0.0
1630625148.49966407,106328285,0.22,0.22,0.09,0.12,352.54,352.55,0.0,0.0
1630625148.59962416,106428245,0.22,0.2,0.08,0.07,352.54,352.55,0.0,0.0
1630625148.69958401,106528205,0.22,0.2,0.1,0.06,352.54,352.55,0.0,0.0
1630625148.79954410,106628165,0.22,0.19,0.14,0.09,352.54,352.55,0.0,0.0
1630625148.90033698,106728958,0.23,0.2,0.2,0.15,352.54,352.55,0.0,0.0
1630625149.00029707,106828918,0.24,0.22,0.24,0.21,352.54,352.55,0.0,0.0
1630625149.10025716,106928878,0.23,0.23,0.24,0.23,352.54,352.55,0.0,0.0
1630625149.20021701,107028838,0.21,0.22,0.19,0.21,352.54,352.55,0.0,0.0
1630625149.30017710,107128798,0.18,0.2,0.15,0.17,352.54,352.54,0.0,0.0
1630625149.40013719,107228758,0.17,0.17,0.12,0.13,352.54,352.54,0.0,0.0
1630625149.50009704,107328718,0.15,0.16,0.12,0.1,352.54,352.54,0.0,0.0
1630625149.60005713,107428678,0.12,0.13,0.14,0.1,352.54,352.54,0.0,0.0
1630625149.70001698,107528638,0.13,0.11,0.17,0.12,352.54,352.54,0.0,0.0
1630625149.79997706,107628598,0.15,0.12,0.2,0.16,352.54,352.55,0.0,0.0
1630625149.89993715,107728558,0.15,0.14,0.22,0.2,352.54,352.55,0.0,0.0
1630625149.99989700,107828518,0.14,0.14,0.22,0.23,352.54,352.55,0.0,0.0
1630625150.09985709,107928478,0.11,0.12,0.23,0.24,352.54,352.55,0.0,0.0
1630625150.19981718,108028438,0.1,0.09,0.21,0.24,352.54,352.55,0.0,0.0
1630625150.29977703,108128398,0.12,0.09,0.18,0.21,352.54,352.55,0.0,0.0
1630625150.39973712,108228358,0.12,0.11,0.15,0.16,352.54,352.55,0.0,0.0
1630625150.49969721,108328318,0.11,0.11,0.16,0.14,352.54,352.55,0.0,0.0
1630625150.59965706,108428278,0.15,0.13,0.15,0.13,352.54,352.55,0.0,0.0
1630625150.69961715,108528238,0.2,0.17,0.16,0.13,352.54,352.55,0.0,0.0
1630625150.79957700,108628198,0.2,0.2,0.18,0.15,352.54,352.55,0.0,0.0
1630625150.89953709,108728158,0.19,0.21,0.19,0.18,352.54,352.55,0.0,0.0
1630625151.00032997,108828951,0.18,0.2,0.22,0.21,352.54,352.55,0.0,0.0
1630625151.10029006,108928911,0.15,0.18,0.24,0.24,352.54,352.55,0.0,0.0
1630625151.20025015,109028871,0.13,0.13,0.25,0.25,352.54,352.55,0.0,0.0
1630625151.30021000,109128831,0.14,0.11,0.24,0.26,352.54,352.55,0.0,0.0
1630625151.40017009,109228791,0.17,0.13,0.23,0.24,352.54,352.55,0.0,0.0
1630625151.50013018,109328751,0.21,0.16,0.2,0.22,352.54,352.55,0.0,0.0
1630625151.60009003,109428711,0.25,0.21,0.16,0.18,352.54,352.55,0.0,0.0
1630625151.70005012,109528671,0.27,0.25,0.16,0.16,352.54,352.56,0.0,0.0
1630625151.80001020,109628631,0.28,0.27,0.2,0.17,352.54,352.56,0.0,0.0
1630625151.89997005,109728591,0.25,0.27,0.25,0.21,352.54,352.56,0.0,0.0
1630625151.99993014,109828551,0.24,0.25,0.25,0.23,352.54,352.56,0.0,0.0
1630625152.09988999,109928511,0.23,0.23,0.22,0.23,352.54,352.55,0.0,0.0
1630625152.19985008,110028471,0.23,0.22,0.17,0.19,352.54,352.55,0.0,0.0
1630625152.29981017,110128431,0.25,0.22,0.14,0.14,352.54,352.55,0.0,0.0
1630625152.39977002,110228391,0.27,0.24,0.1,0.1,352.54,352.55,0.0,0.0
1630625152.49973011,110328351,0.26,0.24,0.08,0.06,352.54,352.55,0.0,0.0
1630625152.59969020,110428311,0.24,0.23,0.11,0.06,352.54,352.55,0.0,0.0
1630625152.69965005,110528271,0.23,0.23,0.14,0.1,352.54,352.55,0.0,0.0
1630625152.79961014,110628231,0.21,0.21,0.14,0.12,352.54,352.55,0.0,0.0
1630625152.89956999,110728191,0.18,0.18,0.15,0.14,352.54,352.55,0.0,0.0
1630625153.00036311,110828984,0.15,0.15,0.16,0.15,352.54,352.56,0.0,0.0
1630625153.10032320,110928944,0.13,0.13,0.18,0.17,352.54,352.56,0.0,0.0
1630625153.20028305,111028904,0.12,0.11,0.21,0.19,352.54,352.56,0.0,0.0
1630625153.30024314,111128864,0.13,0.12,0.2,0.2,352.54,352.55,0.0,0.0
1630625153.40020299,111228824,0.15,0.13,0.18,0.18,352.54,352.55,0.0,0.0
1630625153.50016308,111328784,0.16,0.14,0.17,0.17,352.54,352.55,0.0,0.0
1630625153.60012317,111428744,0.17,0.16,0.17,0.16,352.54,352.54,0.0,0.0
1630625153.70008302,111528704,0.14,0.16,0.18,0.16,352.54,352.54,0.0,0.0
1630625153.80004311,111628664,0.12,0.13,0.19,0.17,352.54,352.54,0.0,0.0
1630625153.90000319,111728624,0.13,0.11,0.21,0.2,352.54,352.55,0.0,0.0
1630625153.99996305,111828584,0.15,0.12,0.22,0.21,352.54,352.55,0.0,0.0
1630625154.09992313,111928544,0.16,0.15,0.2,0.21,352.54,352.55,0.0,0.0
1630625154.19988298,112028504,0.15,0.16,0.16,0.18,352.54,352.55,0.0,0.0
1630625154.29984307,112128464,0.16,0.16,0.14,0.15,352.54,352.55,0.0,0.0
1630625154.39980316,112228424,0.18,0.16,0.15,0.13,352.54,352.55,0.0,0.0
1630625154.49976301,112328384,0.2,0.19,0.19,0.15,352.54,352.55,0.0,0.0
1630625154.59972310,112428344,0.21,0.21,0.2,0.18,352.54,352.55,0.0,0.0
1630625154.69968319,112528304,0.21,0.21,0.17,0.18,352.54,352.55,0.0,0.0
1630625154.79964304,112628264,0.19,0.2,0.16,0.15,352.54,352.55,0.0,0.0
1630625154.89960313,112728224,0.16,0.17,0.16,0.14,352.54,352.55,0.0,0.0
1630625154.99956298,112828184,0.14,0.14,0.17,0.14,352.54,352.56,0.0,0.0
1630625155.10035610,112928977,0.14,0.11,0.18,0.14,352.54,352.56,0.0,0.0
1630625155.20031619,113028937,0.16,0.11,0.19,0.16,352.54,352.56,0.0,0.0
1630625155.30027604,113128897,0.19,0.13,0.18,0.17,352.54,352.56,0.0,0.0
1630625155.40023613,113228857,0.21,0.16,0.19,0.17,352.54,352.55,0.0,0.0
1630625155.50019598,113328817,0.22,0.2,0.21,0.19,352.54,352.55,0.0,0.0
1630625155.60015607,113428777,0.19,0.2,0.21,0.2,352.54,352.55,0.0,0.0
1630625155.70011616,113528737,0.16,0.17,0.21,0.2,352.54,352.55,0.0,0.0
1630625155.80007601,113628697,0.13,0.13,0.22,0.2,352.54,352.55,0.0,0.0
1630625155.90003610,113728657,0.11,0.1,0.24,0.22,352.54,352.55,0.0,0.0
1630625155.99999619,113828617,0.14,0.11,0.24,0.23,352.54,352.54,0.0,0.0
1630625156.09995604,113928577,0.2,0.16,0.25,0.24,352.54,352.54,0.0,0.0
1630625156.19991612,114028537,0.23,0.22,0.26,0.25,352.54,352.54,0.0,0.0
1630625156.29987597,114128497,0.22,0.24,0.23,0.24,352.54,352.55,0.0,0.0
1630625156.39983606,114228457,0.24,0.25,0.18,0.21,352.54,352.55,0.0,0.0
1630625156.49979615,114328417,0.26,0.26,0.16,0.17,352.54,352.55,0.0,0.0
1630625156.59975600,114428377,0.26,0.26,0.14,0.14,352.54,352.56,0.0,0.0
1630625156.69971609,114528337,0.27,0.27,0.11,0.1,352.54,352.56,0.0,0.0
1630625156.79967618,114628297,0.26,0.26,0.1,0.07,352.54,352.56,0.0,0.0
1630625156.89963603,114728257,0.24,0.25,0.1,0.06,352.54,352.56,0.0,0.0
1630625156.99959612,114828217,0.2,0.21,0.13,0.07,352.54,352.56,0.0,0.0
1630625157.09955621,114928177,0.17,0.17,0.16,0.12,352.54,352.56,0.0,0.0
1630625157.20034909,115028970,0.15,0.14,0.19,0.17,352.54,352.56,0.0,0.0
1630625157.30030918,115128930,0.16,0.13,0.19,0.2,352.54,352.55,0.0,0.0
1630625157.40026903,115228890,0.17,0.13,0.17,0.2,352.54,352.55,0.0,0.0
1630625157.50022912,115328850,0.21,0.16,0.16,0.19,352.54,352.55,0.0,0.0
1630625157.60018897,115428810,0.25,0.21,0.14,0.16,352.54,352.54,0.0,0.0
1630625157.70014906,115528770,0.26,0.25,0.12,0.13,352.54,352.54,0.0,0.0
1630625157.80010915,115628730,0.23,0.25,0.11,0.1,352.54,352.54,0.0,0.0
1630625157.90006900,115728690,0.19,0.21,0.13,0.1,352.54,352.54,0.0,0.0
1630625158.00002909,115828650,0.18,0.18,0.16,0.13,352.54,352.54,0.0,0.0
1630625158.09998918,115928610,0.21,0.18,0.17,0.15,352.54,352.55,0.0,0.0
1630625158.19994903,116028570,0.22,0.19,0.17,0.16,352.54,352.55,0.0,0.0
1630625158.29990911,116128530,0.2,0.19,0.15,0.16,352.54,352.55,0.0,0.0
1630625158.39986920,116228490,0.21,0.19,0.11,0.13,352.54,352.56,0.0,0.0
1630625158.49982905,116328450,0.21,0.2,0.13,0.11,352.54,352.56,0.0,0.0
1630625158.59978914,116428410,0.19,0.18,0.15,0.11,352.54,352.55,0.0,0.0
1630625158.69974899,116528370,0.17,0.16,0.16,0.14,352.54,352.55,0.0,0.0
1630625158.79970908,116628330,0.19,0.15,0.16,0.15,352.54,352.55,0.0,0.0
1630625158.89966917,116728290,0.21,0.18,0.19,0.17,352.54,352.55,0.0,0.0
1630625158.99962902,116828250,0.21,0.2,0.21,0.19,352.54,352.55,0.0,0.0
1630625159.09958911,116928210,0.22,0.21,0.22,0.21,352.54,352.55,0.0,0.0
1630625159.19954920,117028170,0.23,0.22,0.2,0.2,352.54,352.55,0.0,0.0
1630625159.30034208,117128963,0.24,0.23,0.21,0.2,352.54,352.54,0.0,0.0
1630625159.40030217,117228923,0.24,0.24,0.2,0.19,352.54,352.54,0.0,0.0
1630625159.50026202,117328883,0.24,0.24,0.18,0.18,352.54,352.55,0.0,0.0
1630625159.60022211,117428843,0.24,0.24,0.15,0.14,352.54,352.55,0.0,0.0
1630625159.70018220,117528803,0.23,0.24,0.18,0.13,352.54,352.55,0.0,0.0
1630625159.80014205,117628763,0.21,0.22,0.21,0.15,352.54,352.55,0.0,0.0
1630625159.90010214,117728723,0.2,0.21,0.22,0.18,352.54,352.55,0.0,0.0
1630625160.00006199,117828683,0.18,0.18,0.21,0.2,352.54,352.55,0.0,0.0
1630625160.10002208,117928643,0.16,0.15,0.2,0.2,352.54,352.55,0.0,0.0
1630625160.19998217,118028603,0.16,0.13,0.18,0.2,352.54,352.55,0.0,0.0
1630625160.29994202,118128563,0.17,0.13,0.18,0.19,352.54,352.55,0.0,0.0
1630625160.39990211,118228523,0.19,0.15,0.2,0.2,352.54,352.55,0.0,0.0
1630625160.49986219,118328483,0.21,0.18,0.23,0.22,352.54,352.55,0.0,0.0
1630625160.59982204,118428443,0.23,0.21,0.23,0.23,352.54,352.55,0.0,0.0
1630625160.69978213,118528403,0.22,0.23,0.2,0.23,352.54,352.55,0.0,0.0
1630625160.79974198,118628363,0.2,0.22,0.16,0.19,352.54,352.55,0.0,0.0
1630625160.89970207,118728323,0.18,0.2,0.15,0.16,352.54,352.55,0.0,0.0
1630625160.99966216,118828283,0.14,0.15,0.17,0.15,352.54,352.55,0.0,0.0
1630625161.09962201,118928243,0.13,0.12,0.17,0.15,352.54,352.55,0.0,0.0
1630625161.19958210,119028203,0.12,0.1,0.14,0.14,352.54,352.55,0.0,0.0
1630625161.29954219,119128163,0.08,0.07,0.12,0.11,352.54,352.55,0.0,0.0
1630625161.40033507,119228956,0.06,0.03,0.1,0.08,352.54,352.55,0.0,0.0
1630625161.50029516,119328916,0.07,0.02,0.15,0.09,352.54,352.55,0.0,0.0
1630625161.60025501,119428876,0.14,0.06,0.22,0.16,352.54,352.55,0.0,0.0
1630625161.70021510,119528836,0.21,0.15,0.22,0.2,352.54,352.54,0.0,0.0
1630625161.80017519,119628796,0.22,0.21,0.2,0.2,352.54,352.55,0.0,0.0
1630625161.90013504,119728756,0.2,0.22,0.21,0.2,352.54,352.55,0.0,0.0
1630625162.00009513,119828716,0.18,0.2,0.26,0.23,352.54,352.55,0.0,0.0
1630625162.10005498,119928676,0.18,0.18,0.29,0.27,352.54,352.55,0.0,0.0
1630625162.20001507,120028636,0.19,0.18,0.27,0.28,352.54,352.55,0.0,0.0
1630625162.29997516,120128596,0.18,0.17,0.24,0.27,352.54,352.55,0.0,0.0
1630625162.39993501,120228556,0.16,0.17,0.19,0.23,352.54,352.55,0.0,0.0
1630625162.49989510,120328516,0.16,0.16,0.16,0.18,352.54,352.55,0.0,0.0
1630625162.59985518,120428476,0.18,0.16,0.18,0.15,352.54,352.55,0.0,0.0
1630625162.69981503,120528436,0.22,0.19,0.22,0.17,352.54,352.55,0.0,0.0
1630625162.79977512,120628396,0.26,0.24,0.24,0.2,352.54,352.55,0.0,0.0
1630625162.89973497,120728356,0.25,0.26,0.22,0.21,352.54,352.55,0.0,0.0
1630625162.99969506,120828316,0.21,0.24,0.2,0.2,352.54,352.55,0.0,0.0
1630625163.09965515,120928276,0.2,0.2,0.2,0.19,352.54,352.55,0.0,0.0
1630625163.19961500,121028236,0.22,0.19,0.19,0.18,352.54,352.55,0.0,0.0
1630625163.29957509,121128196,0.21,0.19,0.19,0.18,352.54,352.55,0.0,0.0
1630625163.39953518,121228156,0.18,0.17,0.21,0.19,352.54,352.55,0.0,0.0
1630625163.50032806,121328949,0.16,0.15,0.23,0.21,352.54,352.55,0.0,0.0
1630625163.60028815,121428909,0.15,0.13,0.23,0.23,352.54,352.55,0.0,0.0
1630625163.70024800,121528869,0.16,0.13,0.22,0.23,352.54,352.55,0.0,0.0
1630625163.80020809,121628829,0.2,0.15,0.21,0.21,352.54,352.55,0.0,0.0
1630625163.90016818,121728789,0.23,0.2,0.19,0.19,352.54,352.55,0.0,0.0
1630625164.00012803,121828749,0.25,0.23,0.19,0.17,352.54,352.55,0.0,0.0
1630625164.10008812,121928709,0.23,0.24,0.19,0.16,352.54,352.55,0.0,0.0
1630625164.20004821,122028669,0.22,0.23,0.17,0.15,352.54,352.55,0.0,0.0
1630625164.30000806,122128629,0.18,0.21,0.15,0.14,352.54,352.55,0.0,0.0
1630625164.39996815,122228589,0.14,0.16,0.13,0.12,352.54,352.55,0.0,0.0
1630625164.49992800,122328549,0.13,0.11,0.13,0.1,352.54,352.54,0.0,0.0
1630625164.59988809,122428509,0.17,0.11,0.17,0.11,352.54,352.55,0.0,0.0
1630625164.69984818,122528469,0.23,0.16,0.23,0.17,352.54,352.55,0.0,0.0
1630625164.79980803,122628429,0.27,0.22,0.26,0.22,352.54,352.55,0.0,0.0
1630625164.89976811,122728389,0.28,0.27,0.24,0.25,352.54,352.55,0.0,0.0
1630625164.99972820,122828349,0.25,0.28,0.2,0.23,352.54,352.55,0.0,0.0
1630625165.09968805,122928309,0.19,0.24,0.17,0.19,352.54,352.54,0.0,0.0
1630625165.19964814,123028269,0.11,0.16,0.14,0.14,352.54,352.54,0.0,0.0
1630625165.29960799,123128229,0.11,0.1,0.14,0.12,352.54,352.54,0.0,0.0
1630625165.39956808,123228189,0.14,0.09,0.17,0.13,352.54,352.54,0.0,0.0
1630625165.50036120,123328982,0.18,0.12,0.17,0.15,352.54,352.54,0.0,0.0
1630625165.60032105,123428942,0.21,0.16,0.16,0.15,352.54,352.54,0.0,0.0
1630625165.70028114,123528902,0.25,0.21,0.17,0.16,352.54,352.54,0.0,0.0
1630625165.80024099,123628862,0.3,0.27,0.15,0.15,352.54,352.54,0.0,0.0
1630625165.90020108,123728822,0.29,0.31,0.14,0.14,352.54,352.54,0.0,0.0
1630625166.00016117,123828782,0.24,0.28,0.16,0.14,352.54,352.54,0.0,0.0
1630625166.10012102,123928742,0.18,0.22,0.18,0.15,352.54,352.54,0.0,0.0
1630625166.20008111,124028702,0.13,0.14,0.2,0.17,352.54,352.54,0.0,0.0
1630625166.30004120,124128662,0.12,0.09,0.22,0.2,352.54,352.55,0.0,0.0
1630625166.40000105,124228622,0.14,0.08,0.2,0.21,352.54,352.55,0.0,0.0
1630625166.49996114,124328582,0.16,0.1,0.17,0.2,352.54,352.55,0.0,0.0
1630625166.59992099,124428542,0.16,0.12,0.16,0.18,352.54,352.55,0.0,0.0
1630625166.69988108,124528502,0.19,0.15,0.19,0.18,352.54,352.55,0.0,0.0
1630625166.79984117,124628462,0.21,0.18,0.21,0.19,352.54,352.55,0.0,0.0
1630625166.89980102,124728422,0.24,0.22,0.23,0.21,352.54,352.55,0.0,0.0
1630625166.99976110,124828382,0.28,0.26,0.23,0.22,352.54,352.55,0.0,0.0
1630625167.09972119,124928342,0.29,0.3,0.24,0.23,352.54,352.55,0.0,0.0
1630625167.19968104,125028302,0.27,0.3,0.23,0.24,352.54,352.55,0.0,0.0
1630625167.29964113,125128262,0.24,0.28,0.23,0.24,352.54,352.55,0.0,0.0
1630625167.39960098,125228222,0.22,0.25,0.21,0.23,352.54,352.55,0.0,0.0
1630625167.49956107,125328182,0.2,0.22,0.21,0.21,352.54,352.55,0.0,0.0
1630625167.60035419,125428975,0.18,0.18,0.21,0.21,352.54,352.55,0.0,0.0
1630625167.70031404,125528935,0.17,0.15,0.23,0.22,352.54,352.55,0.0,0.0
1630625167.80027413,125628895,0.19,0.15,0.24,0.23,352.54,352.55,0.0,0.0
1630625167.90023398,125728855,0.25,0.2,0.26,0.24,352.54,352.55,0.0,0.0
1630625168.00019407,125828815,0.27,0.24,0.27,0.25,352.54,352.55,0.0,0.0
1630625168.10015416,125928775,0.28,0.27,0.26,0.26,352.54,352.55,0.0,0.0
1630625168.20011401,126028735,0.26,0.27,0.23,0.25,352.54,352.55,0.0,0.0
1630625168.30007410,126128695,0.26,0.26,0.21,0.22,352.54,352.55,0.0,0.0
1630625168.40003419,126228655,0.25,0.25,0.21,0.2,352.54,352.55,0.0,0.0
1630625168.49999404,126328615,0.23,0.23,0.19,0.19,352.54,352.54,0.0,0.0
1630625168.59995413,126428575,0.22,0.21,0.18,0.17,352.54,352.54,0.0,0.0
1630625168.69991398,126528535,0.17,0.18,0.16,0.15,352.54,352.54,0.0,0.0
1630625168.79987407,126628495,0.12,0.13,0.12,0.12,352.54,352.54,0.0,0.0
1630625168.89983416,126728455,0.1,0.09,0.09,0.09,352.54,352.55,0.0,0.0
1630625168.99979401,126828415,0.14,0.1,0.11,0.07,352.54,352.55,0.0,0.0
1630625169.09975410,126928375,0.16,0.12,0.12,0.08,352.54,352.55,0.0,0.0
1630625169.19971418,127028335,0.18,0.14,0.13,0.1,352.54,352.55,0.0,0.0
1630625169.29967403,127128295,0.18,0.16,0.11,0.11,352.54,352.55,0.0,0.0
1630625169.39963412,127228255,0.14,0.15,0.09,0.1,352.54,352.55,0.0,0.0
1630625169.49959397,127328215,0.12,0.12,0.1,0.08,352.54,352.55,0.0,0.0
1630625169.59955406,127428175,0.13,0.1,0.14,0.1,352.54,352.55,0.0,0.0
1630625169.70034719,127528968,0.14,0.11,0.2,0.15,352.54,352.55,0.0,0.0
1630625169.80030704,127628928,0.13,0.12,0.23,0.2,352.54,352.55,0.0,0.0
1630625169.90026712,127728888,0.13,0.12,0.23,0.23,352.54,352.55,0.0,0.0
1630625170.00022697,127828848,0.13,0.13,0.19,0.21,352.54,352.55,0.0,0.0
1630625170.10018706,127928808,0.13,0.13,0.16,0.18,352.54,352.55,0.0,0.0
1630625170.20014715,128028768,0.14,0.13,0.17,0.15,352.54,352.55,0.0,0.0
1630625170.30010700,128128728,0.15,0.14,0.18,0.16,352.54,352.55,0.0,0.0
1630625170.40006709,128228688,0.15,0.14,0.17,0.16,352.54,352.55,0.0,0.0
1630625170.50002718,128328648,0.13,0.14,0.18,0.16,352.54,352.55,0.0,0.0
1630625170.59998703,128428608,0.13,0.12,0.18,0.16,352.54,352.55,0.0,0.0
1630625170.69994712,128528568,0.17,0.13,0.19,0.16,352.54,352.55,0.0,0.0
1630625170.79990721,128628528,0.18,0.16,0.22,0.19,352.54,352.55,0.0,0.0
1630625170.89986706,128728488,0.22,0.19,0.26,0.24,352.54,352.55,0.0,0.0
1630625170.99982715,128828448,0.27,0.23,0.32,0.28,352.54,352.55,0.0,0.0
1630625171.09978700,128928408,0.29,0.28,0.32,0.31,352.54,352.54,0.0,0.0
1630625171.19974709,129028368,0.26,0.28,0.33,0.32,352.54,352.55,0.0,0.0
1630625171.29970717,129128328,0.23,0.26,0.32,0.33,352.54,352.55,0.0,0.0
1630625171.39966702,129228288,0.22,0.23,0.32,0.32,352.54,352.55,0.0,0.0
1630625171.49962711,129328248,0.22,0.21,0.34,0.32,352.54,352.55,0.0,0.0
1630625171.59958720,129428208,0.21,0.2,0.34,0.33,352.54,352.55,0.0,0.0
1630625171.69954705,129528168,0.21,0.19,0.3,0.3,352.54,352.55,0.0,0.0
1630625171.80034018,129628961,0.23,0.19,0.26,0.26,352.54,352.55,0.0,0.0
1630625171.90030003,129728921,0.25,0.22,0.24,0.23,352.54,352.55,0.0,0.0
1630625172.00026011,129828881,0.24,0.24,0.23,0.2,352.54,352.55,0.0,0.0
1630625172.10022020,129928841,0.19,0.22,0.23,0.2,352.54,352.55,0.0,0.0
1630625172.20018005,130028801,0.15,0.17,0.23,0.2,352.54,352.55,0.0,0.0
1630625172.30014014,130128761,0.16,0.13,0.25,0.21,352.54,352.55,0.0,0.0
1630625172.40009999,130228721,0.19,0.14,0.27,0.24,352.54,352.55,0.0,0.0
1630625172.50006008,130328681,0.2,0.15,0.26,0.25,352.54,352.55,0.0,0.0
1630625172.60002017,130428641,0.22,0.17,0.25,0.25,352.54,352.55,0.0,0.0
1630625172.69998002,130528601,0.23,0.2,0.24,0.25,352.54,352.55,0.0,0.0
1630625172.79994011,130628561,0.2,0.2,0.21,0.22,352.54,352.55,0.0,0.0
1630625172.89990020,130728521,0.18,0.19,0.2,0.2,352.54,352.54,0.0,0.0
1630625172.99986005,130828481,0.16,0.16,0.2,0.19,352.54,352.54,0.0,0.0
1630625173.09982014,130928441,0.16,0.13,0.21,0.18,352.54,352.54,0.0,0.0
1630625173.19977999,131028401,0.17,0.12,0.22,0.19,352.54,352.54,0.0,0.0
1630625173.29974008,131128361,0.2,0.15,0.23,0.2,352.54,352.54,0.0,0.0
1630625173.39970016,131228321,0.19,0.17,0.24,0.22,352.54,352.54,0.0,0.0
1630625173.49966002,131328281,0.18,0.18,0.23,0.23,352.54,352.54,0.0,0.0
1630625173.59962010,131428241,0.13,0.15,0.2,0.22,352.54,352.54,0.0,0.0
1630625173.69958019,131528201,0.12,0.12,0.21,0.2,352.54,352.54,0.0,0.0
1630625173.79954004,131628161,0.15,0.12,0.23,0.21,352.54,352.54,0.0,0.0
1630625173.90033317,131728954,0.17,0.15,0.24,0.22,352.54,352.54,0.0,0.0
1630625174.00029302,131828914,0.19,0.17,0.23,0.24,352.54,352.55,0.0,0.0
1630625174.10025311,131928874,0.21,0.19,0.24,0.25,352.54,352.55,0.0,0.0
1630625174.20021319,132028834,0.21,0.2,0.24,0.24,352.54,352.55,0.0,0.0
1630625174.30017304,132128794,0.2,0.2,0.25,0.25,352.54,352.55,0.0,0.0
1630625174.40013313,132228754,0.18,0.2,0.27,0.25,352.54,352.55,0.0,0.0
1630625174.50009298,132328714,0.2,0.19,0.29,0.28,352.54,352.55,0.0,0.0
1630625174.60005307,132428674,0.19,0.19,0.31,0.29,352.54,352.55,0.0,0.0
1630625174.70001316,132528634,0.23,0.2,0.31,0.3,352.54,352.55,0.0,0.0
1630625174.79997301,132628594,0.25,0.24,0.27,0.28,352.54,352.54,0.0,0.0
1630625174.89993310,132728554,0.23,0.24,0.23,0.24,352.54,352.54,0.0,0.0
1630625174.99989319,132828514,0.21,0.22,0.19,0.19,352.54,352.54,0.0,0.0
1630625175.09985304,132928474,0.23,0.22,0.18,0.15,352.54,352.54,0.0,0.0
1630625175.19981313,133028434,0.21,0.21,0.18,0.14,352.54,352.54,0.0,0.0
1630625175.29977298,133128394,0.23,0.21,0.19,0.15,352.54,352.54,0.0,0.0
1630625175.39973307,133228354,0.25,0.22,0.23,0.18,352.54,352.54,0.0,0.0
1630625175.49969316,133328314,0.24,0.23,0.24,0.21,352.54,352.54,0.0,0.0
1630625175.59965301,133428274,0.22,0.22,0.25,0.24,352.54,352.54,0.0,0.0
1630625175.69961309,133528234,0.19,0.2,0.27,0.26,352.54,352.54,0.0,0.0
1630625175.79957318,133628194,0.19,0.17,0.28,0.27,352.54,352.54,0.0,0.0
1630625175.89953303,133728154,0.23,0.19,0.28,0.28,352.54,352.54,0.0,0.0
1630625176.00032616,133828947,0.24,0.21,0.31,0.29,352.54,352.54,0.0,0.0
1630625176.10028601,133928907,0.24,0.23,0.34,0.32,352.54,352.54,0.0,0.0
1630625176.20024610,134028867,0.24,0.23,0.32,0.32,352.54,352.54,0.0,0.0
1630625176.30020618,134128827,0.27,0.25,0.29,0.3,352.54,352.54,0.0,0.0
1630625176.40016603,134228787,0.28,0.27,0.27,0.27,352.54,352.54,0.0,0.0
1630625176.50012612,134328747,0.29,0.28,0.28,0.26,352.54,352.54,0.0,0.0
1630625176.60008597,134428707,0.3,0.29,0.29,0.27,352.54,352.54,0.0,0.0
1630625176.70004606,134528667,0.3,0.29,0.27,0.26,352.54,352.54,0.0,0.0
1630625176.80000615,134628627,0.31,0.29,0.22,0.23,352.54,352.54,0.0,0.0
1630625176.89996600,134728587,0.32,0.3,0.2,0.19,352.54,352.54,0.0,0.0
1630625176.99992609,134828547,0.32,0.31,0.2,0.17,352.54,352.54,0.0,0.0
1630625177.09988618,134928507,0.29,0.3,0.2,0.18,352.54,352.54,0.0,0.0
1630625177.19984603,135028467,0.26,0.27,0.2,0.18,352.54,352.54,0.0,0.0
1630625177.29980612,135128427,0.24,0.24,0.19,0.18,352.54,352.54,0.0,0.0
1630625177.39976621,135228387,0.24,0.22,0.18,0.16,352.54,352.54,0.0,0.0
1630625177.49972606,135328347,0.23,0.21,0.19,0.17,352.54,352.54,0.0,0.0
1630625177.59968615,135428307,0.2,0.19,0.17,0.16,352.54,352.54,0.0,0.0
1630625177.69964600,135528267,0.17,0.16,0.14,0.13,352.54,352.54,0.0,0.0
1630625177.79960608,135628227,0.16,0.13,0.12,0.11,352.54,352.54,0.0,0.0
1630625177.89956617,135728187,0.16,0.13,0.1,0.09,352.54,352.54,0.0,0.0
1630625178.00035906,135828980,0.16,0.14,0.08,0.07,352.54,352.54,0.0,0.0
1630625178.10031915,135928940,0.18,0.15,0.08,0.05,352.54,352.54,0.0,0.0
1630625178.20027900,136028900,0.19,0.17,0.09,0.06,352.54,352.54,0.0,0.0
1630625178.30023909,136128860,0.19,0.18,0.1,0.07,352.54,352.55,0.0,0.0
1630625178.40019917,136228820,0.17,0.18,0.12,0.09,352.54,352.55,0.0,0.0
1630625178.50015903,136328780,0.14,0.15,0.12,0.11,352.54,352.55,0.0,0.0
1630625178.60011911,136428740,0.11,0.11,0.13,0.12,352.54,352.55,0.0,0.0
1630625178.70007920,136528700,0.11,0.09,0.14,0.13,352.54,352.55,0.0,0.0
1630625178.80003905,136628660,0.14,0.11,0.12,0.12,352.54,352.55,0.0,0.0
1630625178.89999914,136728620,0.1,0.09,0.04,0.07,352.54,352.54,0.0,0.0
1630625178.99995899,136828580,0.07,0.06,-0.16,-0.06,352.54,352.54,0.0,0.0
1630625179.09991908,136928540,0.03,0.03,-0.6,-0.4,352.54,352.54,0.0,0.0
1630625179.19987917,137028500,-0.03,-0.01,-1.29,-1.0,352.54,352.54,0.0,0.0
1630625179.29983902,137128460,-0.14,-0.1,-2.12,-1.83,352.54,352.54,0.0,0.0
1630625179.39979911,137228420,-0.24,-0.23,-3.03,-2.81,352.54,352.55,0.0,0.0
1630625179.49975920,137328380,-0.31,-0.32,-3.79,-3.76,352.54,352.55,0.0,0.0
1630625179.59971905,137428340,-0.39,-0.41,-4.33,-4.5,352.54,352.56,0.0,0.0
1630625179.69967914,137528300,-0.45,-0.48,-4.75,-5.02,352.54,352.56,0.0,0.0
1630625179.79963899,137628260,-0.49,-0.54,-5.13,-5.39,352.54,352.56,0.0,0.0
1630625179.89959908,137728220,-0.55,-0.58,-5.51,-5.7,352.54,352.56,0.0,0.0
1630625179.99955916,137828180,-0.6,-0.63,-5.91,-6.0,352.54,352.55,0.0,0.0
1630625180.10035205,137928973,-0.65,-0.67,-6.34,-6.37,352.54,352.55,0.0,0.0
1630625180.20031214,138028933,-0.72,-0.72,-6.78,-6.78,352.54,352.56,0.0,0.0
1630625180.30027199,138128893,-0.79,-0.79,-7.17,-7.2,352.54,352.56,0.0,0.0
1630625180.40023208,138228853,-0.84,-0.86,-7.51,-7.57,352.54,352.55,0.0,0.0
1630625180.50019217,138328813,-0.88,-0.9,-7.76,-7.87,352.54,352.55,0.0,0.0
1630625180.60015202,138428773,-0.89,-0.92,-7.94,-8.07,352.54,352.55,0.0,0.0
1630625180.70011210,138528733,-0.87,-0.91,-8.05,-8.18,352.54,352.55,0.0,0.0
1630625180.80007219,138628693,-0.88,-0.9,-8.18,-8.25,352.54,352.55,0.0,0.0
1630625180.90003204,138728653,-0.88,-0.9,-8.34,-8.35,352.54,352.54,0.0,0.0
1630625180.99999213,138828613,-0.91,-0.98,-8.61,-8.52,351.29,352.52,0.0,0.0
1630625181.09995198,138928573,-0.94,-1.26,-8.98,-8.81,349.02,352.21,0.0,0.0
1630625181.19991207,139028533,-0.88,-1.4,-9.45,-9.24,347.82,351.31,0.0,0.0
1630625181.29987216,139128493,-0.67,-1.24,-9.94,-9.77,347.19,349.95,0.0,0.0
1630625181.39983201,139228453,-0.33,-0.78,-10.42,-10.32,346.86,348.38,0.0,0.0
1630625181.49979210,139328413,0.0,-0.17,-10.87,-10.84,346.68,346.83,0.0,0.0
1630625181.59975219,139428373,0.28,0.42,-11.27,-11.3,346.59,345.49,0.0,0.0
1630625181.69971204,139528333,0.47,0.89,-11.65,-11.7,346.52,344.49,0.0,0.0
1630625181.79967213,139628293,0.56,1.17,-11.99,-12.05,346.47,343.89,0.0,0.0
1630625181.89963198,139728253,0.57,1.25,-12.34,-12.37,346.4,343.68,0.0,0.0
1630625181.99959207,139828213,0.5,1.16,-12.7,-12.7,346.34,343.8,0.0,0.0
1630625182.09955215,139928173,0.37,0.92,-13.1,-13.07,346.26,344.19,0.0,0.0
1630625182.20034504,140028966,0.19,0.58,-13.49,-13.46,346.18,344.73,0.0,0.0
1630625182.30030513,140128926,0.0,0.19,-13.86,-13.85,346.1,345.34,0.0,0.0
1630625182.40026498,140228886,-0.16,-0.17,-14.21,-14.23,346.02,345.92,0.0,0.0
1630625182.50022507,140328846,-0.25,-0.45,-14.51,-14.55,345.95,346.4,0.0,0.0
1630625182.60018516,140428806,-0.28,-0.62,-14.73,-14.81,345.89,346.74,0.0,0.0
1630625182.70014501,140528766,-0.26,-0.66,-14.87,-14.98,345.84,346.91,0.0,0.0
1630625182.80010509,140628726,-0.2,-0.61,-14.99,-15.09,345.81,346.92,0.0,0.0
1630625182.90006518,140728686,-0.12,-0.47,-15.09,-15.16,345.79,346.81,0.0,0.0
1630625183.00002503,140828646,-0.04,-0.3,-15.21,-15.23,345.78,346.6,0.0,0.0
1630625183.09998512,140928606,0.04,-0.13,-15.31,-15.31,345.77,346.33,0.0,0.0
1630625183.19994497,141028566,0.12,0.04,-15.42,-15.41,345.76,346.04,0.0,0.0
1630625183.29990506,141128526,0.18,0.19,-15.51,-15.5,345.76,345.78,0.0,0.0
1630625183.39986515,141228486,0.21,0.3,-15.59,-15.59,345.76,345.57,0.0,0.0
1630625183.49982500,141328446,0.25,0.38,-15.66,-15.66,345.76,345.42,0.0,0.0
1630625183.59978509,141428406,0.26,0.41,-15.72,-15.73,345.76,345.34,0.0,0.0
1630625183.69974518,141528366,0.25,0.39,-15.81,-15.8,345.76,345.32,0.0,0.0
1630625183.79970503,141628326,0.22,0.34,-15.91,-15.9,345.75,345.36,0.0,0.0
1630625183.89966512,141728286,0.19,0.27,-15.98,-15.98,345.75,345.44,0.0,0.0
1630625183.99962521,141828246,0.17,0.2,-16.03,-16.05,345.74,345.55,0.0,0.0
1630625184.09958506,141928206,0.17,0.15,-16.08,-16.1,345.73,345.66,0.0,0.0
1630625184.19954515,142028166,0.18,0.12,-16.13,-16.16,345.73,345.76,0.0,0.0
1630625184.30033803,142128959,0.19,0.11,-16.18,-16.21,345.72,345.84,0.0,0.0
1630625184.40029812,142228919,0.2,0.12,-16.24,-16.26,345.72,345.9,0.0,0.0
1630625184.50025821,142328879,0.23,0.15,-16.28,-16.3,345.72,345.93,0.0,0.0
1630625184.60021806,142428839,0.24,0.18,-16.33,-16.33,345.72,345.94,0.0,0.0
1630625184.70017815,142528799,0.26,0.21,-16.36,-16.37,345.72,345.92,0.0,0.0
1630625184.80013800,142628759,0.28,0.23,-16.38,-16.4,345.73,345.89,0.0,0.0
1630625184.90009809,142728719,0.28,0.25,-16.41,-16.42,345.73,345.85,0.0,0.0
1630625185.00005817,142828679,0.3,0.27,-16.44,-16.44,345.73,345.81,0.0,0.0
1630625185.10001802,142928639,0.35,0.31,-16.48,-16.48,345.73,345.77,0.0,0.0
1630625185.19997811,143028599,0.38,0.38,-16.52,-16.52,345.73,345.74,0.0,0.0
1630625185.29993820,143128559,0.38,0.4,-16.57,-16.57,345.73,345.72,0.0,0.0
1630625185.39989805,143228519,0.35,0.39,-16.6,-16.62,345.74,345.71,0.0,0.0
1630625185.49985814,143328479,0.34,0.37,-16.62,-16.65,345.73,345.7,0.0,0.0
1630625185.59981799,143428439,0.34,0.36,-16.67,-16.68,345.73,345.71,0.0,0.0
1630625185.69977808,143528399,0.35,0.36,-16.7,-16.71,345.72,345.72,0.0,0.0
1630625185.79973817,143628359,0.36,0.36,-16.72,-16.74,345.72,345.73,0.0,0.0
1630625185.89969802,143728319,0.39,0.37,-16.75,-16.76,345.71,345.74,0.0,0.0
1630625185.99965811,143828279,0.37,0.38,-16.78,-16.79,345.71,345.75,0.0,0.0
1630625186.09961820,143928239,0.34,0.36,-16.82,-16.83,345.7,345.76,0.0,0.0
1630625186.19957805,144028199,0.32,0.33,-16.85,-16.86,345.7,345.76,0.0,0.0
1630625186.29953814,144128159,0.3,0.3,-16.87,-16.89,345.69,345.75,0.0,0.0
1630625186.40033102,144228952,0.31,0.29,-16.9,-16.92,345.68,345.74,0.0,0.0
1630625186.50029111,144328912,0.32,0.3,-16.94,-16.95,345.67,345.73,0.0,0.0
1630625186.60025120,144428872,0.36,0.32,-16.96,-16.98,345.66,345.72,0.0,0.0
1630625186.70021105,144528832,0.4,0.37,-16.97,-17.0,345.65,345.7,0.0,0.0
1630625186.80017114,144628792,0.41,0.4,-16.96,-16.99,345.64,345.68,0.0,0.0
1630625186.90013099,144728752,0.43,0.42,-16.97,-16.98,345.63,345.66,0.0,0.0
1630625187.00009108,144828712,0.45,0.43,-17.02,-17.01,345.62,345.64,0.0,0.0
1630625187.10005116,144928672,0.47,0.46,-17.08,-17.06,345.62,345.63,0.0,0.0
1630625187.20001101,145028632,0.48,0.48,-17.09,-17.1,345.61,345.62,0.0,0.0
1630625187.29997110,145128592,0.48,0.49,-17.12,-17.13,345.61,345.61,0.0,0.0
1630625187.39993119,145228552,0.48,0.48,-17.16,-17.16,345.6,345.6,0.0,0.0
1630625187.49989104,145328512,0.48,0.48,-17.21,-17.2,345.59,345.59,0.0,0.0
1630625187.59985113,145428472,0.47,0.47,-17.26,-17.26,345.58,345.59,0.0,0.0
1630625187.69981098,145528432,0.45,0.45,-17.29,-17.32,345.57,345.59,0.0,0.0
1630625187.79977107,145628392,0.45,0.43,-17.29,-17.35,345.56,345.58,0.0,0.0
1630625187.89973116,145728352,0.46,0.43,-17.27,-17.33,345.55,345.58,0.0,0.0
1630625187.99969101,145828312,0.48,0.44,-17.28,-17.31,345.54,345.57,0.0,0.0
1630625188.09965110,145928272,0.5,0.47,-17.31,-17.32,345.53,345.56,0.0,0.0
1630625188.19961119,146028232,0.52,0.49,-17.35,-17.35,345.52,345.56,0.0,0.0
1630625188.29957104,146128192,0.54,0.52,-17.41,-17.39,345.52,345.54,0.0,0.0
1630625188.40036416,146228985,0.54,0.54,-17.44,-17.45,345.51,345.53,0.0,0.0
1630625188.50032401,146328945,0.52,0.53,-17.46,-17.48,345.5,345.52,0.0,0.0
1630625188.60028410,146428905,0.52,0.52,-17.47,-17.5,345.49,345.51,0.0,0.0
1630625188.70024419,146528865,0.52,0.51,-17.47,-17.51,345.48,345.49,0.0,0.0
1630625188.80020404,146628825,0.52,0.51,-17.43,-17.49,345.47,345.48,0.0,0.0
1630625188.90016413,146728785,0.53,0.51,-17.44,-17.46,345.46,345.47,0.0,0.0
1630625189.00012398,146828745,0.55,0.53,-17.48,-17.47,345.45,345.45,0.0,0.0
1630625189.10008407,146928705,0.58,0.56,-17.54,-17.51,345.44,345.44,0.0,0.0
1630625189.20004416,147028665,0.61,0.59,-17.58,-17.57,345.43,345.43,0.0,0.0
1630625189.30000401,147128625,0.6,0.61,-17.62,-17.62,345.42,345.42,0.0,0.0
1630625189.39996409,147228585,0.58,0.6,-17.61,-17.65,345.42,345.41,0.0,0.0
1630625189.49992418,147328545,0.56,0.58,-17.61,-17.65,345.41,345.41,0.0,0.0
1630625189.59988403,147428505,0.55,0.56,-17.63,-17.65,345.4,345.4,0.0,0.0
1630625189.69984412,147528465,0.54,0.55,-17.64,-17.66,345.39,345.4,0.0,0.0
1630625189.79980397,147628425,0.54,0.54,-17.64,-17.66,345.38,345.39,0.0,0.0
1630625189.89976406,147728385,0.57,0.56,-17.66,-17.67,345.37,345.38,0.0,0.0
1630625189.99972415,147828345,0.6,0.59,-17.7,-17.7,345.36,345.37,0.0,0.0
1630625190.09968400,147928305,0.61,0.61,-17.74,-17.75,345.36,345.36,0.0,0.0
1630625190.19964409,148028265,0.62,0.62,-17.76,-17.79,345.35,345.35,0.0,0.0
1630625190.29960418,148128225,0.61,0.63,-17.75,-17.8,345.34,345.34,0.0,0.0
1630625190.39956403,148228185,0.59,0.62,-17.72,-17.78,345.34,345.34,0.0,0.0
1630625190.50035715,148328978,0.57,0.6,-17.71,-17.75,345.33,345.33,0.0,0.0
1630625190.60031700,148428938,0.56,0.57,-17.68,-17.71,345.32,345.33,0.0,0.0
1630625190.70027709,148528898,0.55,0.55,-17.67,-17.67,345.31,345.32,0.0,0.0
1630625190.80023718,148628858,0.54,0.53,-17.7,-17.68,345.3,345.31,0.0,0.0
1630625190.90019703,148728818,0.54,0.52,-17.74,-17.71,345.3,345.3,0.0,0.0
1630625191.00015712,148828778,0.56,0.53,-17.77,-17.76,345.29,345.3,0.0,0.0
1630625191.10011721,148928738,0.59,0.56,-17.78,-17.79,345.28,345.29,0.0,0.0
1630625191.20007706,149028698,0.61,0.59,-17.79,-17.81,345.28,345.28,0.0,0.0
1630625191.30003715,149128658,0.65,0.63,-17.8,-17.82,345.27,345.27,0.0,0.0
1630625191.39999700,149228618,0.67,0.66,-17.79,-17.81,345.27,345.27,0.0,0.0
1630625191.49995708,149328578,0.69,0.68,-17.8,-17.8,345.27,345.26,0.0,0.0
1630625191.59991717,149428538,0.67,0.68,-17.83,-17.81,345.27,345.26,0.0,0.0
1630625191.69987702,149528498,0.63,0.66,-17.85,-17.84,345.26,345.26,0.0,0.0
1630625191.79983711,149628458,0.59,0.61,-17.87,-17.87,345.26,345.25,0.0,0.0
1630625191.89979720,149728418,0.58,0.57,-17.9,-17.9,345.25,345.25,0.0,0.0
1630625191.99975705,149828378,0.59,0.56,-17.89,-17.92,345.25,345.25,0.0,0.0
1630625192.09971714,149928338,0.59,0.56,-17.86,-17.9,345.24,345.25,0.0,0.0
1630625192.19967699,150028298,0.59,0.57,-17.84,-17.87,345.24,345.25,0.0,0.0
1630625192.29963708,150128258,0.6,0.58,-17.84,-17.85,345.24,345.24,0.0,0.0
1630625192.39959717,150228218,0.6,0.59,-17.89,-17.87,345.23,345.24,0.0,0.0
1630625192.49955702,150328178,0.61,0.61,-17.92,-17.91,345.23,345.23,0.0,0.0
1630625192.60035014,150428971,0.6,0.61,-17.95,-17.95,345.23,345.23,0.0,0.0
1630625192.70030999,150528931,0.59,0.59,-17.97,-17.99,345.22,345.22,0.0,0.0
1630625192.80027008,150628891,0.61,0.59,-17.96,-18.0,345.22,345.22,0.0,0.0
1630625192.90023017,150728851,0.62,0.61,-17.93,-17.98,345.22,345.21,0.0,0.0
1630625193.00019002,150828811,0.62,0.61,-17.92,-17.95,345.22,345.21,0.0,0.0
1630625193.10015011,150928771,0.59,0.6,-17.89,-17.92,345.22,345.21,0.0,0.0
1630625193.20011020,151028731,0.56,0.57,-17.88,-17.89,345.21,345.2,0.0,0.0
1630625193.30007005,151128691,0.56,0.55,-17.9,-17.89,345.21,345.2,0.0,0.0
1630625193.40003014,151228651,0.59,0.56,-17.92,-17.92,345.21,345.2,0.0,0.0
1630625193.49998999,151328611,0.61,0.59,-17.96,-17.96,345.21,345.2,0.0,0.0
1630625193.59995008,151428571,0.63,0.61,-17.98,-18.0,345.21,345.2,0.0,0.0
1630625193.69991016,151528531,0.65,0.64,-17.99,-18.02,345.21,345.2,0.0,0.0
1630625193.79987001,151628491,0.69,0.67,-17.97,-18.02,345.21,345.2,0.0,0.0
1630625193.89983010,151728451,0.74,0.72,-17.95,-18.0,345.22,345.2,0.0,0.0
1630625193.99979019,151828411,0.74,0.75,-17.94,-17.97,345.22,345.21,0.0,0.0
1630625194.09975004,151928371,0.73,0.76,-17.95,-17.95,345.23,345.21,0.0,0.0
1630625194.19971013,152028331,0.72,0.75,-17.96,-17.95,345.24,345.22,0.0,0.0
1630625194.29966998,152128291,0.7,0.73,-17.97,-17.97,345.24,345.23,0.0,0.0
1630625194.39963007,152228251,0.67,0.69,-17.99,-17.99,345.24,345.24,0.0,0.0
1630625194.49959016,152328211,0.65,0.65,-18.01,-18.01,345.24,345.25,0.0,0.0
1630625194.59955001,152428171,0.65,0.63,-18.03,-18.05,345.25,345.25,0.0,0.0
1630625194.70034313,152528964,0.65,0.63,-18.01,-18.05,345.25,345.25,0.0,0.0
1630625194.80030298,152628924,0.65,0.63,-17.99,-18.03,345.25,345.25,0.0,0.0
1630625194.90026307,152728884,0.67,0.64,-18.0,-18.0,345.25,345.25,0.0,0.0
1630625195.00022316,152828844,0.68,0.65,-18.03,-18.01,345.25,345.25,0.0,0.0
1630625195.10018301,152928804,0.69,0.67,-18.05,-18.04,345.26,345.25,0.0,0.0
1630625195.20014310,153028764,0.7,0.69,-18.05,-18.06,345.26,345.25,0.0,0.0
1630625195.30010319,153128724,0.7,0.69,-18.04,-18.06,345.26,345.25,0.0,0.0
1630625195.40006304,153228684,0.69,0.69,-18.02,-18.04,345.27,345.26,0.0,0.0
1630625195.50002313,153328644,0.68,0.68,-18.0,-18.01,345.27,345.26,0.0,0.0
1630625195.59998298,153428604,0.69,0.68,-18.01,-18.0,345.27,345.27,0.0,0.0
1630625195.69994307,153528564,0.71,0.7,-18.03,-18.02,345.28,345.27,0.0,0.0
1630625195.79990315,153628524,0.73,0.72,-18.06,-18.05,345.28,345.27,0.0,0.0
1630625195.89986300,153728484,0.72,0.72,-18.08,-18.09,345.29,345.28,0.0,0.0
1630625195.99982309,153828444,0.7,0.72,-18.11,-18.12,345.29,345.29,0.0,0.0
1630625196.09978318,153928404,0.69,0.71,-18.14,-18.16,345.3,345.3,0.0,0.0
1630625196.19974303,154028364,0.72,0.7,-18.16,-18.19,345.3,345.3,0.0,0.0
1630625196.29970312,154128324,0.74,0.71,-18.15,-18.2,345.31,345.31,0.0,0.0
1630625196.39966297,154228284,0.73,0.72,-18.12,-18.18,345.31,345.32,0.0,0.0
1630625196.49962306,154328244,0.73,0.72,-18.1,-18.14,345.32,345.32,0.0,0.0
1630625196.59958315,154428204,0.72,0.73,-18.11,-18.13,345.32,345.33,0.0,0.0
1630625196.69954300,154528164,0.69,0.71,-18.12,-18.13,345.32,345.33,0.0,0.0
1630625196.80033612,154628957,0.68,0.67,-18.12,-18.13,345.33,345.34,0.0,0.0
1630625196.90029597,154728917,0.68,0.65,-18.12,-18.13,345.33,345.34,0.0,0.0
1630625197.00025606,154828877,0.68,0.65,-18.12,-18.14,345.33,345.34,0.0,0.0
1630625197.10021615,154928837,0.69,0.65,-18.15,-18.15,345.33,345.34,0.0,0.0
1630625197.20017600,155028797,0.71,0.67,-18.16,-18.16,345.33,345.34,0.0,0.0
1630625197.30013609,155128757,0.74,0.7,-18.17,-18.18,345.33,345.33,0.0,0.0
1630625197.40009618,155228717,0.74,0.72,-18.17,-18.18,345.33,345.33,0.0,0.0
1630625197.50005603,155328677,0.73,0.73,-18.15,-18.17,345.34,345.33,0.0,0.0
1630625197.60001612,155428637,0.72,0.73,-18.13,-18.16,345.34,345.33,0.0,0.0
1630625197.69997621,155528597,0.71,0.72,-18.12,-18.14,345.34,345.33,0.0,0.0
1630625197.79993606,155628557,0.71,0.71,-18.13,-18.13,345.34,345.33,0.0,0.0
1630625197.89989614,155728517,0.7,0.69,-18.15,-18.14,345.34,345.33,0.0,0.0
1630625197.99985600,155828477,0.69,0.68,-18.16,-18.16,345.34,345.33,0.0,0.0
1630625198.09981608,155928437,0.7,0.68,-18.19,-18.18,345.34,345.33,0.0,0.0
1630625198.19977617,156028397,0.71,0.69,-18.17,-18.2,345.34,345.34,0.0,0.0
1630625198.29973602,156128357,0.71,0.7,-18.14,-18.18,345.34,345.34,0.0,0.0
1630625198.39969611,156228317,0.69,0.69,-18.11,-18.14,345.34,345.34,0.0,0.0
1630625198.49965620,156328277,0.68,0.68,-18.11,-18.12,345.34,345.35,0.0,0.0
1630625198.59961605,156428237,0.69,0.68,-18.11,-18.11,345.35,345.35,0.0,0.0
1630625198.69957614,156528197,0.72,0.7,-18.12,-18.11,345.35,345.35,0.0,0.0
1630625198.79953599,156628157,0.74,0.72,-18.13,-18.13,345.35,345.35,0.0,0.0
1630625198.90032911,156728950,0.75,0.74,-18.16,-18.14,345.35,345.35,0.0,0.0
1630625199.00028920,156828910,0.74,0.75,-18.17,-18.17,345.36,345.35,0.0,0.0
1630625199.10024905,156928870,0.71,0.74,-18.17,-18.18,345.36,345.35,0.0,0.0
1630625199.20020914,157028830,0.7,0.72,-18.17,-18.2,345.36,345.35,0.0,0.0
1630625199.30016899,157128790,0.71,0.71,-18.16,-18.19,345.36,345.35,0.0,0.0
1630625199.40012908,157228750,0.71,0.7,-18.15,-18.18,345.37,345.36,0.0,0.0
1630625199.50008917,157328710,0.7,0.68,-18.15,-18.16,345.37,345.36,0.0,0.0
1630625199.60004902,157428670,0.71,0.68,-18.15,-18.16,345.37,345.36,0.0,0.0
1630625199.70000911,157528630,0.74,0.7,-18.14,-18.14,345.37,345.37,0.0,0.0
1630625199.79996920,157628590,0.75,0.73,-18.15,-18.15,345.37,345.37,0.0,0.0
1630625199.89992905,157728550,0.77,0.75,-18.15,-18.16,345.37,345.37,0.0,0.0
1630625199.99988914,157828510,0.79,0.78,-18.15,-18.17,345.38,345.37,0.0,0.0
1630625200.09984899,157928470,0.77,0.78,-18.2,-18.19,345.38,345.37,0.0,0.0
1630625200.19980907,158028430,0.76,0.77,-18.22,-18.23,345.38,345.37,0.0,0.0
1630625200.29976916,158128390,0.75,0.75,-18.19,-18.23,345.38,345.37,0.0,0.0
1630625200.39972901,158228350,0.77,0.76,-18.14,-18.19,345.38,345.37,0.0,0.0
1630625200.49968910,158328310,0.77,0.77,-18.12,-18.15,345.38,345.37,0.0,0.0
1630625200.59964919,158428270,0.75,0.76,-18.13,-18.13,345.38,345.37,0.0,0.0
1630625200.69960904,158528230,0.74,0.74,-18.14,-18.14,345.37,345.37,0.0,0.0
1630625200.79956913,158628190,0.73,0.72,-18.15,-18.15,345.37,345.37,0.0,0.0
1630625200.90036201,158728983,0.74,0.7,-18.16,-18.16,345.37,345.37,0.0,0.0
1630625201.00032210,158828943,0.76,0.72,-18.15,-18.16,345.37,345.36,0.0,0.0
1630625201.10028219,158928903,0.75,0.73,-18.14,-18.16,345.37,345.36,0.0,0.0
1630625201.20024204,159028863,0.74,0.72,-18.17,-18.17,345.37,345.36,0.0,0.0
1630625201.30020213,159128823,0.74,0.72,-18.2,-18.2,345.36,345.35,0.0,0.0
1630625201.40016198,159228783,0.72,0.71,-18.19,-18.21,345.36,345.35,0.0,0.0
1630625201.50012207,159328743,0.75,0.72,-18.18,-18.21,345.36,345.35,0.0,0.0
1630625201.60008216,159428703,0.8,0.75,-18.17,-18.2,345.36,345.35,0.0,0.0
1630625201.70004201,159528663,0.83,0.8,-18.13,-18.18,345.36,345.35,0.0,0.0
1630625201.80000210,159628623,0.82,0.82,-18.07,-18.12,345.36,345.36,0.0,0.0
1630625201.89996219,159728583,0.8,0.82,-18.07,-18.07,345.36,345.36,0.0,0.0
1630625201.99992204,159828543,0.78,0.8,-18.1,-18.07,345.36,345.37,0.0,0.0
1630625202.09988213,159928503,0.76,0.77,-18.13,-18.1,345.36,345.37,0.0,0.0
1630625202.19984198,160028463,0.75,0.74,-18.13,-18.13,345.37,345.37,0.0,0.0
1630625202.29980206,160128423,0.71,0.71,-18.15,-18.14,345.36,345.37,0.0,0.0
1630625202.39976215,160228383,0.68,0.67,-18.16,-18.16,345.36,345.37,0.0,0.0
1630625202.49972200,160328343,0.7,0.67,-18.17,-18.17,345.36,345.37,0.0,0.0
1630625202.59968209,160428303,0.74,0.7,-18.18,-18.19,345.36,345.36,0.0,0.0
1630625202.69964218,160528263,0.75,0.73,-18.15,-18.19,345.36,345.36,0.0,0.0
1630625202.79960203,160628223,0.75,0.74,-18.12,-18.15,345.36,345.35,0.0,0.0
1630625202.89956212,160728183,0.71,0.72,-18.12,-18.13,345.35,345.35,0.0,0.0
1630625203.00035501,160828976,0.69,0.68,-18.15,-18.14,345.35,345.35,0.0,0.0
1630625203.10031509,160928936,0.7,0.66,-18.16,-18.15,345.35,345.34,0.0,0.0
1630625203.20027518,161028896,0.74,0.68,-18.15,-18.16,345.35,345.34,0.0,0.0
1630625203.30023503,161128856,0.79,0.73,-18.13,-18.15,345.34,345.33,0.0,0.0
1630625203.40019512,161228816,0.81,0.78,-18.13,-18.15,345.35,345.33,0.0,0.0
1630625203.50015497,161328776,0.81,0.8,-18.14,-18.15,345.35,345.33,0.0,0.0
1630625203.60011506,161428736,0.78,0.79,-18.14,-18.16,345.35,345.33,0.0,0.0
1630625203.70007515,161528696,0.73,0.75,-18.13,-18.15,345.35,345.33,0.0,0.0
1630625203.80003500,161628656,0.69,0.7,-18.12,-18.15,345.34,345.34,0.0,0.0
1630625203.89999509,161728616,0.7,0.68,-18.13,-18.14,345.34,345.34,0.0,0.0
1630625203.99995518,161828576,0.75,0.7,-18.13,-18.15,345.34,345.34,0.0,0.0
1630625204.09991503,161928536,0.78,0.76,-18.14,-18.14,345.34,345.34,0.0,0.0
1630625204.19987512,162028496,0.76,0.77,-18.17,-18.17,345.34,345.34,0.0,0.0
1630625204.29983521,162128456,0.75,0.76,-18.19,-18.2,345.34,345.34,0.0,0.0
1630625204.39979506,162228416,0.76,0.76,-18.17,-18.21,345.34,345.34,0.0,0.0
1630625204.49975514,162328376,0.76,0.76,-18.14,-18.19,345.34,345.34,0.0,0.0
1630625204.59971499,162428336,0.74,0.75,-18.12,-18.16,345.35,345.34,0.0,0.0
1630625204.69967508,162528296,0.71,0.72,-18.12,-18.14,345.34,345.34,0.0,0.0
1630625204.79963517,162628256,0.7,0.7,-18.16,-18.15,345.34,345.34,0.0,0.0
1630625204.89959502,162728216,0.71,0.7,-18.18,-18.18,345.34,345.34,0.0,0.0
1630625204.99955511,162828176,0.7,0.7,-18.17,-18.2,345.34,345.34,0.0,0.0
1630625205.10034800,162928969,0.7,0.69,-18.16,-18.19,345.34,345.34,0.0,0.0
1630625205.20030808,163028929,0.71,0.69,-18.17,-18.19,345.34,345.34,0.0,0.0
1630625205.30026817,163128889,0.73,0.71,-18.19,-18.2,345.34,345.34,0.0,0.0
1630625205.40022802,163228849,0.74,0.73,-18.2,-18.22,345.34,345.34,0.0,0.0
1630625205.50018811,163328809,0.76,0.75,-18.16,-18.2,345.34,345.34,0.0,0.0
1630625205.60014820,163428769,0.75,0.76,-18.13,-18.17,345.35,345.34,0.0,0.0
1630625205.70010805,163528729,0.75,0.75,-18.1,-18.13,345.35,345.34,0.0,0.0
1630625205.80006814,163628689,0.75,0.74,-18.07,-18.09,345.35,345.34,0.0,0.0
1630625205.90002799,163728649,0.74,0.74,-18.09,-18.08,345.35,345.34,0.0,0.0
1630625205.99998808,163828609,0.75,0.73,-18.12,-18.11,345.35,345.34,0.0,0.0
1630625206.09994817,163928569,0.75,0.74,-18.15,-18.15,345.35,345.34,0.0,0.0
1630625206.19990802,164028529,0.76,0.75,-18.15,-18.17,345.35,345.34,0.0,0.0
1630625206.29986811,164128489,0.75,0.75,-18.15,-18.18,345.35,345.34,0.0,0.0
1630625206.39982820,164228449,0.74,0.74,-18.15,-18.18,345.35,345.34,0.0,0.0
1630625206.49978805,164328409,0.74,0.73,-18.13,-18.16,345.35,345.34,0.0,0.0
1630625206.59974813,164428369,0.74,0.73,-18.15,-18.17,345.35,345.34,0.0,0.0
1630625206.69970798,164528329,0.76,0.73,-18.14,-18.16,345.35,345.34,0.0,0.0
1630625206.79966807,164628289,0.77,0.75,-18.14,-18.16,345.35,345.34,0.0,0.0
1630625206.89962816,164728249,0.77,0.76,-18.16,-18.16,345.35,345.34,0.0,0.0
1630625206.99958801,164828209,0.77,0.76,-18.19,-18.19,345.35,345.34,0.0,0.0
1630625207.09954810,164928169,0.74,0.74,-18.22,-18.22,345.35,345.34,0.0,0.0
1630625207.20034099,165028962,0.73,0.72,-18.22,-18.24,345.35,345.34,0.0,0.0
1630625207.30030107,165128922,0.75,0.72,-18.21,-18.24,345.35,345.34,0.0,0.0
1630625207.40026116,165228882,0.75,0.73,-18.2,-18.23,345.35,345.34,0.0,0.0
1630625207.50022101,165328842,0.75,0.74,-18.21,-18.23,345.35,345.34,0.0,0.0
1630625207.60018110,165428802,0.72,0.72,-18.23,-18.24,345.35,345.34,0.0,0.0
1630625207.70014119,165528762,0.72,0.7,-18.22,-18.24,345.35,345.34,0.0,0.0
1630625207.80010104,165628722,0.73,0.7,-18.21,-18.23,345.35,345.34,0.0,0.0
1630625207.90006113,165728682,0.74,0.72,-18.22,-18.23,345.35,345.34,0.0,0.0
1630625208.00002098,165828642,0.75,0.73,-18.22,-18.23,345.36,345.34,0.0,0.0
1630625208.09998107,165928602,0.75,0.73,-18.21,-18.22,345.36,345.35,0.0,0.0
1630625208.19994116,166028562,0.75,0.73,-18.18,-18.2,345.36,345.35,0.0,0.0
1630625208.29990101,166128522,0.75,0.74,-18.18,-18.19,345.36,345.36,0.0,0.0
1630625208.39986110,166228482,0.75,0.75,-18.19,-18.19,345.36,345.36,0.0,0.0
1630625208.49982119,166328442,0.74,0.74,-18.21,-18.21,345.36,345.36,0.0,0.0
1630625208.59978104,166428402,0.76,0.75,-18.22,-18.22,345.37,345.36,0.0,0.0
1630625208.69974113,166528362,0.76,0.77,-18.19,-18.22,345.37,345.37,0.0,0.0
1630625208.79970098,166628322,0.77,0.78,-18.15,-18.2,345.37,345.37,0.0,0.0
1630625208.89966106,166728282,0.78,0.79,-18.1,-18.15,345.37,345.37,0.0,0.0
1630625208.99962115,166828242,0.77,0.78,-18.06,-18.1,345.37,345.37,0.0,0.0
1630625209.09958100,166928202,0.75,0.76,-18.07,-18.07,345.37,345.37,0.0,0.0
1630625209.19954109,167028162,0.73,0.73,-18.09,-18.07,345.38,345.37,0.0,0.0
1630625209.30033398,167128955,0.73,0.71,-18.12,-18.1,345.38,345.37,0.0,0.0
1630625209.40029407,167228915,0.74,0.72,-18.13,-18.13,345.38,345.37,0.0,0.0
1630625209.50025415,167328875,0.72,0.71,-18.13,-18.14,345.38,345.37,0.0,0.0
1630625209.60021400,167428835,0.73,0.7,-18.14,-18.15,345.38,345.37,0.0,0.0
1630625209.70017409,167528795,0.75,0.72,-18.14,-18.16,345.38,345.37,0.0,0.0
1630625209.80013418,167628755,0.75,0.73,-18.1,-18.15,345.38,345.37,0.0,0.0
1630625209.90009403,167728715,0.78,0.76,-18.09,-18.12,345.38,345.37,0.0,0.0
1630625210.00005412,167828675,0.8,0.78,-18.11,-18.1,345.38,345.37,0.0,0.0
1630625210.10001397,167928635,0.8,0.8,-18.14,-18.11,345.38,345.37,0.0,0.0
1630625210.19997406,168028595,0.8,0.81,-18.17,-18.14,345.38,345.37,0.0,0.0
1630625210.29993415,168128555,0.76,0.79,-18.2,-18.18,345.38,345.36,0.0,0.0
1630625210.39989400,168228515,0.73,0.74,-18.19,-18.21,345.38,345.36,0.0,0.0
1630625210.49985409,168328475,0.72,0.7,-18.18,-18.21,345.37,345.36,0.0,0.0
1630625210.59981418,168428435,0.72,0.68,-18.18,-18.21,345.37,345.36,0.0,0.0
1630625210.69977403,168528395,0.75,0.7,-18.17,-18.2,345.37,345.36,0.0,0.0
1630625210.79973412,168628355,0.8,0.75,-18.16,-18.19,345.37,345.36,0.0,0.0
1630625210.89969420,168728315,0.8,0.79,-18.17,-18.18,345.37,345.36,0.0,0.0
1630625210.99965405,168828275,0.79,0.79,-18.17,-18.19,345.37,345.36,0.0,0.0
1630625211.09961414,168928235,0.78,0.78,-18.16,-18.18,345.37,345.36,0.0,0.0
1630625211.19957399,169028195,0.77,0.77,-18.14,-18.17,345.38,345.36,0.0,0.0
1630625211.29953408,169128155,0.77,0.77,-18.11,-18.14,345.38,345.37,0.0,0.0
1630625211.40032721,169228948,0.76,0.75,-18.12,-18.14,345.38,345.37,0.0,0.0
1630625211.50028706,169328908,0.75,0.73,-18.12,-18.14,345.38,345.37,0.0,0.0
1630625211.60024714,169428868,0.73,0.72,-18.13,-18.15,345.38,345.37,0.0,0.0
1630625211.70020700,169528828,0.73,0.71,-18.11,-18.14,345.38,345.38,0.0,0.0
1630625211.80016708,169628788,0.75,0.71,-18.1,-18.12,345.38,345.38,0.0,0.0
1630625211.90012717,169728748,0.76,0.74,-18.1,-18.11,345.38,345.38,0.0,0.0
1630625212.00008702,169828708,0.79,0.77,-18.11,-18.11,345.39,345.38,0.0,0.0
1630625212.10004711,169928668,0.81,0.8,-18.13,-18.13,345.39,345.38,0.0,0.0
1630625212.20000720,170028628,0.82,0.82,-18.15,-18.15,345.39,345.38,0.0,0.0
1630625212.29996705,170128588,0.8,0.82,-18.14,-18.16,345.39,345.38,0.0,0.0
1630625212.39992714,170228548,0.79,0.8,-18.15,-18.17,345.4,345.38,0.0,0.0
1630625212.49988699,170328508,0.79,0.78,-18.15,-18.17,345.4,345.39,0.0,0.0
1630625212.59984708,170428468,0.78,0.78,-18.17,-18.18,345.4,345.39,0.0,0.0
1630625212.69980717,170528428,0.75,0.75,-18.2,-18.2,345.4,345.39,0.0,0.0
1630625212.79976702,170628388,0.72,0.71,-18.2,-18.22,345.4,345.39,0.0,0.0
1630625212.89972711,170728348,0.71,0.68,-18.19,-18.22,345.4,345.4,0.0,0.0
