timestamp,TimeUS,DesRoll,Roll,DesPitch,Pitch,DesYaw,Yaw,ErrRP,ErrYaw
1630603909.59999990,57428686,0.0,0.1,0.0,0.08,352.92,352.93,0.0,0.0
1630603909.69995999,57528646,0.0,0.1,0.0,0.08,352.92,352.93,0.0,0.0
1630603909.79992008,57628606,0.0,0.1,0.0,0.08,352.92,352.93,0.0,0.0
1630603909.89987993,57728566,0.0,0.1,0.0,0.08,352.92,352.93,0.0,0.0
1630603909.99984002,57828526,0.0,0.1,0.0,0.08,352.92,352.93,0.0,0.0
1630603910.09980011,57928486,0.0,0.1,0.0,0.08,352.92,352.93,0.0,0.0
1630603910.19975996,58028446,0.0,0.1,0.0,0.08,352.92,352.93,0.0,0.0
1630603910.29972005,58128406,0.0,0.1,0.0,0.08,352.92,352.93,0.0,0.0
1630603910.39967990,58228366,0.0,0.1,0.0,0.08,352.92,352.93,0.0,0.0
1630603910.49963999,58328326,0.0,0.1,0.0,0.08,352.92,352.93,0.0,0.0
1630603910.59960008,58428286,0.0,0.1,0.0,0.08,352.92,352.93,0.0,0.0
1630603910.69955993,58528246,0.0,0.1,0.0,0.08,352.92,352.93,0.0,0.0
1630603910.79952002,58628206,0.0,0.1,0.0,0.08,352.92,352.93,0.0,0.0
1630603910.89948010,58728166,0.0,0.1,0.0,0.08,352.92,352.93,0.0,0.0
1630603911.00027299,58828959,0.0,0.1,0.0,0.08,352.92,352.93,0.0,0.0
1630603911.10023308,58928919,0.0,0.1,0.0,0.08,352.92,352.93,0.0,0.0
1630603911.20019293,59028879,0.0,0.1,0.0,0.08,352.92,352.93,0.0,0.0
1630603911.30015302,59128839,0.0,0.1,0.0,0.09,352.92,352.93,0.0,0.0
1630603911.40011311,59228799,0.0,0.1,0.0,0.08,352.92,352.93,0.0,0.0
1630603911.50007296,59328759,0.0,0.1,0.0,0.09,352.92,352.93,0.0,0.0
1630603911.60003304,59428719,0.0,0.1,0.0,0.09,352.92,352.93,0.0,0.0
1630603911.69999290,59528679,0.0,0.1,0.0,0.09,352.92,352.93,0.0,0.0
1630603911.79995298,59628639,0.0,0.1,0.0,0.09,352.93,352.94,0.0,0.0
1630603911.89991307,59728599,0.0,0.1,0.0,0.09,352.93,352.94,0.0,0.0
1630603911.99987292,59828559,-0.02,0.1,-0.02,0.09,352.93,352.94,0.0,0.0
1630603912.09983301,59928519,-0.12,0.1,-0.13,0.09,352.93,352.94,0.0,0.0
1630603912.19979310,60028479,-0.19,0.1,-0.19,0.09,352.93,352.94,0.0,0.0
1630603912.29975295,60128439,-0.23,0.1,-0.24,0.09,352.93,352.94,0.0,0.0
1630603912.39971304,60228399,-0.26,0.1,-0.27,0.09,352.93,352.94,0.0,0.0
1630603912.49967289,60328359,-0.28,0.1,-0.29,0.09,352.93,352.94,0.0,0.0
1630603912.59963298,60428319,-0.3,0.1,-0.31,0.09,352.93,352.94,0.0,0.0
1630603912.69959307,60528279,-0.33,0.1,-0.33,0.09,352.93,352.94,0.0,0.0
1630603912.79955292,60628239,-0.35,0.1,-0.36,0.09,352.93,352.94,0.0,0.0
1630603912.89951301,60728199,-0.36,0.1,-0.38,0.09,352.93,352.94,0.0,0.0
1630603912.99947309,60828159,-0.37,0.1,-0.39,0.09,352.93,352.94,0.0,0.0
1630603913.10026598,60928952,-0.42,0.11,-0.45,0.09,352.93,352.94,0.0,0.0
1630603913.20022607,61028912,-0.45,0.1,-0.48,0.09,352.93,352.94,0.0,0.0
1630603913.30018592,61128872,-0.46,0.11,-0.48,0.09,352.93,352.94,0.0,0.0
1630603913.40014601,61228832,-0.45,0.11,-0.49,0.09,352.93,352.94,0.0,0.0
1630603913.50010610,61328792,-0.44,0.11,-0.52,0.09,352.93,352.94,0.0,0.0
1630603913.60006595,61428752,-0.49,0.04,-0.56,0.02,352.93,352.94,0.0,0.0
1630603913.70002604,61528712,-0.53,-0.29,-0.58,-0.31,352.93,352.94,0.0,0.0
1630603913.79998589,61628672,-0.49,-0.64,-0.55,-0.67,352.93,352.94,0.0,0.0
1630603913.89994597,61728632,-0.34,-0.79,-0.41,-0.85,352.93,352.94,0.0,0.0
1630603913.99990606,61828592,-0.13,-0.75,-0.19,-0.82,352.93,352.94,0.0,0.0
1630603914.09986591,61928552,0.12,-0.54,0.02,-0.62,352.93,352.93,0.0,0.0
1630603914.19982600,62028512,0.34,-0.24,0.2,-0.37,352.93,352.93,0.0,0.0
1630603914.29978609,62128472,0.46,0.01,0.36,-0.13,352.93,352.93,0.0,0.0
1630603914.39974594,62228432,0.54,0.19,0.47,0.07,352.93,352.93,0.0,0.0
1630603914.49970603,62328392,0.59,0.31,0.52,0.21,352.93,352.93,0.0,0.0
1630603914.59966612,62428352,0.57,0.35,0.51,0.27,352.93,352.93,0.0,0.0
1630603914.69962597,62528312,0.54,0.33,0.49,0.27,352.93,352.93,0.0,0.0
1630603914.79958606,62628272,0.49,0.28,0.45,0.24,352.93,352.93,0.0,0.0
1630603914.89954591,62728232,0.44,0.23,0.41,0.2,352.93,352.93,0.0,0.0
1630603914.99950600,62828192,0.43,0.2,0.4,0.17,352.93,352.93,0.0,0.0
1630603915.10029912,62928985,0.45,0.21,0.42,0.18,352.93,352.93,0.0,0.0
1630603915.20025897,63028945,0.45,0.23,0.44,0.2,352.93,352.93,0.0,0.0
1630603915.30021906,63128905,0.43,0.25,0.47,0.26,352.72,352.73,0.0,0.0
1630603915.40017891,63228865,0.41,0.26,0.48,0.3,352.72,352.73,0.0,0.0
1630603915.50013900,63328825,0.37,0.25,0.51,0.36,352.72,352.73,0.0,0.0
1630603915.60009909,63428785,0.35,0.24,0.53,0.4,352.72,352.73,0.0,0.0
1630603915.70005894,63528745,0.35,0.23,0.49,0.42,352.72,352.73,0.0,0.0
1630603915.80001903,63628705,0.34,0.23,0.44,0.38,352.72,352.74,0.0,0.0
1630603915.89997911,63728665,0.34,0.24,0.4,0.33,352.72,352.74,0.0,0.0
1630603915.99993896,63828625,0.32,0.24,0.36,0.28,352.72,352.74,0.0,0.0
1630603916.09989905,63928585,0.3,0.24,0.31,0.23,352.72,352.73,0.0,0.0
1630603916.19985890,64028545,0.27,0.22,0.28,0.19,352.72,352.73,0.0,0.0
1630603916.29981899,64128505,0.23,0.19,0.27,0.18,352.72,352.73,0.0,0.0
1630603916.39977908,64228465,0.2,0.14,0.25,0.18,352.72,352.73,0.0,0.0
1630603916.49973893,64328425,0.17,0.11,0.19,0.15,352.72,352.73,0.0,0.0
1630603916.59969902,64428385,0.16,0.09,0.15,0.11,352.72,352.73,0.0,0.0
1630603916.69965911,64528345,0.15,0.09,0.12,0.08,352.72,352.73,0.0,0.0
1630603916.79961896,64628305,0.16,0.1,0.1,0.05,352.72,352.73,0.0,0.0
1630603916.89957905,64728265,0.16,0.12,0.09,0.04,352.72,352.73,0.0,0.0
1630603916.99953890,64828225,0.14,0.12,0.08,0.03,352.72,352.73,0.0,0.0
1630603917.09949899,64928185,0.14,0.11,0.07,0.02,352.72,352.73,0.0,0.0
1630603917.20029211,65028978,0.13,0.11,0.08,0.03,352.72,352.72,0.0,0.0
1630603917.30025196,65128938,0.12,0.11,0.09,0.04,352.72,352.72,0.0,0.0
1630603917.40021205,65228898,0.14,0.11,0.09,0.05,352.72,352.72,0.0,0.0
1630603917.50017190,65328858,0.1,0.11,0.11,0.07,352.72,352.72,0.0,0.0
1630603917.60013199,65428818,0.04,0.05,0.14,0.1,352.72,352.72,0.0,0.0
1630603917.70009208,65528778,0.01,0.0,0.17,0.15,352.72,352.72,0.0,0.0
1630603917.80005193,65628738,0.0,-0.03,0.17,0.17,352.72,352.72,0.0,0.0
1630603917.90001202,65728698,0.03,-0.02,0.13,0.15,352.72,352.73,0.0,0.0
1630603917.99997211,65828658,0.03,0.0,0.1,0.11,352.72,352.73,0.0,0.0
1630603918.09993196,65928618,0.05,0.01,0.08,0.08,352.72,352.73,0.0,0.0
1630603918.19989204,66028578,0.06,0.03,0.05,0.05,352.72,352.73,0.0,0.0
1630603918.29985189,66128538,0.05,0.04,0.04,0.02,352.72,352.73,0.0,0.0
1630603918.39981198,66228498,0.04,0.02,0.05,0.02,352.72,352.73,0.0,0.0
1630603918.49977207,66328458,0.03,0.01,0.08,0.04,352.72,352.73,0.0,0.0
1630603918.59973192,66428418,0.06,0.02,0.11,0.08,352.72,352.73,0.0,0.0
1630603918.69969201,66528378,0.06,0.04,0.14,0.12,352.72,352.73,0.0,0.0
1630603918.79965210,66628338,0.07,0.05,0.14,0.14,352.72,352.73,0.0,0.0
1630603918.89961195,66728298,0.07,0.05,0.14,0.16,352.72,352.73,0.0,0.0
1630603918.99957204,66828258,0.09,0.06,0.13,0.15,352.72,352.73,0.0,0.0
1630603919.09953189,66928218,0.1,0.08,0.1,0.13,352.72,352.73,0.0,0.0
1630603919.19949198,67028178,0.1,0.1,0.07,0.09,352.72,352.73,0.0,0.0
1630603919.30028510,67128971,0.09,0.11,0.07,0.06,352.72,352.73,0.0,0.0
1630603919.40024495,67228931,0.1,0.1,0.12,0.06,352.72,352.73,0.0,0.0
1630603919.50020504,67328891,0.15,0.13,0.16,0.11,352.72,352.73,0.0,0.0
1630603919.60016489,67428851,0.2,0.17,0.19,0.16,352.72,352.73,0.0,0.0
1630603919.70012498,67528811,0.23,0.23,0.19,0.18,352.72,352.73,0.0,0.0
1630603919.80008507,67628771,0.22,0.24,0.19,0.19,352.72,352.73,0.0,0.0
1630603919.90004492,67728731,0.22,0.24,0.19,0.19,352.72,352.72,0.0,0.0
1630603920.00000501,67828691,0.22,0.23,0.18,0.18,352.72,352.72,0.0,0.0
1630603920.09996510,67928651,0.2,0.22,0.16,0.17,352.72,352.72,0.0,0.0
1630603920.19992495,68028611,0.17,0.18,0.17,0.17,352.72,352.72,0.0,0.0
1630603920.29988503,68128571,0.13,0.14,0.17,0.17,352.72,352.72,0.0,0.0
1630603920.39984488,68228531,0.14,0.11,0.17,0.16,352.72,352.72,0.0,0.0
1630603920.49980497,68328491,0.17,0.13,0.18,0.16,352.72,352.72,0.0,0.0
1630603920.59976506,68428451,0.22,0.17,0.17,0.16,352.72,352.72,0.0,0.0
1630603920.69972491,68528411,0.24,0.22,0.17,0.16,352.72,352.73,0.0,0.0
1630603920.79968500,68628371,0.23,0.23,0.16,0.15,352.72,352.73,0.0,0.0
1630603920.89964509,68728331,0.21,0.23,0.13,0.14,352.72,352.73,0.0,0.0
1630603920.99960494,68828291,0.16,0.2,0.09,0.1,352.72,352.73,0.0,0.0
1630603921.09956503,68928251,0.16,0.16,0.09,0.08,352.72,352.73,0.0,0.0
1630603921.19952512,69028211,0.16,0.14,0.12,0.08,352.72,352.73,0.0,0.0
1630603921.29948497,69128171,0.16,0.13,0.14,0.11,352.72,352.73,0.0,0.0
1630603921.40027809,69228964,0.18,0.14,0.15,0.13,352.72,352.73,0.0,0.0
1630603921.50023794,69328924,0.18,0.16,0.18,0.16,352.72,352.73,0.0,0.0
1630603921.60019803,69428884,0.14,0.14,0.17,0.17,352.72,352.73,0.0,0.0
1630603921.70015812,69528844,0.12,0.13,0.14,0.16,352.72,352.73,0.0,0.0
1630603921.80011797,69628804,0.14,0.12,0.12,0.14,352.72,352.73,0.0,0.0
1630603921.90007806,69728764,0.16,0.13,0.09,0.1,352.72,352.73,0.0,0.0
1630603922.00003791,69828724,0.16,0.14,0.08,0.07,352.72,352.73,0.0,0.0
1630603922.09999800,69928684,0.13,0.13,0.1,0.07,352.72,352.72,0.0,0.0
1630603922.19995809,70028644,0.09,0.1,0.1,0.08,352.72,352.72,0.0,0.0
1630603922.29991794,70128604,0.07,0.07,0.07,0.07,352.72,352.72,0.0,0.0
1630603922.39987803,70228564,0.09,0.05,0.04,0.05,352.72,352.72,0.0,0.0
1630603922.49983811,70328524,0.14,0.08,0.03,0.03,352.72,352.72,0.0,0.0
1630603922.59979796,70428484,0.15,0.12,0.01,0.01,352.72,352.72,0.0,0.0
1630603922.69975805,70528444,0.14,0.13,0.02,0.01,352.72,352.72,0.0,0.0
1630603922.79971790,70628404,0.13,0.13,0.04,0.01,352.72,352.72,0.0,0.0
1630603922.89967799,70728364,0.11,0.13,0.03,0.02,352.72,352.72,0.0,0.0
1630603922.99963808,70828324,0.09,0.11,0.01,0.01,352.72,352.72,0.0,0.0
1630603923.09959793,70928284,0.08,0.09,0.03,0.01,352.72,352.72,0.0,0.0
1630603923.19955802,71028244,0.08,0.08,0.05,0.03,352.72,352.72,0.0,0.0
1630603923.29951811,71128204,0.05,0.06,0.08,0.06,352.72,352.72,0.0,0.0
1630603923.39947796,71228164,0.03,0.03,0.08,0.09,352.72,352.73,0.0,0.0
1630603923.50027108,71328957,0.03,0.01,0.07,0.09,352.72,352.73,0.0,0.0
1630603923.60023093,71428917,0.06,0.01,0.06,0.09,352.72,352.73,0.0,0.0
1630603923.70019102,71528877,0.09,0.06,0.04,0.06,352.72,352.73,0.0,0.0
1630603923.80015111,71628837,0.11,0.09,0.05,0.05,352.72,352.73,0.0,0.0
1630603923.90011096,71728797,0.13,0.12,0.07,0.05,352.72,352.73,0.0,0.0
1630603924.00007105,71828757,0.15,0.15,0.1,0.07,352.72,352.73,0.0,0.0
1630603924.10003090,71928717,0.12,0.15,0.12,0.1,352.72,352.73,0.0,0.0
1630603924.19999099,72028677,0.07,0.12,0.08,0.1,352.72,352.73,0.0,0.0
1630603924.29995108,72128637,0.05,0.09,0.05,0.08,352.72,352.73,0.0,0.0
1630603924.39991093,72228597,0.03,0.06,0.06,0.07,352.72,352.73,0.0,0.0
1630603924.49987102,72328557,0.03,0.04,0.06,0.06,352.72,352.73,0.0,0.0
1630603924.59983110,72428517,0.05,0.03,0.06,0.05,352.72,352.73,0.0,0.0
1630603924.69979095,72528477,0.07,0.05,0.06,0.04,352.72,352.73,0.0,0.0
1630603924.79975104,72628437,0.07,0.05,0.06,0.03,352.72,352.73,0.0,0.0
1630603924.89971089,72728397,0.03,0.03,0.09,0.05,352.72,352.73,0.0,0.0
1630603924.99967098,72828357,0.0,0.0,0.13,0.09,352.72,352.73,0.0,0.0
1630603925.09963107,72928317,-0.01,-0.03,0.13,0.11,352.72,352.73,0.0,0.0
1630603925.19959092,73028277,0.03,-0.01,0.12,0.12,352.72,352.73,0.0,0.0
1630603925.29955101,73128237,0.07,0.03,0.13,0.13,352.72,352.73,0.0,0.0
1630603925.39951110,73228197,0.08,0.06,0.11,0.12,352.72,352.72,0.0,0.0
1630603925.49947095,73328157,0.09,0.08,0.1,0.1,352.72,352.72,0.0,0.0
1630603925.60026407,73428950,0.11,0.09,0.12,0.1,352.72,352.73,0.0,0.0
1630603925.70022392,73528910,0.13,0.12,0.14,0.12,352.72,352.73,0.0,0.0
1630603925.80018401,73628870,0.13,0.13,0.13,0.12,352.72,352.73,0.0,0.0
1630603925.90014410,73728830,0.16,0.14,0.11,0.11,352.72,352.73,0.0,0.0
1630603926.00010395,73828790,0.19,0.17,0.08,0.08,352.72,352.73,0.0,0.0
1630603926.10006404,73928750,0.18,0.19,0.09,0.07,352.72,352.73,0.0,0.0
1630603926.20002389,74028710,0.16,0.18,0.1,0.07,352.72,352.74,0.0,0.0
1630603926.29998398,74128670,0.16,0.17,0.12,0.09,352.72,352.74,0.0,0.0
1630603926.39994407,74228630,0.18,0.17,0.16,0.13,352.72,352.74,0.0,0.0
1630603926.49990392,74328590,0.18,0.18,0.16,0.16,352.72,352.73,0.0,0.0
1630603926.59986401,74428550,0.18,0.17,0.14,0.16,352.72,352.73,0.0,0.0
1630603926.69982409,74528510,0.18,0.17,0.1,0.12,352.72,352.73,0.0,0.0
1630603926.79978395,74628470,0.18,0.16,0.04,0.07,352.72,352.73,0.0,0.0
1630603926.89974403,74728430,0.19,0.17,0.02,0.01,352.72,352.73,0.0,0.0
1630603926.99970388,74828390,0.19,0.18,0.01,0.0,352.72,352.72,0.0,0.0
1630603927.09966397,74928350,0.16,0.16,0.01,-0.01,352.72,352.72,0.0,0.0
1630603927.19962406,75028310,0.11,0.11,0.04,0.0,352.72,352.72,0.0,0.0
1630603927.29958391,75128270,0.12,0.09,0.06,0.04,352.72,352.72,0.0,0.0
1630603927.39954400,75228230,0.15,0.11,0.05,0.05,352.72,352.73,0.0,0.0
1630603927.49950409,75328190,0.17,0.15,0.06,0.06,352.72,352.73,0.0,0.0
1630603927.60029697,75428983,0.21,0.19,0.07,0.06,352.72,352.73,0.0,0.0
1630603927.70025706,75528943,0.24,0.23,0.07,0.07,352.72,352.73,0.0,0.0
1630603927.80021691,75628903,0.22,0.25,0.03,0.05,352.72,352.73,0.0,0.0
1630603927.90017700,75728863,0.18,0.22,0.04,0.04,352.72,352.73,0.0,0.0
1630603928.00013709,75828823,0.14,0.16,0.05,0.05,352.72,352.74,0.0,0.0
1630603928.10009694,75928783,0.15,0.14,0.06,0.06,352.72,352.73,0.0,0.0
1630603928.20005703,76028743,0.17,0.14,0.07,0.06,352.72,352.73,0.0,0.0
1630603928.30001712,76128703,0.16,0.14,0.08,0.06,352.72,352.73,0.0,0.0
1630603928.39997697,76228663,0.16,0.13,0.1,0.08,352.72,352.73,0.0,0.0
1630603928.49993706,76328623,0.17,0.15,0.09,0.09,352.72,352.73,0.0,0.0
1630603928.59989691,76428583,0.21,0.18,0.08,0.09,352.72,352.72,0.0,0.0
1630603928.69985700,76528543,0.21,0.21,0.11,0.1,352.72,352.72,0.0,0.0
1630603928.79981709,76628503,0.2,0.21,0.12,0.11,352.72,352.72,0.0,0.0
1630603928.89977694,76728463,0.18,0.2,0.12,0.12,352.72,352.72,0.0,0.0
1630603928.99973702,76828423,0.14,0.17,0.13,0.12,352.72,352.72,0.0,0.0
1630603929.09969711,76928383,0.1,0.12,0.15,0.14,352.72,352.72,0.0,0.0
1630603929.19965696,77028343,0.08,0.08,0.14,0.14,352.72,352.73,0.0,0.0
1630603929.29961705,77128303,0.11,0.08,0.14,0.13,352.72,352.73,0.0,0.0
1630603929.39957690,77228263,0.15,0.11,0.16,0.14,352.72,352.73,0.0,0.0
1630603929.49953699,77328223,0.2,0.15,0.16,0.15,352.72,352.73,0.0,0.0
1630603929.59949708,77428183,0.19,0.18,0.13,0.14,352.72,352.74,0.0,0.0
1630603929.70028996,77528976,0.16,0.18,0.14,0.14,352.72,352.74,0.0,0.0
1630603929.80025005,77628936,0.12,0.14,0.14,0.13,352.72,352.73,0.0,0.0
1630603929.90020990,77728896,0.11,0.1,0.1,0.11,352.72,352.73,0.0,0.0
1630603930.00016999,77828856,0.14,0.11,0.11,0.09,352.72,352.72,0.0,0.0
1630603930.10013008,77928816,0.15,0.12,0.14,0.11,352.72,352.72,0.0,0.0
1630603930.20008993,78028776,0.16,0.14,0.16,0.14,352.72,352.72,0.0,0.0
1630603930.30005002,78128736,0.17,0.15,0.13,0.13,352.72,352.72,0.0,0.0
1630603930.40001011,78228696,0.16,0.16,0.06,0.08,352.72,352.72,0.0,0.0
1630603930.49996996,78328656,0.13,0.15,0.02,0.01,352.72,352.72,0.0,0.0
1630603930.59993005,78428616,0.12,0.13,0.05,0.0,352.72,352.72,0.0,0.0
1630603930.69988990,78528576,0.12,0.12,0.11,0.04,352.72,352.72,0.0,0.0
1630603930.79984999,78628536,0.12,0.11,0.17,0.12,352.72,352.72,0.0,0.0
1630603930.89981008,78728496,0.11,0.1,0.19,0.17,352.72,352.73,0.0,0.0
1630603930.99976993,78828456,0.09,0.08,0.19,0.2,352.72,352.73,0.0,0.0
1630603931.09973001,78928416,0.1,0.08,0.17,0.18,352.72,352.73,0.0,0.0
1630603931.19969010,79028376,0.1,0.08,0.15,0.16,352.72,352.73,0.0,0.0
1630603931.29964995,79128336,0.12,0.09,0.13,0.13,352.72,352.73,0.0,0.0
1630603931.39961004,79228296,0.13,0.11,0.11,0.11,352.72,352.73,0.0,0.0
1630603931.49956989,79328256,0.1,0.11,0.11,0.1,352.72,352.73,0.0,0.0
1630603931.59952998,79428216,0.08,0.08,0.14,0.11,352.72,352.72,0.0,0.0
1630603931.69949007,79528176,0.07,0.06,0.18,0.15,352.72,352.72,0.0,0.0
1630603931.80028296,79628969,0.09,0.06,0.19,0.18,352.72,352.72,0.0,0.0
1630603931.90024304,79728929,0.12,0.09,0.19,0.2,352.72,352.73,0.0,0.0
1630603932.00020289,79828889,0.13,0.12,0.17,0.19,352.72,352.73,0.0,0.0
1630603932.10016298,79928849,0.09,0.1,0.14,0.16,352.72,352.73,0.0,0.0
1630603932.20012307,80028809,0.05,0.07,0.11,0.13,352.72,352.73,0.0,0.0
1630603932.30008292,80128769,0.04,0.03,0.1,0.1,352.72,352.73,0.0,0.0
1630603932.40004301,80228729,0.07,0.03,0.11,0.08,352.72,352.73,0.0,0.0
1630603932.50000310,80328689,0.1,0.06,0.14,0.1,352.72,352.73,0.0,0.0
1630603932.59996295,80428649,0.14,0.09,0.16,0.12,352.72,352.73,0.0,0.0
1630603932.69992304,80528609,0.16,0.14,0.14,0.12,352.72,352.72,0.0,0.0
1630603932.79988289,80628569,0.18,0.17,0.14,0.12,352.72,352.72,0.0,0.0
1630603932.89984298,80728529,0.21,0.2,0.15,0.14,352.72,352.72,0.0,0.0
1630603932.99980307,80828489,0.19,0.21,0.16,0.15,352.72,352.72,0.0,0.0
1630603933.09976292,80928449,0.17,0.2,0.16,0.15,352.72,352.73,0.0,0.0
1630603933.19972301,81028409,0.16,0.18,0.16,0.16,352.72,352.73,0.0,0.0
1630603933.29968309,81128369,0.15,0.16,0.14,0.16,352.72,352.73,0.0,0.0
1630603933.39964294,81228329,0.14,0.15,0.12,0.14,352.72,352.73,0.0,0.0
1630603933.49960303,81328289,0.13,0.14,0.09,0.11,352.72,352.73,0.0,0.0
1630603933.59956288,81428249,0.14,0.14,0.08,0.08,352.72,352.73,0.0,0.0
1630603933.69952297,81528209,0.16,0.15,0.1,0.08,352.72,352.73,0.0,0.0
1630603933.79948306,81628169,0.17,0.15,0.11,0.09,352.72,352.73,0.0,0.0
1630603933.90027595,81728962,0.18,0.16,0.13,0.12,352.72,352.73,0.0,0.0
1630603934.00023603,81828922,0.18,0.17,0.17,0.16,352.72,352.73,0.0,0.0
1630603934.10019588,81928882,0.17,0.17,0.2,0.2,352.72,352.73,0.0,0.0
1630603934.20015597,82028842,0.19,0.16,0.2,0.23,352.72,352.73,0.0,0.0
1630603934.30011606,82128802,0.16,0.16,0.18,0.22,352.72,352.73,0.0,0.0
1630603934.40007591,82228762,0.11,0.13,0.12,0.17,352.72,352.73,0.0,0.0
1630603934.50003600,82328722,0.11,0.1,0.08,0.11,352.72,352.72,0.0,0.0
1630603934.59999609,82428682,0.11,0.09,0.1,0.07,352.72,352.72,0.0,0.0
1630603934.69995594,82528642,0.12,0.09,0.14,0.08,352.72,352.72,0.0,0.0
1630603934.79991603,82628602,0.14,0.11,0.16,0.11,352.72,352.73,0.0,0.0
1630603934.89987612,82728562,0.17,0.14,0.18,0.14,352.72,352.73,0.0,0.0
1630603934.99983597,82828522,0.18,0.17,0.16,0.16,352.72,352.73,0.0,0.0
1630603935.09979606,82928482,0.18,0.19,0.13,0.14,352.72,352.73,0.0,0.0
1630603935.19975591,83028442,0.17,0.2,0.12,0.13,352.72,352.72,0.0,0.0
1630603935.29971600,83128402,0.11,0.16,0.1,0.11,352.72,352.72,0.0,0.0
1630603935.39967608,83228362,0.08,0.1,0.1,0.09,352.72,352.72,0.0,0.0
1630603935.49963593,83328322,0.08,0.06,0.11,0.09,352.72,352.72,0.0,0.0
1630603935.59959602,83428282,0.08,0.05,0.12,0.09,352.72,352.72,0.0,0.0
1630603935.69955611,83528242,0.08,0.05,0.15,0.11,352.72,352.72,0.0,0.0
1630603935.79951596,83628202,0.09,0.07,0.17,0.14,352.72,352.73,0.0,0.0
1630603935.89947605,83728162,0.1,0.09,0.18,0.16,352.72,352.73,0.0,0.0
1630603936.00026894,83828955,0.13,0.11,0.18,0.17,352.72,352.73,0.0,0.0
1630603936.10022902,83928915,0.15,0.13,0.16,0.18,352.72,352.72,0.0,0.0
1630603936.20018911,84028875,0.17,0.14,0.14,0.16,352.72,352.72,0.0,0.0
1630603936.30014896,84128835,0.2,0.17,0.12,0.13,352.72,352.72,0.0,0.0
1630603936.40010905,84228795,0.2,0.21,0.08,0.09,352.72,352.72,0.0,0.0
1630603936.50006890,84328755,0.18,0.21,0.07,0.07,352.72,352.72,0.0,0.0
1630603936.60002899,84428715,0.17,0.19,0.09,0.06,352.72,352.72,0.0,0.0
1630603936.69998908,84528675,0.14,0.16,0.08,0.07,352.72,352.72,0.0,0.0
1630603936.79994893,84628635,0.14,0.14,0.06,0.05,352.72,352.72,0.0,0.0
1630603936.89990902,84728595,0.13,0.13,0.04,0.04,352.72,352.72,0.0,0.0
1630603936.99986911,84828555,0.15,0.13,0.04,0.02,352.72,352.72,0.0,0.0
1630603937.09982896,84928515,0.16,0.14,0.07,0.04,352.72,352.72,0.0,0.0
1630603937.19978905,85028475,0.14,0.15,0.09,0.06,352.72,352.72,0.0,0.0
1630603937.29974890,85128435,0.12,0.13,0.13,0.1,352.72,352.72,0.0,0.0
1630603937.39970899,85228395,0.11,0.11,0.17,0.14,352.72,352.72,0.0,0.0
1630603937.49966908,85328355,0.11,0.09,0.2,0.19,352.72,352.72,0.0,0.0
1630603937.59962893,85428315,0.13,0.09,0.21,0.23,352.72,352.72,0.0,0.0
1630603937.69958901,85528275,0.17,0.12,0.15,0.2,352.72,352.72,0.0,0.0
1630603937.79954910,85628235,0.16,0.14,0.08,0.13,352.72,352.72,0.0,0.0
1630603937.89950895,85728195,0.14,0.14,0.05,0.06,352.72,352.72,0.0,0.0
1630603937.99946904,85828155,0.14,0.13,0.04,0.02,352.72,352.72,0.0,0.0
1630603938.10026193,85928948,0.14,0.13,0.05,0.01,352.72,352.72,0.0,0.0
1630603938.20022202,86028908,0.14,0.13,0.07,0.02,352.72,352.72,0.0,0.0
1630603938.30018210,86128868,0.13,0.12,0.1,0.06,352.72,352.72,0.0,0.0
1630603938.40014195,86228828,0.15,0.13,0.12,0.1,352.72,352.72,0.0,0.0
1630603938.50010204,86328788,0.16,0.14,0.1,0.11,352.72,352.72,0.0,0.0
1630603938.60006189,86428748,0.17,0.16,0.1,0.1,352.72,352.72,0.0,0.0
1630603938.70002198,86528708,0.18,0.17,0.05,0.08,352.72,352.72,0.0,0.0
1630603938.79998207,86628668,0.15,0.16,0.05,0.05,352.72,352.72,0.0,0.0
1630603938.89994192,86728628,0.1,0.13,0.1,0.06,352.72,352.72,0.0,0.0
1630603938.99990201,86828588,0.06,0.07,0.14,0.11,352.72,352.72,0.0,0.0
1630603939.09986210,86928548,0.04,0.02,0.14,0.14,352.72,352.72,0.0,0.0
1630603939.19982195,87028508,0.07,0.02,0.13,0.16,352.72,352.72,0.0,0.0
1630603939.29978204,87128468,0.12,0.06,0.13,0.16,352.72,352.72,0.0,0.0
1630603939.39974189,87228428,0.15,0.12,0.14,0.15,352.72,352.72,0.0,0.0
1630603939.49970198,87328388,0.12,0.14,0.12,0.13,352.72,352.72,0.0,0.0
1630603939.59966207,87428348,0.11,0.13,0.08,0.09,352.72,352.72,0.0,0.0
1630603939.69962192,87528308,0.09,0.11,0.05,0.05,352.72,352.72,0.0,0.0
1630603939.79958200,87628268,0.08,0.08,0.06,0.02,352.72,352.72,0.0,0.0
1630603939.89954209,87728228,0.1,0.08,0.08,0.03,352.72,352.73,0.0,0.0
1630603939.99950194,87828188,0.11,0.09,0.12,0.07,352.72,352.73,0.0,0.0
1630603940.10029507,87928981,0.07,0.09,0.14,0.11,352.72,352.73,0.0,0.0
1630603940.20025492,88028941,0.03,0.05,0.15,0.14,352.72,352.73,0.0,0.0
1630603940.30021501,88128901,0.03,0.02,0.15,0.15,352.72,352.73,0.0,0.0
1630603940.40017509,88228861,0.06,0.03,0.15,0.15,352.72,352.73,0.0,0.0
1630603940.50013494,88328821,0.08,0.05,0.14,0.15,352.72,352.73,0.0,0.0
1630603940.60009503,88428781,0.09,0.08,0.12,0.14,352.72,352.73,0.0,0.0
1630603940.70005488,88528741,0.1,0.09,0.11,0.12,352.72,352.73,0.0,0.0
1630603940.80001497,88628701,0.08,0.08,0.11,0.12,352.72,352.73,0.0,0.0
1630603940.89997506,88728661,0.09,0.07,0.09,0.1,352.72,352.73,0.0,0.0
1630603940.99993491,88828621,0.12,0.09,0.09,0.08,352.72,352.73,0.0,0.0
1630603941.09989500,88928581,0.14,0.11,0.12,0.08,352.72,352.72,0.0,0.0
1630603941.19985509,89028541,0.18,0.15,0.16,0.12,352.72,352.72,0.0,0.0
1630603941.29981494,89128501,0.22,0.2,0.18,0.15,352.72,352.72,0.0,0.0
1630603941.39977503,89228461,0.23,0.22,0.19,0.17,352.72,352.72,0.0,0.0
1630603941.49973512,89328421,0.21,0.22,0.19,0.18,352.72,352.72,0.0,0.0
1630603941.59969497,89428381,0.19,0.21,0.18,0.18,352.72,352.72,0.0,0.0
1630603941.69965506,89528341,0.19,0.19,0.18,0.18,352.72,352.72,0.0,0.0
1630603941.79961491,89628301,0.21,0.2,0.16,0.17,352.72,352.72,0.0,0.0
1630603941.89957500,89728261,0.2,0.19,0.17,0.16,352.72,352.72,0.0,0.0
1630603941.99953508,89828221,0.18,0.17,0.18,0.16,352.72,352.73,0.0,0.0
1630603942.09949493,89928181,0.19,0.17,0.19,0.17,352.72,352.73,0.0,0.0
1630603942.20028806,90028974,0.21,0.19,0.19,0.18,352.72,352.73,0.0,0.0
1630603942.30024791,90128934,0.22,0.2,0.18,0.18,352.72,352.73,0.0,0.0
1630603942.40020800,90228894,0.23,0.21,0.19,0.19,352.72,352.72,0.0,0.0
1630603942.50016809,90328854,0.25,0.23,0.19,0.19,352.72,352.73,0.0,0.0
1630603942.60012794,90428814,0.22,0.22,0.2,0.19,352.72,352.72,0.0,0.0
1630603942.70008802,90528774,0.19,0.19,0.2,0.19,352.72,352.72,0.0,0.0
1630603942.80004811,90628734,0.18,0.18,0.18,0.17,352.72,352.72,0.0,0.0
1630603942.90000796,90728694,0.17,0.16,0.16,0.15,352.72,352.72,0.0,0.0
1630603942.99996805,90828654,0.19,0.17,0.13,0.12,352.72,352.72,0.0,0.0
1630603943.09992790,90928614,0.21,0.19,0.14,0.11,352.72,352.72,0.0,0.0
1630603943.19988799,91028574,0.19,0.21,0.17,0.13,352.72,352.72,0.0,0.0
1630603943.29984808,91128534,0.13,0.17,0.18,0.15,352.72,352.72,0.0,0.0
1630603943.39980793,91228494,0.08,0.11,0.2,0.17,352.72,352.72,0.0,0.0
1630603943.49976802,91328454,0.09,0.06,0.2,0.19,352.72,352.72,0.0,0.0
1630603943.59972811,91428414,0.09,0.06,0.17,0.18,352.72,352.72,0.0,0.0
1630603943.69968796,91528374,0.09,0.06,0.13,0.15,352.72,352.72,0.0,0.0
1630603943.79964805,91628334,0.11,0.08,0.11,0.12,352.72,352.72,0.0,0.0
1630603943.89960790,91728294,0.1,0.09,0.13,0.12,352.72,352.72,0.0,0.0
1630603943.99956799,91828254,0.12,0.11,0.12,0.12,352.72,352.72,0.0,0.0
1630603944.09952807,91928214,0.17,0.15,0.1,0.11,352.72,352.72,0.0,0.0
1630603944.19948792,92028174,0.2,0.18,0.09,0.09,352.72,352.72,0.0,0.0
1630603944.30028105,92128967,0.18,0.2,0.1,0.08,352.72,352.72,0.0,0.0
1630603944.40024090,92228927,0.17,0.19,0.13,0.09,352.72,352.72,0.0,0.0
1630603944.50020099,92328887,0.18,0.19,0.17,0.13,352.72,352.72,0.0,0.0
1630603944.60016108,92428847,0.19,0.18,0.17,0.16,352.72,352.72,0.0,0.0
1630603944.70012093,92528807,0.19,0.18,0.16,0.17,352.72,352.72,0.0,0.0
1630603944.80008101,92628767,0.2,0.18,0.17,0.17,352.72,352.72,0.0,0.0
1630603944.90004110,92728727,0.2,0.19,0.18,0.17,352.72,352.72,0.0,0.0
1630603945.00000095,92828687,0.18,0.18,0.12,0.15,352.72,352.72,0.0,0.0
1630603945.09996104,92928647,0.18,0.18,0.08,0.1,352.72,352.72,0.0,0.0
1630603945.19992089,93028607,0.19,0.18,0.08,0.07,352.72,352.72,0.0,0.0
1630603945.29988098,93128567,0.17,0.17,0.07,0.05,352.72,352.72,0.0,0.0
1630603945.39984107,93228527,0.15,0.14,0.1,0.07,352.72,352.72,0.0,0.0
1630603945.49980092,93328487,0.15,0.14,0.12,0.1,352.72,352.73,0.0,0.0
1630603945.59976101,93428447,0.18,0.15,0.11,0.11,352.72,352.73,0.0,0.0
1630603945.69972110,93528407,0.21,0.18,0.11,0.11,352.72,352.73,0.0,0.0
1630603945.79968095,93628367,0.2,0.19,0.1,0.1,352.72,352.73,0.0,0.0
1630603945.89964104,93728327,0.17,0.17,0.1,0.1,352.72,352.73,0.0,0.0
1630603945.99960089,93828287,0.16,0.15,0.11,0.1,352.72,352.73,0.0,0.0
1630603946.09956098,93928247,0.17,0.15,0.12,0.11,352.72,352.72,0.0,0.0
1630603946.19952106,94028207,0.17,0.16,0.13,0.12,352.72,352.72,0.0,0.0
1630603946.29948092,94128167,0.18,0.17,0.14,0.14,352.72,352.72,0.0,0.0
1630603946.40027404,94228960,0.19,0.17,0.15,0.15,352.72,352.72,0.0,0.0
1630603946.50023389,94328920,0.23,0.2,0.15,0.15,352.72,352.72,0.0,0.0
1630603946.60019398,94428880,0.24,0.23,0.15,0.14,352.72,352.72,0.0,0.0
1630603946.70015407,94528840,0.23,0.24,0.16,0.15,352.72,352.72,0.0,0.0
1630603946.80011392,94628800,0.21,0.23,0.17,0.16,352.72,352.72,0.0,0.0
1630603946.90007401,94728760,0.2,0.21,0.15,0.15,352.72,352.72,0.0,0.0
1630603947.00003409,94828720,0.22,0.2,0.13,0.13,352.72,352.72,0.0,0.0
1630603947.09999394,94928680,0.21,0.2,0.1,0.11,352.72,352.72,0.0,0.0
1630603947.19995403,95028640,0.2,0.19,0.1,0.08,352.72,352.72,0.0,0.0
1630603947.29991388,95128600,0.17,0.17,0.1,0.08,352.72,352.72,0.0,0.0
1630603947.39987397,95228560,0.16,0.16,0.1,0.07,352.72,352.72,0.0,0.0
1630603947.49983406,95328520,0.17,0.15,0.11,0.08,352.72,352.72,0.0,0.0
1630603947.59979391,95428480,0.2,0.17,0.12,0.09,352.72,352.73,0.0,0.0
1630603947.69975400,95528440,0.18,0.17,0.16,0.13,352.72,352.73,0.0,0.0
1630603947.79971409,95628400,0.15,0.16,0.21,0.17,352.72,352.73,0.0,0.0
1630603947.89967394,95728360,0.13,0.13,0.23,0.21,352.72,352.73,0.0,0.0
1630603947.99963403,95828320,0.11,0.1,0.24,0.23,352.72,352.73,0.0,0.0
1630603948.09959412,95928280,0.1,0.09,0.21,0.23,352.72,352.72,0.0,0.0
1630603948.19955397,96028240,0.12,0.1,0.16,0.18,352.72,352.73,0.0,0.0
1630603948.29951406,96128200,0.14,0.13,0.15,0.14,352.72,352.73,0.0,0.0
1630603948.39947391,96228160,0.12,0.14,0.16,0.13,352.72,352.73,0.0,0.0
1630603948.50026703,96328953,0.13,0.14,0.18,0.15,352.72,352.73,0.0,0.0
1630603948.60022712,96428913,0.15,0.15,0.2,0.18,352.72,352.73,0.0,0.0
1630603948.70018697,96528873,0.17,0.16,0.23,0.22,352.72,352.72,0.0,0.0
1630603948.80014706,96628833,0.2,0.18,0.21,0.23,352.72,352.72,0.0,0.0
1630603948.90010691,96728793,0.19,0.19,0.18,0.22,352.72,352.72,0.0,0.0
1630603949.00006700,96828753,0.18,0.19,0.14,0.18,352.72,352.72,0.0,0.0
1630603949.10002708,96928713,0.14,0.18,0.14,0.14,352.72,352.72,0.0,0.0
1630603949.19998693,97028673,0.1,0.12,0.13,0.11,352.72,352.72,0.0,0.0
1630603949.29994702,97128633,0.07,0.07,0.13,0.1,352.72,352.72,0.0,0.0
1630603949.39990711,97228593,0.07,0.04,0.14,0.11,352.72,352.72,0.0,0.0
1630603949.49986696,97328553,0.1,0.05,0.16,0.12,352.72,352.72,0.0,0.0
1630603949.59982705,97428513,0.09,0.05,0.19,0.15,352.72,352.72,0.0,0.0
1630603949.69978690,97528473,0.09,0.06,0.19,0.17,352.72,352.72,0.0,0.0
1630603949.79974699,97628433,0.11,0.07,0.2,0.18,352.72,352.72,0.0,0.0
1630603949.89970708,97728393,0.13,0.09,0.2,0.2,352.72,352.71,0.0,0.0
1630603949.99966693,97828353,0.13,0.1,0.18,0.19,352.72,352.72,0.0,0.0
1630603950.09962702,97928313,0.13,0.1,0.15,0.17,352.72,352.72,0.0,0.0
1630603950.19958711,98028273,0.15,0.12,0.11,0.13,352.72,352.72,0.0,0.0
1630603950.29954696,98128233,0.17,0.15,0.11,0.1,352.72,352.72,0.0,0.0
1630603950.39950705,98228193,0.14,0.15,0.14,0.12,352.72,352.72,0.0,0.0
1630603950.50029993,98328986,0.13,0.13,0.15,0.13,352.72,352.72,0.0,0.0
1630603950.60026002,98428946,0.13,0.13,0.18,0.16,352.72,352.72,0.0,0.0
1630603950.70022011,98528906,0.12,0.12,0.21,0.2,352.72,352.72,0.0,0.0
1630603950.80017996,98628866,0.13,0.11,0.19,0.21,352.72,352.72,0.0,0.0
1630603950.90014005,98728826,0.13,0.11,0.18,0.21,352.72,352.72,0.0,0.0
1630603951.00009990,98828786,0.11,0.11,0.17,0.18,352.72,352.72,0.0,0.0
1630603951.10005999,98928746,0.12,0.11,0.15,0.16,352.72,352.72,0.0,0.0
1630603951.20002007,99028706,0.14,0.12,0.13,0.13,352.72,352.72,0.0,0.0
1630603951.29997993,99128666,0.13,0.13,0.12,0.11,352.72,352.72,0.0,0.0
1630603951.39994001,99228626,0.14,0.13,0.12,0.1,352.72,352.72,0.0,0.0
1630603951.49990010,99328586,0.15,0.14,0.15,0.12,352.72,352.72,0.0,0.0
1630603951.59985995,99428546,0.15,0.15,0.17,0.15,352.72,352.72,0.0,0.0
1630603951.69982004,99528506,0.18,0.17,0.14,0.15,352.72,352.72,0.0,0.0
1630603951.79977989,99628466,0.19,0.19,0.14,0.14,352.72,352.72,0.0,0.0
1630603951.89973998,99728426,0.2,0.2,0.15,0.14,352.72,352.72,0.0,0.0
1630603951.99970007,99828386,0.22,0.22,0.17,0.14,352.72,352.72,0.0,0.0
1630603952.09965992,99928346,0.21,0.22,0.18,0.16,352.72,352.72,0.0,0.0
1630603952.19962001,100028306,0.16,0.2,0.16,0.15,352.72,352.72,0.0,0.0
1630603952.29958010,100128266,0.13,0.15,0.15,0.15,352.72,352.72,0.0,0.0
1630603952.39953995,100228226,0.12,0.1,0.12,0.13,352.72,352.72,0.0,0.0
1630603952.49950004,100328186,0.13,0.09,0.11,0.11,352.72,352.72,0.0,0.0
1630603952.60029292,100428979,0.14,0.1,0.12,0.09,352.72,352.72,0.0,0.0
1630603952.70025301,100528939,0.15,0.13,0.16,0.11,352.72,352.72,0.0,0.0
1630603952.80021310,100628899,0.13,0.13,0.2,0.16,352.72,352.72,0.0,0.0
1630603952.90017295,100728859,0.12,0.12,0.18,0.19,352.72,352.72,0.0,0.0
1630603953.00013304,100828819,0.13,0.11,0.14,0.17,352.72,352.72,0.0,0.0
1630603953.10009289,100928779,0.16,0.14,0.13,0.14,352.72,352.72,0.0,0.0
1630603953.20005298,101028739,0.16,0.15,0.12,0.12,352.72,352.72,0.0,0.0
1630603953.30001307,101128699,0.14,0.14,0.13,0.11,352.72,352.72,0.0,0.0
1630603953.39997292,101228659,0.16,0.14,0.16,0.13,352.72,352.72,0.0,0.0
1630603953.49993300,101328619,0.19,0.16,0.16,0.14,352.72,352.73,0.0,0.0
1630603953.59989309,101428579,0.2,0.18,0.15,0.15,352.72,352.73,0.0,0.0
1630603953.69985294,101528539,0.18,0.19,0.15,0.15,352.72,352.72,0.0,0.0
1630603953.79981303,101628499,0.14,0.15,0.14,0.14,352.72,352.72,0.0,0.0
1630603953.89977288,101728459,0.14,0.14,0.15,0.14,352.72,352.72,0.0,0.0
1630603953.99973297,101828419,0.15,0.13,0.18,0.15,352.72,352.72,0.0,0.0
1630603954.09969306,101928379,0.17,0.15,0.24,0.2,352.72,352.72,0.0,0.0
1630603954.19965291,102028339,0.2,0.18,0.25,0.24,352.72,352.72,0.0,0.0
1630603954.29961300,102128299,0.21,0.21,0.23,0.25,352.72,352.72,0.0,0.0
1630603954.39957309,102228259,0.21,0.21,0.19,0.22,352.72,352.72,0.0,0.0
1630603954.49953294,102328219,0.2,0.21,0.16,0.18,352.72,352.72,0.0,0.0
1630603954.59949303,102428179,0.17,0.18,0.13,0.13,352.72,352.72,0.0,0.0
1630603954.70028591,102528972,0.14,0.14,0.13,0.11,352.72,352.72,0.0,0.0
1630603954.80024600,102628932,0.12,0.11,0.16,0.11,352.72,352.72,0.0,0.0
1630603954.90020609,102728892,0.12,0.09,0.17,0.13,352.72,352.72,0.0,0.0
1630603955.00016594,102828852,0.12,0.09,0.18,0.15,352.72,352.72,0.0,0.0
1630603955.10012603,102928812,0.16,0.12,0.18,0.17,352.72,352.72,0.0,0.0
1630603955.20008612,103028772,0.18,0.15,0.16,0.17,352.72,352.72,0.0,0.0
1630603955.30004597,103128732,0.19,0.18,0.14,0.15,352.72,352.72,0.0,0.0
1630603955.40000606,103228692,0.2,0.19,0.13,0.13,352.72,352.73,0.0,0.0
1630603955.49996591,103328652,0.19,0.19,0.14,0.12,352.72,352.73,0.0,0.0
1630603955.59992599,103428612,0.2,0.19,0.14,0.13,352.72,352.73,0.0,0.0
1630603955.69988608,103528572,0.22,0.2,0.16,0.14,352.72,352.72,0.0,0.0
1630603955.79984593,103628532,0.21,0.21,0.15,0.15,352.72,352.72,0.0,0.0
1630603955.89980602,103728492,0.18,0.19,0.16,0.16,352.72,352.72,0.0,0.0
1630603955.99976611,103828452,0.17,0.17,0.19,0.17,352.72,352.72,0.0,0.0
1630603956.09972596,103928412,0.17,0.15,0.21,0.2,352.72,352.72,0.0,0.0
1630603956.19968605,104028372,0.18,0.16,0.21,0.21,352.72,352.72,0.0,0.0
1630603956.29964590,104128332,0.18,0.16,0.2,0.2,352.72,352.72,0.0,0.0
1630603956.39960599,104228292,0.19,0.17,0.19,0.19,352.72,352.72,0.0,0.0
1630603956.49956608,104328252,0.19,0.17,0.18,0.18,352.72,352.72,0.0,0.0
1630603956.59952593,104428212,0.2,0.18,0.16,0.16,352.72,352.72,0.0,0.0
1630603956.69948602,104528172,0.2,0.19,0.16,0.15,352.72,352.72,0.0,0.0
1630603956.80027890,104628965,0.19,0.18,0.18,0.16,352.72,352.72,0.0,0.0
1630603956.90023899,104728925,0.16,0.17,0.14,0.16,352.72,352.72,0.0,0.0
1630603957.00019908,104828885,0.0,0.08,-0.08,0.04,352.72,352.72,0.0,0.0
1630603957.10015893,104928845,-0.26,-0.14,-0.52,-0.31,352.72,352.72,0.0,0.0
1630603957.20011902,105028805,-0.62,-0.49,-1.16,-0.9,352.72,352.72,0.0,0.0
1630603957.30007911,105128765,-1.05,-0.93,-1.91,-1.68,352.72,352.73,0.0,0.0
1630603957.40003896,105228725,-1.5,-1.43,-2.68,-2.55,352.72,352.75,0.0,0.0
1630603957.49999905,105328685,-1.91,-1.91,-3.33,-3.35,352.72,352.76,0.0,0.0
1630603957.59995890,105428645,-2.24,-2.32,-3.82,-3.99,352.72,352.77,0.0,0.0
1630603957.69991899,105528605,-2.48,-2.61,-4.19,-4.42,352.72,352.77,0.0,0.0
1630603957.79987907,105628565,-2.68,-2.81,-4.51,-4.74,352.72,352.76,0.0,0.0
1630603957.89983892,105728525,-2.85,-2.95,-4.8,-4.98,352.72,352.75,0.0,0.0
1630603957.99979901,105828485,-3.03,-3.09,-5.12,-5.22,352.72,352.74,0.0,0.0
1630603958.09975910,105928445,-3.27,-3.27,-5.48,-5.5,352.72,352.73,0.0,0.0
1630603958.19971895,106028405,-3.54,-3.51,-5.86,-5.84,352.72,352.73,0.0,0.0
1630603958.29967904,106128365,-3.76,-3.77,-6.24,-6.22,352.72,352.73,0.0,0.0
1630603958.39963889,106228325,-3.93,-3.98,-6.55,-6.57,352.72,352.73,0.0,0.0
1630603958.49959898,106328285,-4.04,-4.13,-6.74,-6.83,352.72,352.73,0.0,0.0
1630603958.59955907,106428245,-4.1,-4.2,-6.87,-6.98,352.72,352.72,0.0,0.0
1630603958.69951892,106528205,-4.16,-4.23,-6.96,-7.06,352.72,352.7,0.0,0.0
1630603958.79947901,106628165,-4.23,-4.26,-7.05,-7.12,352.72,352.7,0.0,0.0
1630603958.90027189,106728958,-4.33,-4.32,-7.18,-7.19,352.68,352.69,0.0,0.0
1630603959.00023198,106828918,-4.48,-4.53,-7.42,-7.29,350.89,352.65,0.0,0.0
1630603959.10019207,106928878,-4.67,-5.06,-7.8,-7.39,346.39,352.16,0.0,0.0
1630603959.20015192,107028838,-4.76,-5.79,-8.32,-7.58,340.39,350.51,0.0,0.0
1630603959.30011201,107128798,-4.56,-6.25,-8.99,-8.04,334.39,347.18,0.0,0.01
1630603959.40007210,107228758,-3.89,-6.09,-9.79,-8.79,328.64,342.19,0.0,0.01
1630603959.50003195,107328718,-2.74,-4.96,-10.62,-9.75,325.12,335.88,0.0,0.02
1630603959.59999204,107428678,-1.27,-2.83,-11.34,-10.72,323.44,328.97,0.0,0.02
1630603959.69995189,107528638,0.32,-0.11,-11.88,-11.49,322.68,322.33,0.0,0.02
1630603959.79991198,107628598,1.69,2.62,-12.24,-11.95,322.37,316.7,0.0,0.02
1630603959.89987206,107728558,2.59,4.78,-12.49,-12.14,322.26,312.62,0.0,0.02
1630603959.99983191,107828518,2.93,6.01,-12.75,-12.24,322.21,310.3,0.0,0.02
1630603960.09979200,107928478,2.77,6.23,-13.08,-12.38,322.14,309.63,0.0,0.01
1630603960.19975209,108028438,2.26,5.58,-13.51,-12.69,322.03,310.3,0.0,0.01
1630603960.29971194,108128398,1.57,4.34,-14.02,-13.19,321.87,311.99,0.0,0.01
1630603960.39967203,108228358,0.81,2.77,-14.5,-13.82,321.68,314.34,0.0,0.01
1630603960.49963212,108328318,0.08,1.12,-14.87,-14.42,321.48,317.03,0.0,0.0
1630603960.59959197,108428278,-0.48,-0.36,-15.12,-14.89,321.29,319.72,0.0,0.0
1630603960.69955206,108528238,-0.89,-1.54,-15.25,-15.19,321.12,322.08,0.0,0.0
1630603960.79951191,108628198,-1.16,-2.35,-15.29,-15.31,320.98,323.9,0.0,0.0
1630603960.89947200,108728158,-1.27,-2.78,-15.3,-15.32,320.87,325.03,0.0,0.0
1630603961.00026488,108828951,-1.22,-2.83,-15.3,-15.28,320.8,325.47,0.0,0.0
1630603961.10022497,108928911,-1.05,-2.57,-15.34,-15.25,320.76,325.29,0.0,0.0
1630603961.20018506,109028871,-0.8,-2.07,-15.42,-15.28,320.75,324.62,0.0,0.0
1630603961.30014491,109128831,-0.46,-1.4,-15.55,-15.38,320.75,323.62,0.0,0.0
1630603961.40010500,109228791,-0.11,-0.66,-15.67,-15.53,320.78,322.47,0.0,0.0
1630603961.50006509,109328751,0.2,0.05,-15.8,-15.7,320.81,321.33,0.0,0.0
1630603961.60002494,109428711,0.46,0.66,-15.91,-15.85,320.84,320.33,0.0,0.0
1630603961.69998503,109528671,0.62,1.11,-15.98,-15.96,320.88,319.57,0.0,0.0
1630603961.79994512,109628631,0.69,1.35,-15.98,-16.01,320.91,319.1,0.0,0.0
1630603961.89990497,109728591,0.65,1.39,-15.99,-16.02,320.93,318.92,0.0,0.0
1630603961.99986506,109828551,0.57,1.26,-16.03,-16.02,320.94,319.01,0.0,0.0
1630603962.09982491,109928511,0.44,1.02,-16.1,-16.06,320.95,319.3,0.0,0.0
1630603962.19978499,110028471,0.31,0.72,-16.19,-16.14,320.95,319.74,0.0,0.0
1630603962.29974508,110128431,0.18,0.4,-16.27,-16.24,320.95,320.23,0.0,0.0
1630603962.39970493,110228391,0.08,0.12,-16.36,-16.34,320.94,320.72,0.0,0.0
1630603962.49966502,110328351,0.0,-0.11,-16.42,-16.43,320.94,321.15,0.0,0.0
1630603962.59962511,110428311,-0.06,-0.28,-16.45,-16.48,320.94,321.48,0.0,0.0
1630603962.69958496,110528271,-0.08,-0.37,-16.46,-16.49,320.94,321.7,0.0,0.0
1630603962.79954505,110628231,-0.08,-0.39,-16.5,-16.51,320.94,321.79,0.0,0.0
1630603962.89950490,110728191,-0.06,-0.35,-16.54,-16.53,320.94,321.76,0.0,0.0
1630603963.00029802,110828984,-0.02,-0.28,-16.57,-16.57,320.94,321.65,0.0,0.0
1630603963.10025811,110928944,0.03,-0.16,-16.59,-16.59,320.95,321.48,0.0,0.0
1630603963.20021796,111028904,0.09,-0.02,-16.6,-16.61,320.96,321.29,0.0,0.0
1630603963.30017805,111128864,0.15,0.11,-16.64,-16.64,320.97,321.09,0.0,0.0
1630603963.40013790,111228824,0.22,0.24,-16.69,-16.69,320.98,320.92,0.0,0.0
1630603963.50009799,111328784,0.26,0.34,-16.73,-16.73,320.99,320.78,0.0,0.0
1630603963.60005808,111428744,0.28,0.4,-16.76,-16.78,321.0,320.7,0.0,0.0
1630603963.70001793,111528704,0.25,0.41,-16.79,-16.81,321.0,320.66,0.0,0.0
1630603963.79997802,111628664,0.21,0.36,-16.8,-16.83,321.01,320.68,0.0,0.0
1630603963.89993811,111728624,0.2,0.31,-16.82,-16.84,321.01,320.73,0.0,0.0
1630603963.99989796,111828584,0.2,0.26,-16.84,-16.85,321.01,320.81,0.0,0.0
1630603964.09985805,111928544,0.19,0.22,-16.88,-16.88,321.01,320.89,0.0,0.0
1630603964.19981790,112028504,0.17,0.18,-16.93,-16.93,321.02,320.98,0.0,0.0
1630603964.29977798,112128464,0.16,0.14,-16.98,-16.98,321.02,321.05,0.0,0.0
1630603964.39973807,112228424,0.18,0.13,-17.01,-17.03,321.02,321.11,0.0,0.0
1630603964.49969792,112328384,0.19,0.13,-17.0,-17.04,321.02,321.15,0.0,0.0
1630603964.59965801,112428344,0.21,0.15,-17.02,-17.05,321.03,321.18,0.0,0.0
1630603964.69961810,112528304,0.22,0.17,-17.06,-17.07,321.03,321.18,0.0,0.0
1630603964.79957795,112628264,0.22,0.18,-17.09,-17.11,321.03,321.16,0.0,0.0
1630603964.89953804,112728224,0.2,0.18,-17.12,-17.14,321.04,321.14,0.0,0.0
1630603964.99949789,112828184,0.2,0.19,-17.14,-17.16,321.04,321.1,0.0,0.0
1630603965.10029101,112928977,0.22,0.2,-17.15,-17.17,321.04,321.07,0.0,0.0
1630603965.20025110,113028937,0.24,0.23,-17.17,-17.19,321.05,321.04,0.0,0.0
1630603965.30021095,113128897,0.27,0.27,-17.2,-17.2,321.05,321.02,0.0,0.0
1630603965.40017104,113228857,0.29,0.29,-17.22,-17.23,321.05,321.0,0.0,0.0
1630603965.50013089,113328817,0.29,0.32,-17.24,-17.24,321.05,321.0,0.0,0.0
1630603965.60009098,113428777,0.27,0.31,-17.26,-17.27,321.06,321.0,0.0,0.0
1630603965.70005107,113528737,0.24,0.28,-17.29,-17.29,321.06,321.01,0.0,0.0
1630603965.80001092,113628697,0.22,0.25,-17.3,-17.31,321.06,321.02,0.0,0.0
1630603965.89997101,113728657,0.21,0.22,-17.3,-17.32,321.06,321.04,0.0,0.0
1630603965.99993110,113828617,0.24,0.23,-17.32,-17.34,321.06,321.05,0.0,0.0
1630603966.09989095,113928577,0.28,0.27,-17.33,-17.35,321.06,321.07,0.0,0.0
1630603966.19985104,114028537,0.3,0.3,-17.34,-17.36,321.07,321.08,0.0,0.0
1630603966.29981089,114128497,0.29,0.31,-17.38,-17.38,321.07,321.09,0.0,0.0
1630603966.39977098,114228457,0.31,0.32,-17.43,-17.42,321.07,321.1,0.0,0.0
1630603966.49973106,114328417,0.33,0.33,-17.47,-17.46,321.08,321.1,0.0,0.0
1630603966.59969091,114428377,0.34,0.34,-17.51,-17.5,321.08,321.1,0.0,0.0
1630603966.69965100,114528337,0.36,0.35,-17.56,-17.56,321.09,321.1,0.0,0.0
1630603966.79961109,114628297,0.36,0.36,-17.59,-17.6,321.09,321.1,0.0,0.0
1630603966.89957094,114728257,0.35,0.35,-17.6,-17.63,321.1,321.1,0.0,0.0
1630603966.99953103,114828217,0.32,0.33,-17.6,-17.63,321.1,321.1,0.0,0.0
1630603967.09949112,114928177,0.3,0.31,-17.59,-17.63,321.1,321.09,0.0,0.0
1630603967.20028400,115028970,0.29,0.28,-17.58,-17.62,321.1,321.09,0.0,0.0
1630603967.30024409,115128930,0.3,0.28,-17.59,-17.61,321.1,321.09,0.0,0.0
1630603967.40020394,115228890,0.32,0.29,-17.62,-17.63,321.1,321.1,0.0,0.0
1630603967.50016403,115328850,0.35,0.33,-17.64,-17.64,321.1,321.1,0.0,0.0
1630603967.60012388,115428810,0.38,0.37,-17.66,-17.66,321.1,321.1,0.0,0.0
1630603967.70008397,115528770,0.39,0.4,-17.68,-17.69,321.1,321.1,0.0,0.0
1630603967.80004406,115628730,0.37,0.4,-17.71,-17.72,321.11,321.1,0.0,0.0
1630603967.90000391,115728690,0.34,0.38,-17.71,-17.73,321.11,321.1,0.0,0.0
1630603967.99996400,115828650,0.34,0.36,-17.71,-17.73,321.11,321.1,0.0,0.0
1630603968.09992409,115928610,0.37,0.36,-17.73,-17.74,321.11,321.11,0.0,0.0
1630603968.19988394,116028570,0.37,0.36,-17.75,-17.75,321.11,321.11,0.0,0.0
1630603968.29984403,116128530,0.35,0.35,-17.78,-17.78,321.11,321.11,0.0,0.0
1630603968.39980412,116228490,0.36,0.35,-17.82,-17.82,321.11,321.11,0.0,0.0
1630603968.49976397,116328450,0.37,0.36,-17.82,-17.84,321.11,321.12,0.0,0.0
1630603968.59972405,116428410,0.35,0.35,-17.81,-17.83,321.11,321.12,0.0,0.0
1630603968.69968390,116528370,0.34,0.34,-17.82,-17.83,321.11,321.12,0.0,0.0
1630603968.79964399,116628330,0.37,0.34,-17.84,-17.85,321.12,321.12,0.0,0.0
1630603968.89960408,116728290,0.39,0.36,-17.83,-17.86,321.12,321.12,0.0,0.0
1630603968.99956393,116828250,0.38,0.37,-17.83,-17.86,321.12,321.12,0.0,0.0
1630603969.09952402,116928210,0.39,0.38,-17.83,-17.85,321.12,321.12,0.0,0.0
1630603969.19948411,117028170,0.4,0.39,-17.86,-17.86,321.12,321.12,0.0,0.0
1630603969.30027699,117128963,0.41,0.41,-17.86,-17.87,321.12,321.12,0.0,0.0
1630603969.40023708,117228923,0.41,0.41,-17.87,-17.89,321.12,321.12,0.0,0.0
1630603969.50019693,117328883,0.42,0.42,-17.91,-17.91,321.13,321.12,0.0,0.0
1630603969.60015702,117428843,0.43,0.43,-17.94,-17.94,321.13,321.12,0.0,0.0
1630603969.70011711,117528803,0.41,0.44,-17.93,-17.96,321.13,321.12,0.0,0.0
1630603969.80007696,117628763,0.4,0.43,-17.92,-17.96,321.13,321.12,0.0,0.0
1630603969.90003705,117728723,0.4,0.41,-17.92,-17.95,321.13,321.12,0.0,0.0
1630603969.99999690,117828683,0.38,0.39,-17.94,-17.95,321.13,321.13,0.0,0.0
1630603970.09995699,117928643,0.36,0.36,-17.96,-17.95,321.13,321.13,0.0,0.0
1630603970.19991708,118028603,0.37,0.35,-17.98,-17.97,321.13,321.13,0.0,0.0
1630603970.29987693,118128563,0.38,0.36,-17.97,-17.97,321.13,321.13,0.0,0.0
1630603970.39983702,118228523,0.4,0.38,-17.97,-17.98,321.13,321.13,0.0,0.0
1630603970.49979711,118328483,0.42,0.4,-17.96,-17.97,321.13,321.13,0.0,0.0
1630603970.59975696,118428443,0.44,0.43,-17.96,-17.97,321.13,321.13,0.0,0.0
1630603970.69971704,118528403,0.43,0.44,-17.98,-17.98,321.14,321.13,0.0,0.0
1630603970.79967690,118628363,0.42,0.44,-18.02,-18.01,321.14,321.13,0.0,0.0
1630603970.89963698,118728323,0.41,0.43,-18.03,-18.03,321.14,321.13,0.0,0.0
1630603970.99959707,118828283,0.38,0.4,-18.03,-18.04,321.14,321.13,0.0,0.0
1630603971.09955692,118928243,0.38,0.38,-18.05,-18.05,321.14,321.14,0.0,0.0
1630603971.19951701,119028203,0.37,0.38,-18.07,-18.08,321.14,321.14,0.0,0.0
1630603971.29947710,119128163,0.34,0.35,-18.09,-18.11,321.14,321.15,0.0,0.0
1630603971.40026999,119228956,0.32,0.32,-18.1,-18.13,321.14,321.15,0.0,0.0
1630603971.50023007,119328916,0.33,0.31,-18.05,-18.1,321.14,321.15,0.0,0.0
1630603971.60018992,119428876,0.38,0.34,-18.01,-18.05,321.14,321.15,0.0,0.0
1630603971.70015001,119528836,0.44,0.39,-18.03,-18.02,321.14,321.14,0.0,0.0
1630603971.80011010,119628796,0.45,0.43,-18.06,-18.03,321.14,321.14,0.0,0.0
1630603971.90006995,119728756,0.45,0.46,-18.06,-18.07,321.15,321.13,0.0,0.0
1630603972.00003004,119828716,0.45,0.47,-18.03,-18.07,321.15,321.13,0.0,0.0
1630603972.09998989,119928676,0.46,0.47,-18.02,-18.05,321.15,321.13,0.0,0.0
1630603972.19994998,120028636,0.47,0.48,-18.03,-18.04,321.15,321.13,0.0,0.0
1630603972.29991007,120128596,0.47,0.48,-18.05,-18.05,321.16,321.14,0.0,0.0
1630603972.39986992,120228556,0.44,0.46,-18.09,-18.08,321.16,321.15,0.0,0.0
1630603972.49983001,120328516,0.43,0.44,-18.11,-18.12,321.16,321.15,0.0,0.0
1630603972.59979010,120428476,0.45,0.43,-18.11,-18.13,321.16,321.16,0.0,0.0
1630603972.69974995,120528436,0.48,0.45,-18.09,-18.12,321.17,321.16,0.0,0.0
1630603972.79971004,120628396,0.52,0.48,-18.08,-18.1,321.17,321.17,0.0,0.0
1630603972.89966989,120728356,0.51,0.51,-18.11,-18.1,321.18,321.17,0.0,0.0
1630603972.99962997,120828316,0.49,0.51,-18.12,-18.12,321.18,321.17,0.0,0.0
1630603973.09959006,120928276,0.48,0.5,-18.12,-18.13,321.18,321.18,0.0,0.0
1630603973.19954991,121028236,0.49,0.5,-18.13,-18.14,321.19,321.18,0.0,0.0
1630603973.29951000,121128196,0.48,0.49,-18.13,-18.15,321.19,321.18,0.0,0.0
1630603973.39947009,121228156,0.46,0.47,-18.12,-18.15,321.2,321.19,0.0,0.0
1630603973.50026298,121328949,0.44,0.44,-18.1,-18.13,321.2,321.19,0.0,0.0
1630603973.60022306,121428909,0.44,0.43,-18.1,-18.12,321.2,321.2,0.0,0.0
1630603973.70018291,121528869,0.45,0.43,-18.1,-18.11,321.21,321.2,0.0,0.0
1630603973.80014300,121628829,0.49,0.46,-18.11,-18.12,321.21,321.21,0.0,0.0
1630603973.90010309,121728789,0.52,0.49,-18.13,-18.12,321.21,321.21,0.0,0.0
1630603974.00006294,121828749,0.54,0.53,-18.14,-18.14,321.22,321.22,0.0,0.0
1630603974.10002303,121928709,0.52,0.52,-18.17,-18.16,321.22,321.22,0.0,0.0
1630603974.19998312,122028669,1.78,0.83,-18.4,-18.24,321.22,321.22,0.0,0.0
1630603974.29994297,122128629,5.45,3.72,-19.0,-18.73,321.23,321.2,0.0,0.0
1630603974.39990306,122228589,6.1,6.14,-19.1,-19.12,321.22,321.17,0.0,0.01
1630603974.49986291,122328549,5.03,6.48,-18.93,-19.18,321.19,321.18,0.0,0.01
1630603974.59982300,122428509,3.54,5.24,-18.66,-18.97,321.13,321.2,0.0,0.01
1630603974.69978309,122528469,2.29,3.41,-18.43,-18.65,321.03,321.21,0.0,0.01
1630603974.79974294,122628429,1.59,1.84,-18.32,-18.39,320.91,321.17,0.0,0.01
1630603974.89970303,122728389,1.41,0.96,-18.32,-18.27,320.78,321.08,0.0,0.01
1630603974.99966311,122828349,1.58,0.79,-18.39,-18.28,320.64,320.95,0.0,0.01
1630603975.09962296,122928309,1.86,1.1,-18.46,-18.36,320.5,320.79,0.0,0.01
1630603975.19958305,123028269,2.09,1.56,-18.5,-18.45,320.36,320.6,0.0,0.01
1630603975.29954290,123128229,2.23,1.98,-18.51,-18.5,320.23,320.39,0.0,0.01
1630603975.39950299,123228189,2.26,2.24,-18.47,-18.5,320.09,320.18,0.0,0.0
1630603975.50029612,123328982,2.18,2.3,-18.46,-18.48,319.96,319.98,0.0,0.0
1630603975.60025597,123428942,2.07,2.24,-18.44,-18.46,319.82,319.79,0.0,0.0
1630603975.70021605,123528902,2.0,2.12,-18.42,-18.43,319.68,319.61,0.0,0.0
1630603975.80017591,123628862,1.98,2.02,-18.41,-18.42,319.54,319.45,0.0,0.0
1630603975.90013599,123728822,1.96,1.97,-18.41,-18.41,319.4,319.3,0.0,0.0
1630603976.00009608,123828782,1.93,1.92,-18.39,-18.4,319.26,319.17,0.0,0.0
1630603976.10005593,123928742,1.91,1.9,-18.38,-18.39,319.12,319.04,0.0,0.0
1630603976.20001602,124028702,1.9,1.88,-18.37,-18.38,318.98,318.93,0.0,0.0
1630603976.29997611,124128662,1.9,1.88,-18.35,-18.36,318.84,318.81,0.0,0.0
1630603976.39993596,124228622,1.91,1.89,-18.36,-18.36,318.71,318.7,0.0,0.0
1630603976.49989605,124328582,1.9,1.89,-18.38,-18.38,318.58,318.59,0.0,0.0
1630603976.59985590,124428542,1.89,1.88,-18.38,-18.39,318.45,318.47,0.0,0.0
1630603976.69981599,124528502,1.91,1.89,-18.35,-18.38,318.33,318.35,0.0,0.0
1630603976.79977608,124628462,1.93,1.91,-18.32,-18.36,318.21,318.23,0.0,0.0
1630603976.89973593,124728422,1.96,1.93,-18.29,-18.32,318.09,318.11,0.0,0.0
1630603976.99969602,124828382,2.02,1.99,-18.29,-18.29,317.98,317.99,0.0,0.0
1630603977.09965611,124928342,2.04,2.04,-18.28,-18.28,317.87,317.87,0.0,0.0
1630603977.19961596,125028302,2.04,2.05,-18.29,-18.28,317.77,317.75,0.0,0.0
1630603977.29957604,125128262,2.04,2.05,-18.29,-18.29,317.67,317.65,0.0,0.0
1630603977.39953589,125228222,2.04,2.04,-18.31,-18.3,317.57,317.54,0.0,0.0
1630603977.49949598,125328182,2.04,2.04,-18.31,-18.31,317.47,317.44,0.0,0.0
1630603977.60028911,125428975,2.03,2.03,-18.29,-18.31,317.38,317.35,0.0,0.0
1630603977.70024896,125528935,2.03,2.02,-18.28,-18.3,317.28,317.25,0.0,0.0
1630603977.80020905,125628895,2.05,2.03,-18.27,-18.29,317.2,317.16,0.0,0.0
1630603977.90016890,125728855,2.1,2.07,-18.25,-18.28,317.11,317.08,0.0,0.0
1630603978.00012898,125828815,2.13,2.11,-18.24,-18.25,317.03,317.0,0.0,0.0
1630603978.10008907,125928775,2.14,2.15,-18.25,-18.24,316.95,316.93,0.0,0.0
1630603978.20004892,126028735,2.15,2.16,-18.27,-18.26,316.88,316.85,0.0,0.0
1630603978.30000901,126128695,2.16,2.17,-18.28,-18.28,316.8,316.78,0.0,0.0
1630603978.39996910,126228655,2.17,2.18,-18.28,-18.29,316.73,316.71,0.0,0.0
1630603978.49992895,126328615,2.17,2.19,-18.29,-18.3,316.67,316.65,0.0,0.0
1630603978.59988904,126428575,2.17,2.2,-18.29,-18.31,316.6,316.58,0.0,0.0
1630603978.69984889,126528535,2.14,2.17,-18.3,-18.31,316.54,316.52,0.0,0.0
1630603978.79980898,126628495,2.1,2.13,-18.33,-18.33,316.48,316.46,0.0,0.0
1630603978.89976907,126728455,2.11,2.1,-18.34,-18.35,316.42,316.4,0.0,0.0
1630603978.99972892,126828415,2.15,2.12,-18.33,-18.35,316.36,316.35,0.0,0.0
1630603979.09968901,126928375,2.18,2.16,-18.33,-18.35,316.31,316.29,0.0,0.0
1630603979.19964910,127028335,2.21,2.19,-18.33,-18.35,316.26,316.24,0.0,0.0
1630603979.29960895,127128295,2.22,2.22,-18.35,-18.35,316.21,316.18,0.0,0.0
1630603979.39956903,127228255,2.2,2.22,-18.36,-18.36,316.16,316.14,0.0,0.0
1630603979.49952888,127328215,2.19,2.21,-18.36,-18.37,316.12,316.09,0.0,0.0
1630603979.59948897,127428175,2.2,2.21,-18.32,-18.36,316.08,316.05,0.0,0.0
1630603979.70028210,127528968,2.22,2.23,-18.28,-18.31,316.03,316.01,0.0,0.0
1630603979.80024195,127628928,2.21,2.23,-18.26,-18.28,315.99,315.98,0.0,0.0
1630603979.90020204,127728888,2.21,2.22,-18.26,-18.26,315.96,315.94,0.0,0.0
1630603980.00016189,127828848,2.21,2.22,-18.3,-18.28,315.92,315.9,0.0,0.0
1630603980.10012197,127928808,2.23,2.23,-18.31,-18.3,315.89,315.87,0.0,0.0
1630603980.20008206,128028768,2.25,2.24,-18.3,-18.32,315.86,315.83,0.0,0.0
1630603980.30004191,128128728,2.27,2.26,-18.3,-18.31,315.83,315.8,0.0,0.0
1630603980.40000200,128228688,2.28,2.28,-18.31,-18.32,315.8,315.77,0.0,0.0
1630603980.49996209,128328648,2.28,2.29,-18.31,-18.32,315.77,315.75,0.0,0.0
1630603980.59992194,128428608,2.29,2.29,-18.31,-18.32,315.75,315.73,0.0,0.0
1630603980.69988203,128528568,2.32,2.31,-18.3,-18.32,315.73,315.71,0.0,0.0
1630603980.79984212,128628528,2.33,2.32,-18.28,-18.31,315.71,315.69,0.0,0.0
1630603980.89980197,128728488,2.36,2.34,-18.25,-18.29,315.69,315.68,0.0,0.0
1630603980.99976206,128828448,2.4,2.39,-18.22,-18.25,315.67,315.66,0.0,0.0
1630603981.09972191,128928408,2.42,2.43,-18.22,-18.23,315.66,315.65,0.0,0.0
1630603981.19968200,129028368,2.39,2.42,-18.22,-18.23,315.64,315.63,0.0,0.0
1630603981.29964209,129128328,2.36,2.38,-18.23,-18.23,315.63,315.62,0.0,0.0
1630603981.39960194,129228288,2.37,2.36,-18.24,-18.25,315.61,315.6,0.0,0.0
1630603981.49956203,129328248,2.37,2.36,-18.22,-18.23,315.6,315.59,0.0,0.0
1630603981.59952211,129428208,2.37,2.37,-18.22,-18.22,315.58,315.58,0.0,0.0
1630603981.69948196,129528168,2.37,2.37,-18.25,-18.25,315.57,315.56,0.0,0.0
1630603981.80027509,129628961,2.39,2.38,-18.28,-18.28,315.56,315.55,0.0,0.0
1630603981.90023494,129728921,2.41,2.41,-18.3,-18.3,315.55,315.54,0.0,0.0
1630603982.00019503,129828881,2.41,2.41,-18.31,-18.32,315.54,315.53,0.0,0.0
1630603982.10015512,129928841,2.38,2.38,-18.31,-18.32,315.53,315.52,0.0,0.0
1630603982.20011497,130028801,2.35,2.35,-18.3,-18.32,315.52,315.51,0.0,0.0
1630603982.30007505,130128761,2.37,2.36,-18.29,-18.31,315.51,315.5,0.0,0.0
1630603982.40003490,130228721,2.4,2.38,-18.28,-18.3,315.5,315.5,0.0,0.0
1630603982.49999499,130328681,2.4,2.39,-18.29,-18.3,315.49,315.49,0.0,0.0
1630603982.59995508,130428641,2.41,2.4,-18.29,-18.3,315.49,315.48,0.0,0.0
1630603982.69991493,130528601,2.42,2.41,-18.29,-18.3,315.48,315.47,0.0,0.0
1630603982.79987502,130628561,2.4,2.4,-18.3,-18.31,315.47,315.46,0.0,0.0
1630603982.89983511,130728521,2.39,2.39,-18.31,-18.32,315.47,315.45,0.0,0.0
1630603982.99979496,130828481,2.39,2.38,-18.31,-18.32,315.46,315.45,0.0,0.0
1630603983.09975505,130928441,2.4,2.38,-18.3,-18.32,315.46,315.45,0.0,0.0
1630603983.19971490,131028401,2.41,2.39,-18.29,-18.31,315.45,315.44,0.0,0.0
1630603983.29967499,131128361,2.42,2.41,-18.28,-18.29,315.45,315.44,0.0,0.0
1630603983.39963508,131228321,2.42,2.41,-18.28,-18.29,315.45,315.44,0.0,0.0
1630603983.49959493,131328281,2.4,2.41,-18.28,-18.29,315.44,315.44,0.0,0.0
1630603983.59955502,131428241,2.36,2.37,-18.28,-18.29,315.44,315.43,0.0,0.0
1630603983.69951510,131528201,2.37,2.35,-18.28,-18.3,315.43,315.43,0.0,0.0
1630603983.79947495,131628161,2.41,2.36,-18.26,-18.29,315.43,315.43,0.0,0.0
1630603983.90026808,131728954,2.43,2.39,-18.25,-18.27,315.43,315.42,0.0,0.0
1630603984.00022793,131828914,2.45,2.43,-18.24,-18.25,315.42,315.42,0.0,0.0
1630603984.10018802,131928874,2.46,2.45,-18.23,-18.24,315.42,315.42,0.0,0.0
1630603984.20014811,132028834,2.46,2.47,-18.25,-18.24,315.42,315.41,0.0,0.0
1630603984.30010796,132128794,2.44,2.46,-18.25,-18.24,315.42,315.41,0.0,0.0
1630603984.40006804,132228754,2.44,2.45,-18.23,-18.24,315.42,315.4,0.0,0.0
1630603984.50002789,132328714,2.46,2.46,-18.23,-18.23,315.42,315.4,0.0,0.0
1630603984.59998798,132428674,2.47,2.46,-18.22,-18.24,315.42,315.4,0.0,0.0
1630603984.69994807,132528634,2.5,2.48,-18.21,-18.24,315.42,315.4,0.0,0.0
1630603984.79990792,132628594,2.53,2.51,-18.22,-18.23,315.42,315.4,0.0,0.0
1630603984.89986801,132728554,2.51,2.52,-18.25,-18.25,315.42,315.4,0.0,0.0
1630603984.99982810,132828514,2.5,2.5,-18.28,-18.29,315.42,315.4,0.0,0.0
1630603985.09978795,132928474,2.51,2.5,-18.29,-18.31,315.42,315.4,0.0,0.0
1630603985.19974804,133028434,2.49,2.5,-18.29,-18.33,315.42,315.41,0.0,0.0
1630603985.29970789,133128394,2.5,2.49,-18.29,-18.33,315.42,315.41,0.0,0.0
1630603985.39966798,133228354,2.52,2.49,-18.26,-18.31,315.42,315.41,0.0,0.0
1630603985.49962807,133328314,2.5,2.49,-18.26,-18.28,315.42,315.41,0.0,0.0
1630603985.59958792,133428274,2.49,2.48,-18.26,-18.28,315.41,315.41,0.0,0.0
1630603985.69954801,133528234,2.47,2.46,-18.24,-18.27,315.41,315.41,0.0,0.0
1630603985.79950809,133628194,2.47,2.46,-18.24,-18.26,315.41,315.41,0.0,0.0
1630603985.89946795,133728154,2.51,2.48,-18.24,-18.25,315.4,315.41,0.0,0.0
1630603986.00026107,133828947,2.53,2.51,-18.22,-18.24,315.4,315.4,0.0,0.0
1630603986.10022092,133928907,2.53,2.52,-18.2,-18.21,315.4,315.4,0.0,0.0
1630603986.20018101,134028867,2.51,2.52,-18.23,-18.2,315.4,315.39,0.0,0.0
1630603986.30014110,134128827,2.52,2.52,-18.26,-18.23,315.4,315.39,0.0,0.0
1630603986.40010095,134228787,2.54,2.52,-18.27,-18.26,315.4,315.39,0.0,0.0
1630603986.50006104,134328747,2.54,2.53,-18.25,-18.26,315.39,315.38,0.0,0.0
1630603986.60002089,134428707,2.55,2.54,-18.24,-18.25,315.39,315.38,0.0,0.0
1630603986.69998097,134528667,2.56,2.55,-18.27,-18.26,315.39,315.38,0.0,0.0
1630603986.79994106,134628627,2.57,2.56,-18.31,-18.29,315.39,315.38,0.0,0.0
1630603986.89990091,134728587,2.58,2.57,-18.32,-18.32,315.39,315.37,0.0,0.0
1630603986.99986100,134828547,2.59,2.58,-18.28,-18.32,315.39,315.37,0.0,0.0
1630603987.09982109,134928507,2.56,2.58,-18.26,-18.3,315.38,315.38,0.0,0.0
1630603987.19978094,135028467,2.53,2.55,-18.25,-18.28,315.38,315.38,0.0,0.0
1630603987.29974103,135128427,2.51,2.52,-18.25,-18.27,315.38,315.38,0.0,0.0
1630603987.39970112,135228387,2.51,2.5,-18.25,-18.27,315.37,315.37,0.0,0.0
1630603987.49966097,135328347,2.51,2.49,-18.23,-18.25,315.37,315.37,0.0,0.0
1630603987.59962106,135428307,2.5,2.49,-18.24,-18.24,315.36,315.37,0.0,0.0
1630603987.69958091,135528267,2.48,2.47,-18.26,-18.25,315.36,315.36,0.0,0.0
1630603987.79954100,135628227,2.48,2.46,-18.29,-18.28,315.35,315.36,0.0,0.0
1630603987.89950109,135728187,2.48,2.46,-18.31,-18.3,315.35,315.35,0.0,0.0
1630603988.00029397,135828980,2.49,2.47,-18.32,-18.33,315.34,315.34,0.0,0.0
1630603988.10025406,135928940,2.51,2.5,-18.32,-18.34,315.34,315.33,0.0,0.0
1630603988.20021391,136028900,2.54,2.52,-18.32,-18.34,315.33,315.33,0.0,0.0
1630603988.30017400,136128860,2.53,2.54,-18.31,-18.34,315.33,315.32,0.0,0.0
1630603988.40013409,136228820,2.52,2.54,-18.3,-18.33,315.33,315.31,0.0,0.0
1630603988.50009394,136328780,2.49,2.52,-18.29,-18.31,315.32,315.3,0.0,0.0
1630603988.60005403,136428740,2.46,2.49,-18.28,-18.3,315.32,315.3,0.0,0.0
1630603988.70001411,136528700,2.46,2.46,-18.29,-18.29,315.31,315.29,0.0,0.0
1630603988.79997396,136628660,2.48,2.46,-18.31,-18.3,315.3,315.28,0.0,0.0
1630603988.89993405,136728620,2.5,2.48,-18.33,-18.33,315.3,315.28,0.0,0.0
1630603988.99989390,136828580,2.5,2.5,-18.34,-18.35,315.29,315.27,0.0,0.0
1630603989.09985399,136928540,2.5,2.51,-18.34,-18.36,315.29,315.27,0.0,0.0
1630603989.19981408,137028500,2.5,2.52,-18.34,-18.37,315.29,315.27,0.0,0.0
1630603989.29977393,137128460,2.48,2.51,-18.32,-18.37,315.28,315.26,0.0,0.0
1630603989.39973402,137228420,2.5,2.5,-18.32,-18.35,315.28,315.26,0.0,0.0
1630603989.49969411,137328380,2.52,2.51,-18.29,-18.33,315.28,315.26,0.0,0.0
1630603989.59965396,137428340,2.53,2.51,-18.23,-18.28,315.27,315.26,0.0,0.0
1630603989.69961405,137528300,2.53,2.51,-18.22,-18.23,315.27,315.26,0.0,0.0
1630603989.79957390,137628260,2.54,2.52,-18.24,-18.22,315.27,315.26,0.0,0.0
1630603989.89953399,137728220,2.54,2.53,-18.26,-18.24,315.27,315.27,0.0,0.0
1630603989.99949408,137828180,2.53,2.53,-18.28,-18.25,315.27,315.27,0.0,0.0
1630603990.10028696,137928973,2.53,2.53,-18.29,-18.27,315.27,315.27,0.0,0.0
1630603990.20024705,138028933,2.51,2.52,-18.28,-18.3,315.27,315.27,0.0,0.0
1630603990.30020690,138128893,2.49,2.5,-18.26,-18.3,315.26,315.27,0.0,0.0
1630603990.40016699,138228853,2.48,2.48,-18.26,-18.3,315.26,315.27,0.0,0.0
1630603990.50012708,138328813,2.49,2.47,-18.29,-18.31,315.26,315.26,0.0,0.0
1630603990.60008693,138428773,2.51,2.47,-18.3,-18.32,315.26,315.26,0.0,0.0
1630603990.70004702,138528733,2.55,2.51,-18.28,-18.31,315.26,315.25,0.0,0.0
1630603990.80000710,138628693,2.57,2.55,-18.26,-18.29,315.26,315.25,0.0,0.0
1630603990.89996696,138728653,2.59,2.58,-18.25,-18.27,315.26,315.25,0.0,0.0
1630603990.99992704,138828613,2.59,2.59,-18.22,-18.24,315.26,315.25,0.0,0.0
1630603991.09988689,138928573,2.58,2.58,-18.22,-18.22,315.26,315.25,0.0,0.0
1630603991.19984698,139028533,2.57,2.57,-18.23,-18.21,315.26,315.24,0.0,0.0
1630603991.29980707,139128493,2.58,2.56,-18.26,-18.23,315.26,315.24,0.0,0.0
1630603991.39976692,139228453,2.61,2.57,-18.27,-18.26,315.26,315.24,0.0,0.0
1630603991.49972701,139328413,2.6,2.59,-18.3,-18.29,315.26,315.24,0.0,0.0
1630603991.59968710,139428373,2.58,2.58,-18.31,-18.32,315.26,315.24,0.0,0.0
1630603991.69964695,139528333,2.56,2.56,-18.31,-18.33,315.26,315.25,0.0,0.0
1630603991.79960704,139628293,2.55,2.54,-18.28,-18.33,315.26,315.26,0.0,0.0
