timestamp,TimeUS,DesRoll,Roll,DesPitch,Pitch,DesYaw,Yaw,ErrRP,ErrYaw
1630604773.50004005,49728434,0.0,0.08,0.0,0.07,352.88,352.89,0.0,0.0
1630604773.59999990,49828394,0.0,0.08,0.0,0.07,352.88,352.89,0.0,0.0
1630604773.69995999,49928354,0.0,0.08,0.0,0.07,352.88,352.89,0.0,0.0
1630604773.79992008,50028314,0.0,0.08,0.0,0.07,352.88,352.89,0.0,0.0
1630604773.89987993,50128274,0.0,0.08,0.0,0.07,352.88,352.89,0.0,0.0
1630604773.99984002,50228234,0.0,0.08,0.0,0.07,352.88,352.89,0.0,0.0
1630604774.09979987,50328194,0.0,0.08,0.0,0.07,352.89,352.9,0.0,0.0
1630604774.19975996,50428154,0.0,0.08,0.0,0.07,352.89,352.9,0.0,0.0
1630604774.30055308,50528947,0.0,0.08,0.0,0.07,352.89,352.9,0.0,0.0
1630604774.40051293,50628907,0.0,0.08,0.0,0.07,352.89,352.9,0.0,0.0
1630604774.50047302,50728867,0.0,0.08,0.0,0.07,352.89,352.9,0.0,0.0
1630604774.60043287,50828827,0.0,0.08,0.0,0.07,352.89,352.9,0.0,0.0
1630604774.70039296,50928787,0.0,0.08,0.0,0.07,352.89,352.9,0.0,0.0
1630604774.80035305,51028747,0.0,0.08,0.0,0.07,352.89,352.9,0.0,0.0
1630604774.90031290,51128707,0.0,0.08,0.0,0.07,352.89,352.9,0.0,0.0
1630604775.00027299,51228667,0.0,0.08,0.0,0.07,352.89,352.9,0.0,0.0
1630604775.10023308,51328627,0.0,0.08,0.0,0.07,352.89,352.9,0.0,0.0
1630604775.20019293,51428587,0.0,0.08,0.0,0.07,352.89,352.9,0.0,0.0
1630604775.30015302,51528547,0.0,0.08,0.0,0.07,352.89,352.9,0.0,0.0
1630604775.40011287,51628507,0.0,0.08,0.0,0.07,352.89,352.9,0.0,0.0
1630604775.50007296,51728467,0.0,0.08,0.0,0.07,352.89,352.9,0.0,0.0
1630604775.60003304,51828427,0.0,0.08,0.0,0.07,352.89,352.9,0.0,0.0
1630604775.69999290,51928387,0.0,0.08,0.0,0.07,352.89,352.9,0.0,0.0
1630604775.79995298,52028347,0.0,0.08,0.0,0.07,352.89,352.9,0.0,0.0
1630604775.89991307,52128307,0.0,0.08,0.0,0.07,352.89,352.9,0.0,0.0
1630604775.99987292,52228267,0.0,0.09,0.0,0.07,352.89,352.9,0.0,0.0
1630604776.09983301,52328227,0.0,0.08,0.0,0.07,352.89,352.9,0.0,0.0
1630604776.19979286,52428187,0.0,0.08,0.0,0.07,352.89,352.9,0.0,0.0
1630604776.30058599,52528980,0.0,0.08,0.0,0.07,352.89,352.9,0.0,0.0
1630604776.40054607,52628940,0.0,0.09,0.0,0.07,352.89,352.9,0.0,0.0
1630604776.50050592,52728900,0.0,0.09,0.0,0.07,352.89,352.9,0.0,0.0
1630604776.60046601,52828860,0.0,0.09,0.0,0.07,352.89,352.9,0.0,0.0
1630604776.70042586,52928820,0.0,0.09,0.0,0.07,352.89,352.9,0.0,0.0
1630604776.80038595,53028780,0.0,0.09,0.0,0.07,352.89,352.9,0.0,0.0
1630604776.90034604,53128740,0.0,0.09,0.0,0.07,352.89,352.9,0.0,0.0
1630604777.00030589,53228700,0.0,0.09,0.0,0.07,352.9,352.91,0.0,0.0
1630604777.10026598,53328660,0.0,0.09,0.0,0.07,352.9,352.91,0.0,0.0
1630604777.20022607,53428620,0.0,0.09,0.0,0.07,352.9,352.91,0.0,0.0
1630604777.30018592,53528580,-0.07,0.09,-0.08,0.07,352.9,352.91,0.0,0.0
1630604777.40014601,53628540,-0.13,0.09,-0.15,0.08,352.9,352.91,0.0,0.0
1630604777.50010586,53728500,-0.17,0.09,-0.19,0.08,352.9,352.91,0.0,0.0
1630604777.60006595,53828460,-0.19,0.09,-0.22,0.08,352.9,352.91,0.0,0.0
1630604777.70002604,53928420,-0.21,0.09,-0.24,0.08,352.9,352.91,0.0,0.0
1630604777.79998589,54028380,-0.23,0.09,-0.26,0.08,352.9,352.91,0.0,0.0
1630604777.89994597,54128340,-0.26,0.09,-0.29,0.08,352.9,352.91,0.0,0.0
1630604777.99990606,54228300,-0.29,0.09,-0.31,0.08,352.9,352.91,0.0,0.0
1630604778.09986591,54328260,-0.3,0.09,-0.33,0.08,352.9,352.91,0.0,0.0
1630604778.19982600,54428220,-0.31,0.09,-0.33,0.08,352.9,352.91,0.0,0.0
1630604778.29978585,54528180,-0.33,0.09,-0.34,0.08,352.9,352.91,0.0,0.0
1630604778.40057898,54628973,-0.36,0.09,-0.38,0.08,352.9,352.91,0.0,0.0
1630604778.50053906,54728933,-0.37,0.09,-0.43,0.08,352.9,352.91,0.0,0.0
1630604778.60049891,54828893,-0.36,0.09,-0.44,0.08,352.9,352.91,0.0,0.0
1630604778.70045900,54928853,-0.39,0.09,-0.47,0.08,352.9,352.91,0.0,0.0
1630604778.80041885,55028813,-0.43,0.08,-0.5,0.07,352.9,352.91,0.0,0.0
1630604778.90037894,55128773,-0.48,-0.14,-0.51,-0.15,352.9,352.91,0.0,0.0
1630604779.00033903,55228733,-0.48,-0.47,-0.54,-0.51,352.9,352.91,0.0,0.0
1630604779.10029888,55328693,-0.41,-0.69,-0.44,-0.75,352.9,352.91,0.0,0.0
1630604779.20025897,55428653,-0.26,-0.74,-0.25,-0.77,352.9,352.91,0.0,0.0
1630604779.30021906,55528613,-0.05,-0.61,-0.04,-0.62,352.9,352.9,0.0,0.0
1630604779.40017891,55628573,0.15,-0.38,0.16,-0.39,352.9,352.9,0.0,0.0
1630604779.50013900,55728533,0.29,-0.14,0.32,-0.13,352.9,352.89,0.0,0.0
1630604779.60009909,55828493,0.37,0.04,0.43,0.07,352.9,352.89,0.0,0.0
1630604779.70005894,55928453,0.42,0.16,0.47,0.2,352.9,352.89,0.0,0.0
1630604779.80001903,56028413,0.43,0.22,0.45,0.25,352.9,352.89,0.0,0.0
1630604779.89997888,56128373,0.4,0.23,0.42,0.24,352.9,352.9,0.0,0.0
1630604779.99993896,56228333,0.38,0.21,0.37,0.2,352.9,352.9,0.0,0.0
1630604780.09989905,56328293,0.35,0.19,0.34,0.15,352.9,352.9,0.0,0.0
1630604780.19985890,56428253,0.33,0.16,0.35,0.13,352.9,352.9,0.0,0.0
1630604780.29981899,56528213,0.34,0.14,0.36,0.15,352.9,352.9,0.0,0.0
1630604780.39977908,56628173,0.37,0.17,0.37,0.17,352.9,352.9,0.0,0.0
1630604780.50057197,56728966,0.4,0.22,0.37,0.2,352.9,352.9,0.0,0.0
1630604780.60053205,56828926,0.4,0.25,0.37,0.22,352.75,352.75,0.0,0.0
1630604780.70049191,56928886,0.37,0.26,0.37,0.24,352.75,352.75,0.0,0.0
1630604780.80045199,57028846,0.35,0.25,0.37,0.26,352.75,352.75,0.0,0.0
1630604780.90041208,57128806,0.31,0.23,0.38,0.27,352.75,352.75,0.0,0.0
1630604781.00037193,57228766,0.28,0.2,0.36,0.28,352.75,352.75,0.0,0.0
1630604781.10033202,57328726,0.27,0.18,0.36,0.28,352.75,352.75,0.0,0.0
1630604781.20029187,57428686,0.25,0.17,0.36,0.28,352.75,352.75,0.0,0.0
1630604781.30025196,57528646,0.2,0.14,0.35,0.28,352.75,352.76,0.0,0.0
1630604781.40021205,57628606,0.18,0.11,0.31,0.26,352.75,352.76,0.0,0.0
1630604781.50017190,57728566,0.19,0.1,0.3,0.23,352.75,352.76,0.0,0.0
1630604781.60013199,57828526,0.19,0.12,0.3,0.23,352.75,352.76,0.0,0.0
1630604781.70009208,57928486,0.19,0.13,0.28,0.22,352.75,352.76,0.0,0.0
1630604781.80005193,58028446,0.16,0.13,0.24,0.19,352.75,352.76,0.0,0.0
1630604781.90001202,58128406,0.12,0.1,0.19,0.15,352.75,352.76,0.0,0.0
1630604781.99997187,58228366,0.09,0.07,0.15,0.11,352.75,352.76,0.0,0.0
1630604782.09993196,58328326,0.05,0.03,0.14,0.09,352.75,352.76,0.0,0.0
1630604782.19989204,58428286,0.05,0.01,0.13,0.08,352.75,352.76,0.0,0.0
1630604782.29985189,58528246,0.05,0.01,0.12,0.08,352.75,352.76,0.0,0.0
1630604782.39981198,58628206,0.05,0.01,0.11,0.07,352.75,352.76,0.0,0.0
1630604782.49977207,58728166,0.06,0.02,0.11,0.07,352.75,352.75,0.0,0.0
1630604782.60056496,58828959,0.05,0.02,0.1,0.07,352.75,352.75,0.0,0.0
1630604782.70052505,58928919,0.06,0.03,0.07,0.05,352.75,352.75,0.0,0.0
1630604782.80048490,59028879,0.09,0.05,0.03,0.02,352.75,352.75,0.0,0.0
1630604782.90044498,59128839,0.12,0.08,0.01,0.0,352.75,352.75,0.0,0.0
1630604783.00040507,59228799,0.13,0.1,0.0,-0.01,352.75,352.75,0.0,0.0
1630604783.10036492,59328759,0.15,0.13,0.02,0.0,352.75,352.76,0.0,0.0
1630604783.20032501,59428719,0.16,0.15,0.04,0.02,352.75,352.76,0.0,0.0
1630604783.30028486,59528679,0.15,0.15,0.03,0.04,352.75,352.76,0.0,0.0
1630604783.40024495,59628639,0.14,0.14,0.02,0.03,352.75,352.76,0.0,0.0
1630604783.50020504,59728599,0.11,0.12,0.0,0.01,352.75,352.76,0.0,0.0
1630604783.60016489,59828559,0.08,0.09,0.0,0.0,352.75,352.76,0.0,0.0
1630604783.70012498,59928519,0.09,0.08,-0.01,-0.01,352.75,352.76,0.0,0.0
1630604783.80008507,60028479,0.12,0.09,-0.01,-0.02,352.75,352.76,0.0,0.0
1630604783.90004492,60128439,0.11,0.1,-0.02,-0.03,352.75,352.76,0.0,0.0
1630604784.00000501,60228399,0.11,0.1,0.01,-0.03,352.75,352.76,0.0,0.0
1630604784.09996486,60328359,0.1,0.09,0.05,0.01,352.75,352.75,0.0,0.0
1630604784.19992495,60428319,0.1,0.08,0.09,0.05,352.75,352.75,0.0,0.0
1630604784.29988503,60528279,0.1,0.08,0.1,0.09,352.75,352.75,0.0,0.0
1630604784.39984488,60628239,0.1,0.08,0.08,0.09,352.75,352.75,0.0,0.0
1630604784.49980497,60728199,0.13,0.1,0.05,0.07,352.75,352.76,0.0,0.0
1630604784.59976506,60828159,0.17,0.13,0.07,0.06,352.75,352.76,0.0,0.0
1630604784.70055795,60928952,0.17,0.17,0.05,0.05,352.75,352.76,0.0,0.0
1630604784.80051804,61028912,0.14,0.16,0.05,0.03,352.75,352.76,0.0,0.0
1630604784.90047789,61128872,0.11,0.13,0.07,0.04,352.75,352.76,0.0,0.0
1630604785.00043797,61228832,0.12,0.11,0.1,0.07,352.75,352.76,0.0,0.0
1630604785.10039806,61328792,0.15,0.12,0.12,0.1,352.75,352.76,0.0,0.0
1630604785.20035791,61428752,0.16,0.14,0.14,0.13,352.75,352.76,0.0,0.0
1630604785.30031800,61528712,0.16,0.15,0.14,0.15,352.75,352.76,0.0,0.0
1630604785.40027785,61628672,0.16,0.15,0.13,0.15,352.75,352.76,0.0,0.0
1630604785.50023794,61728632,0.18,0.16,0.15,0.16,352.75,352.76,0.0,0.0
1630604785.60019803,61828592,0.18,0.17,0.17,0.16,352.75,352.76,0.0,0.0
1630604785.70015788,61928552,0.2,0.19,0.14,0.15,352.75,352.76,0.0,0.0
1630604785.80011797,62028512,0.19,0.19,0.09,0.11,352.75,352.76,0.0,0.0
1630604785.90007806,62128472,0.16,0.16,0.07,0.07,352.75,352.76,0.0,0.0
1630604786.00003791,62228432,0.16,0.13,0.1,0.06,352.75,352.76,0.0,0.0
1630604786.09999800,62328392,0.19,0.15,0.14,0.09,352.75,352.76,0.0,0.0
1630604786.19995809,62428352,0.21,0.17,0.16,0.13,352.75,352.76,0.0,0.0
1630604786.29991794,62528312,0.21,0.19,0.18,0.17,352.75,352.76,0.0,0.0
1630604786.39987803,62628272,0.18,0.19,0.17,0.18,352.75,352.76,0.0,0.0
1630604786.49983788,62728232,0.13,0.16,0.13,0.16,352.75,352.76,0.0,0.0
1630604786.59979796,62828192,0.11,0.13,0.11,0.13,352.75,352.76,0.0,0.0
1630604786.70059109,62928985,0.11,0.11,0.1,0.1,352.75,352.76,0.0,0.0
1630604786.80055094,63028945,0.1,0.1,0.1,0.08,352.75,352.76,0.0,0.0
1630604786.90051103,63128905,0.08,0.08,0.11,0.09,352.75,352.76,0.0,0.0
1630604787.00047088,63228865,0.08,0.07,0.12,0.1,352.75,352.76,0.0,0.0
1630604787.10043097,63328825,0.05,0.06,0.17,0.12,352.75,352.75,0.0,0.0
1630604787.20039105,63428785,0.06,0.05,0.22,0.16,352.75,352.75,0.0,0.0
1630604787.30035090,63528745,0.07,0.06,0.23,0.2,352.75,352.75,0.0,0.0
1630604787.40031099,63628705,0.09,0.07,0.22,0.21,352.75,352.75,0.0,0.0
1630604787.50027108,63728665,0.1,0.09,0.21,0.22,352.75,352.75,0.0,0.0
1630604787.60023093,63828625,0.11,0.1,0.19,0.2,352.75,352.75,0.0,0.0
1630604787.70019102,63928585,0.11,0.11,0.15,0.18,352.75,352.75,0.0,0.0
1630604787.80015087,64028545,0.1,0.1,0.12,0.14,352.75,352.75,0.0,0.0
1630604787.90011096,64128505,0.09,0.09,0.13,0.11,352.75,352.75,0.0,0.0
1630604788.00007105,64228465,0.08,0.08,0.12,0.11,352.75,352.76,0.0,0.0
1630604788.10003090,64328425,0.07,0.07,0.08,0.09,352.75,352.76,0.0,0.0
1630604788.19999099,64428385,0.07,0.05,0.06,0.07,352.75,352.76,0.0,0.0
1630604788.29995108,64528345,0.07,0.06,0.05,0.05,352.75,352.76,0.0,0.0
1630604788.39991093,64628305,0.1,0.07,0.05,0.04,352.75,352.76,0.0,0.0
1630604788.49987102,64728265,0.13,0.11,0.05,0.04,352.75,352.76,0.0,0.0
1630604788.59983087,64828225,0.12,0.13,0.04,0.04,352.75,352.76,0.0,0.0
1630604788.69979095,64928185,0.14,0.14,0.04,0.03,352.75,352.76,0.0,0.0
1630604788.80058408,65028978,0.13,0.15,0.05,0.03,352.75,352.75,0.0,0.0
1630604788.90054393,65128938,0.13,0.15,0.06,0.04,352.75,352.75,0.0,0.0
1630604789.00050402,65228898,0.15,0.16,0.06,0.04,352.75,352.75,0.0,0.0
1630604789.10046387,65328858,0.13,0.15,0.06,0.05,352.75,352.75,0.0,0.0
1630604789.20042396,65428818,0.07,0.09,0.09,0.06,352.75,352.75,0.0,0.0
1630604789.30038404,65528778,0.04,0.04,0.12,0.09,352.75,352.75,0.0,0.0
1630604789.40034389,65628738,0.04,0.0,0.12,0.12,352.75,352.75,0.0,0.0
1630604789.50030398,65728698,0.06,0.01,0.08,0.11,352.75,352.75,0.0,0.0
1630604789.60026407,65828658,0.07,0.01,0.06,0.09,352.75,352.75,0.0,0.0
1630604789.70022392,65928618,0.09,0.04,0.04,0.07,352.75,352.75,0.0,0.0
1630604789.80018401,66028578,0.1,0.07,0.01,0.02,352.75,352.75,0.0,0.0
1630604789.90014386,66128538,0.09,0.09,-0.01,-0.01,352.75,352.75,0.0,0.0
1630604790.00010395,66228498,0.07,0.08,-0.01,-0.03,352.75,352.76,0.0,0.0
1630604790.10006404,66328458,0.05,0.06,0.01,-0.02,352.75,352.76,0.0,0.0
1630604790.20002389,66428418,0.06,0.06,0.04,0.0,352.75,352.76,0.0,0.0
1630604790.29998398,66528378,0.06,0.06,0.07,0.04,352.75,352.76,0.0,0.0
1630604790.39994407,66628338,0.06,0.06,0.08,0.06,352.75,352.76,0.0,0.0
1630604790.49990392,66728298,0.05,0.06,0.08,0.08,352.75,352.76,0.0,0.0
1630604790.59986401,66828258,0.06,0.06,0.08,0.09,352.75,352.76,0.0,0.0
1630604790.69982386,66928218,0.07,0.06,0.06,0.09,352.75,352.76,0.0,0.0
1630604790.79978395,67028178,0.06,0.06,0.04,0.06,352.75,352.75,0.0,0.0
1630604790.90057707,67128971,0.04,0.04,0.05,0.04,352.75,352.75,0.0,0.0
1630604791.00053692,67228931,0.05,0.03,0.09,0.05,352.75,352.75,0.0,0.0
1630604791.10049701,67328891,0.11,0.07,0.13,0.1,352.75,352.75,0.0,0.0
1630604791.20045686,67428851,0.16,0.12,0.16,0.14,352.75,352.74,0.0,0.0
1630604791.30041695,67528811,0.2,0.17,0.15,0.16,352.75,352.74,0.0,0.0
1630604791.40037704,67628771,0.18,0.19,0.15,0.16,352.75,352.74,0.0,0.0
1630604791.50033689,67728731,0.17,0.19,0.15,0.16,352.75,352.74,0.0,0.0
1630604791.60029697,67828691,0.16,0.18,0.14,0.15,352.75,352.74,0.0,0.0
1630604791.70025706,67928651,0.14,0.16,0.11,0.13,352.75,352.74,0.0,0.0
1630604791.80021691,68028611,0.11,0.13,0.13,0.12,352.75,352.74,0.0,0.0
1630604791.90017700,68128571,0.07,0.09,0.14,0.13,352.75,352.75,0.0,0.0
1630604792.00013685,68228531,0.08,0.06,0.14,0.13,352.75,352.75,0.0,0.0
1630604792.10009694,68328491,0.11,0.08,0.16,0.15,352.75,352.76,0.0,0.0
1630604792.20005703,68428451,0.16,0.12,0.16,0.16,352.75,352.76,0.0,0.0
1630604792.30001688,68528411,0.19,0.18,0.16,0.17,352.75,352.76,0.0,0.0
1630604792.39997697,68628371,0.19,0.2,0.15,0.16,352.75,352.76,0.0,0.0
1630604792.49993706,68728331,0.18,0.2,0.12,0.13,352.75,352.76,0.0,0.0
1630604792.59989691,68828291,0.14,0.17,0.08,0.09,352.75,352.76,0.0,0.0
1630604792.69985700,68928251,0.14,0.14,0.08,0.06,352.75,352.76,0.0,0.0
1630604792.79981709,69028211,0.14,0.13,0.11,0.07,352.75,352.76,0.0,0.0
1630604792.89977694,69128171,0.15,0.13,0.13,0.1,352.75,352.75,0.0,0.0
1630604793.00057006,69228964,0.16,0.15,0.14,0.11,352.75,352.75,0.0,0.0
1630604793.10052991,69328924,0.16,0.16,0.17,0.15,352.75,352.75,0.0,0.0
1630604793.20049000,69428884,0.12,0.13,0.17,0.17,352.75,352.75,0.0,0.0
1630604793.30045009,69528844,0.1,0.1,0.16,0.16,352.75,352.75,0.0,0.0
1630604793.40040994,69628804,0.13,0.1,0.15,0.14,352.75,352.75,0.0,0.0
1630604793.50037003,69728764,0.16,0.13,0.13,0.13,352.75,352.75,0.0,0.0
1630604793.60032988,69828724,0.16,0.15,0.13,0.12,352.75,352.75,0.0,0.0
1630604793.70028996,69928684,0.14,0.16,0.16,0.13,352.75,352.75,0.0,0.0
1630604793.80025005,70028644,0.1,0.14,0.16,0.14,352.75,352.75,0.0,0.0
1630604793.90020990,70128604,0.08,0.11,0.13,0.14,352.75,352.75,0.0,0.0
1630604794.00016999,70228564,0.09,0.08,0.1,0.11,352.75,352.76,0.0,0.0
1630604794.10013008,70328524,0.12,0.09,0.08,0.09,352.75,352.76,0.0,0.0
1630604794.20008993,70428484,0.14,0.11,0.06,0.06,352.75,352.76,0.0,0.0
1630604794.30005002,70528444,0.12,0.12,0.06,0.04,352.75,352.76,0.0,0.0
1630604794.40000987,70628404,0.12,0.11,0.08,0.06,352.75,352.76,0.0,0.0
1630604794.49996996,70728364,0.11,0.1,0.07,0.06,352.75,352.76,0.0,0.0
1630604794.59993005,70828324,0.09,0.09,0.05,0.04,352.75,352.76,0.0,0.0
1630604794.69988990,70928284,0.09,0.09,0.07,0.05,352.75,352.76,0.0,0.0
1630604794.79984999,71028244,0.09,0.08,0.09,0.06,352.75,352.76,0.0,0.0
1630604794.89981008,71128204,0.07,0.07,0.12,0.08,352.75,352.76,0.0,0.0
1630604794.99976993,71228164,0.04,0.03,0.12,0.1,352.75,352.75,0.0,0.0
1630604795.10056305,71328957,0.04,0.03,0.11,0.1,352.75,352.75,0.0,0.0
1630604795.20052290,71428917,0.07,0.04,0.1,0.09,352.75,352.75,0.0,0.0
1630604795.30048299,71528877,0.11,0.06,0.08,0.08,352.75,352.75,0.0,0.0
1630604795.40044308,71628837,0.13,0.09,0.08,0.06,352.75,352.75,0.0,0.0
1630604795.50040293,71728797,0.15,0.13,0.08,0.06,352.75,352.75,0.0,0.0
1630604795.60036302,71828757,0.17,0.17,0.1,0.08,352.75,352.74,0.0,0.0
1630604795.70032287,71928717,0.15,0.17,0.11,0.1,352.75,352.75,0.0,0.0
1630604795.80028296,72028677,0.09,0.13,0.06,0.09,352.75,352.75,0.0,0.0
1630604795.90024304,72128637,0.06,0.07,0.02,0.05,352.75,352.75,0.0,0.0
1630604796.00020289,72228597,0.05,0.04,0.02,0.02,352.75,352.75,0.0,0.0
1630604796.10016298,72328557,0.05,0.02,0.03,0.0,352.75,352.75,0.0,0.0
1630604796.20012307,72428517,0.08,0.03,0.04,0.01,352.75,352.75,0.0,0.0
1630604796.30008292,72528477,0.1,0.07,0.06,0.04,352.75,352.76,0.0,0.0
1630604796.40004301,72628437,0.09,0.08,0.07,0.06,352.75,352.76,0.0,0.0
1630604796.50000286,72728397,0.04,0.07,0.11,0.09,352.75,352.76,0.0,0.0
1630604796.59996295,72828357,-0.01,0.01,0.14,0.13,352.75,352.76,0.0,0.0
1630604796.69992304,72928317,-0.02,-0.04,0.13,0.15,352.75,352.76,0.0,0.0
1630604796.79988289,73028277,0.01,-0.04,0.1,0.13,352.75,352.76,0.0,0.0
1630604796.89984298,73128237,0.06,0.0,0.1,0.12,352.75,352.75,0.0,0.0
1630604796.99980307,73228197,0.08,0.03,0.08,0.1,352.75,352.76,0.0,0.0
1630604797.09976292,73328157,0.1,0.07,0.07,0.07,352.75,352.75,0.0,0.0
1630604797.20055604,73428950,0.13,0.11,0.09,0.07,352.75,352.75,0.0,0.0
1630604797.30051589,73528910,0.15,0.14,0.12,0.09,352.75,352.75,0.0,0.0
1630604797.40047598,73628870,0.14,0.14,0.11,0.1,352.75,352.76,0.0,0.0
1630604797.50043607,73728830,0.17,0.16,0.09,0.1,352.75,352.76,0.0,0.0
1630604797.60039592,73828790,0.19,0.19,0.07,0.07,352.75,352.76,0.0,0.0
1630604797.70035601,73928750,0.19,0.2,0.07,0.06,352.75,352.76,0.0,0.0
1630604797.80031586,74028710,0.16,0.18,0.08,0.07,352.75,352.76,0.0,0.0
1630604797.90027595,74128670,0.17,0.16,0.1,0.08,352.75,352.75,0.0,0.0
1630604798.00023603,74228630,0.19,0.16,0.14,0.11,352.75,352.75,0.0,0.0
1630604798.10019588,74328590,0.2,0.18,0.14,0.13,352.75,352.75,0.0,0.0
1630604798.20015597,74428550,0.19,0.18,0.12,0.13,352.75,352.75,0.0,0.0
1630604798.30011606,74528510,0.19,0.18,0.09,0.11,352.75,352.75,0.0,0.0
1630604798.40007591,74628470,0.18,0.18,0.04,0.06,352.75,352.75,0.0,0.0
1630604798.50003600,74728430,0.18,0.19,0.02,0.03,352.75,352.76,0.0,0.0
1630604798.59999585,74828390,0.19,0.19,0.0,0.0,352.75,352.76,0.0,0.0
1630604798.69995594,74928350,0.15,0.18,0.0,-0.01,352.75,352.75,0.0,0.0
1630604798.79991603,75028310,0.12,0.14,0.02,0.0,352.75,352.75,0.0,0.0
1630604798.89987588,75128270,0.13,0.12,0.04,0.01,352.75,352.75,0.0,0.0
1630604798.99983597,75228230,0.16,0.15,0.04,0.02,352.75,352.75,0.0,0.0
1630604799.09979606,75328190,0.19,0.17,0.05,0.04,352.75,352.75,0.0,0.0
1630604799.20058894,75428983,0.22,0.2,0.07,0.06,352.75,352.75,0.0,0.0
1630604799.30054903,75528943,0.25,0.24,0.07,0.07,352.75,352.75,0.0,0.0
1630604799.40050888,75628903,0.24,0.26,0.03,0.05,352.75,352.75,0.0,0.0
1630604799.50046897,75728863,0.19,0.23,0.03,0.03,352.75,352.75,0.0,0.0
1630604799.60042906,75828823,0.16,0.18,0.05,0.03,352.75,352.75,0.0,0.0
1630604799.70038891,75928783,0.17,0.15,0.06,0.03,352.75,352.75,0.0,0.0
1630604799.80034900,76028743,0.19,0.16,0.07,0.04,352.75,352.75,0.0,0.0
1630604799.90030909,76128703,0.17,0.15,0.09,0.06,352.75,352.75,0.0,0.0
1630604800.00026894,76228663,0.17,0.15,0.11,0.09,352.75,352.75,0.0,0.0
1630604800.10022902,76328623,0.19,0.16,0.1,0.09,352.75,352.75,0.0,0.0
1630604800.20018888,76428583,0.22,0.2,0.09,0.08,352.75,352.76,0.0,0.0
1630604800.30014896,76528543,0.22,0.22,0.12,0.1,352.75,352.76,0.0,0.0
1630604800.40010905,76628503,0.21,0.23,0.14,0.13,352.75,352.76,0.0,0.0
1630604800.50006890,76728463,0.18,0.2,0.14,0.14,352.75,352.76,0.0,0.0
1630604800.60002899,76828423,0.13,0.16,0.14,0.15,352.75,352.76,0.0,0.0
1630604800.69998908,76928383,0.09,0.11,0.15,0.16,352.75,352.76,0.0,0.0
1630604800.79994893,77028343,0.06,0.06,0.13,0.15,352.75,352.76,0.0,0.0
1630604800.89990902,77128303,0.08,0.05,0.12,0.13,352.75,352.76,0.0,0.0
1630604800.99986887,77228263,0.12,0.08,0.14,0.13,352.75,352.76,0.0,0.0
1630604801.09982896,77328223,0.16,0.12,0.13,0.14,352.75,352.76,0.0,0.0
1630604801.19978905,77428183,0.16,0.15,0.11,0.13,352.75,352.76,0.0,0.0
1630604801.30058193,77528976,0.13,0.15,0.12,0.11,352.75,352.76,0.0,0.0
1630604801.40054202,77628936,0.09,0.12,0.11,0.11,352.75,352.75,0.0,0.0
1630604801.50050187,77728896,0.08,0.08,0.08,0.08,352.75,352.75,0.0,0.0
1630604801.60046196,77828856,0.1,0.08,0.09,0.07,352.75,352.75,0.0,0.0
1630604801.70042205,77928816,0.11,0.09,0.12,0.1,352.75,352.74,0.0,0.0
1630604801.80038190,78028776,0.13,0.11,0.15,0.13,352.75,352.74,0.0,0.0
1630604801.90034199,78128736,0.14,0.12,0.11,0.13,352.75,352.74,0.0,0.0
1630604802.00030208,78228696,0.13,0.13,0.04,0.08,352.75,352.75,0.0,0.0
1630604802.10026193,78328656,0.11,0.13,0.0,0.02,352.75,352.75,0.0,0.0
1630604802.20022202,78428616,0.1,0.11,0.02,0.0,352.75,352.75,0.0,0.0
1630604802.30018187,78528576,0.11,0.1,0.09,0.03,352.75,352.75,0.0,0.0
1630604802.40014195,78628536,0.11,0.09,0.14,0.1,352.75,352.76,0.0,0.0
1630604802.50010204,78728496,0.09,0.08,0.16,0.14,352.75,352.76,0.0,0.0
1630604802.60006189,78828456,0.07,0.07,0.17,0.17,352.75,352.76,0.0,0.0
1630604802.70002198,78928416,0.08,0.07,0.15,0.16,352.75,352.76,0.0,0.0
1630604802.79998207,79028376,0.08,0.07,0.13,0.14,352.75,352.75,0.0,0.0
1630604802.89994192,79128336,0.1,0.07,0.12,0.12,352.75,352.75,0.0,0.0
1630604802.99990201,79228296,0.12,0.09,0.1,0.1,352.75,352.75,0.0,0.0
1630604803.09986186,79328256,0.09,0.09,0.1,0.08,352.75,352.75,0.0,0.0
1630604803.19982195,79428216,0.07,0.07,0.13,0.1,352.75,352.75,0.0,0.0
1630604803.29978204,79528176,0.06,0.05,0.17,0.14,352.75,352.74,0.0,0.0
1630604803.40057492,79628969,0.08,0.06,0.18,0.17,352.75,352.75,0.0,0.0
1630604803.50053501,79728929,0.11,0.09,0.18,0.18,352.75,352.75,0.0,0.0
1630604803.60049486,79828889,0.11,0.12,0.17,0.19,352.75,352.75,0.0,0.0
1630604803.70045495,79928849,0.07,0.11,0.14,0.17,352.75,352.75,0.0,0.0
1630604803.80041504,80028809,0.03,0.06,0.1,0.12,352.75,352.75,0.0,0.0
1630604803.90037489,80128769,0.03,0.02,0.09,0.09,352.75,352.75,0.0,0.0
1630604804.00033498,80228729,0.06,0.02,0.1,0.07,352.75,352.75,0.0,0.0
1630604804.10029507,80328689,0.1,0.05,0.13,0.08,352.75,352.75,0.0,0.0
1630604804.20025492,80428649,0.14,0.09,0.15,0.11,352.75,352.75,0.0,0.0
1630604804.30021501,80528609,0.16,0.14,0.13,0.12,352.75,352.75,0.0,0.0
1630604804.40017486,80628569,0.18,0.17,0.13,0.12,352.75,352.75,0.0,0.0
1630604804.50013494,80728529,0.2,0.19,0.14,0.12,352.75,352.75,0.0,0.0
1630604804.60009503,80828489,0.19,0.2,0.15,0.13,352.75,352.75,0.0,0.0
1630604804.70005488,80928449,0.16,0.18,0.15,0.15,352.75,352.75,0.0,0.0
1630604804.80001497,81028409,0.16,0.16,0.16,0.16,352.75,352.75,0.0,0.0
1630604804.89997506,81128369,0.16,0.15,0.14,0.15,352.75,352.75,0.0,0.0
1630604804.99993491,81228329,0.15,0.15,0.12,0.13,352.75,352.75,0.0,0.0
1630604805.09989500,81328289,0.14,0.15,0.09,0.1,352.75,352.75,0.0,0.0
1630604805.19985485,81428249,0.14,0.14,0.07,0.07,352.75,352.75,0.0,0.0
1630604805.29981494,81528209,0.16,0.14,0.09,0.07,352.75,352.76,0.0,0.0
1630604805.39977503,81628169,0.17,0.14,0.1,0.08,352.75,352.76,0.0,0.0
1630604805.50056791,81728962,0.17,0.15,0.13,0.11,352.75,352.76,0.0,0.0
1630604805.60052800,81828922,0.18,0.16,0.17,0.15,352.75,352.76,0.0,0.0
1630604805.70048785,81928882,0.16,0.15,0.19,0.2,352.75,352.76,0.0,0.0
1630604805.80044794,82028842,0.18,0.15,0.2,0.22,352.75,352.76,0.0,0.0
1630604805.90040803,82128802,0.15,0.15,0.18,0.22,352.75,352.76,0.0,0.0
1630604806.00036788,82228762,0.1,0.11,0.12,0.17,352.75,352.75,0.0,0.0
1630604806.10032797,82328722,0.09,0.08,0.08,0.11,352.75,352.75,0.0,0.0
1630604806.20028806,82428682,0.09,0.07,0.09,0.07,352.75,352.75,0.0,0.0
1630604806.30024791,82528642,0.1,0.06,0.13,0.09,352.75,352.75,0.0,0.0
1630604806.40020800,82628602,0.13,0.08,0.15,0.11,352.75,352.75,0.0,0.0
1630604806.50016809,82728562,0.16,0.12,0.16,0.14,352.75,352.75,0.0,0.0
1630604806.60012794,82828522,0.17,0.15,0.14,0.14,352.75,352.75,0.0,0.0
1630604806.70008802,82928482,0.18,0.18,0.11,0.13,352.75,352.75,0.0,0.0
1630604806.80004787,83028442,0.17,0.19,0.11,0.11,352.75,352.74,0.0,0.0
1630604806.90000796,83128402,0.12,0.16,0.1,0.1,352.75,352.74,0.0,0.0
1630604806.99996805,83228362,0.08,0.11,0.11,0.09,352.75,352.75,0.0,0.0
1630604807.09992790,83328322,0.08,0.08,0.13,0.1,352.75,352.75,0.0,0.0
1630604807.19988799,83428282,0.08,0.08,0.14,0.11,352.75,352.75,0.0,0.0
1630604807.29984808,83528242,0.07,0.07,0.16,0.14,352.75,352.75,0.0,0.0
1630604807.39980793,83628202,0.08,0.07,0.18,0.16,352.75,352.75,0.0,0.0
1630604807.49976802,83728162,0.09,0.07,0.2,0.17,352.75,352.75,0.0,0.0
1630604807.60056090,83828955,0.12,0.09,0.2,0.19,352.75,352.76,0.0,0.0
1630604807.70052099,83928915,0.15,0.12,0.18,0.19,352.75,352.76,0.0,0.0
1630604807.80048108,84028875,0.17,0.14,0.16,0.17,352.75,352.76,0.0,0.0
1630604807.90044093,84128835,0.2,0.18,0.14,0.15,352.75,352.76,0.0,0.0
1630604808.00040102,84228795,0.21,0.21,0.1,0.12,352.75,352.75,0.0,0.0
1630604808.10036087,84328755,0.18,0.22,0.09,0.1,352.75,352.75,0.0,0.0
1630604808.20032096,84428715,0.17,0.19,0.1,0.09,352.75,352.75,0.0,0.0
1630604808.30028105,84528675,0.14,0.16,0.09,0.08,352.75,352.75,0.0,0.0
1630604808.40024090,84628635,0.13,0.13,0.07,0.06,352.75,352.75,0.0,0.0
1630604808.50020099,84728595,0.13,0.12,0.05,0.05,352.75,352.75,0.0,0.0
1630604808.60016108,84828555,0.15,0.12,0.06,0.04,352.75,352.75,0.0,0.0
1630604808.70012093,84928515,0.16,0.14,0.09,0.05,352.75,352.74,0.0,0.0
1630604808.80008101,85028475,0.14,0.14,0.1,0.08,352.75,352.74,0.0,0.0
1630604808.90004086,85128435,0.13,0.13,0.14,0.11,352.75,352.74,0.0,0.0
1630604809.00000095,85228395,0.11,0.11,0.18,0.16,352.75,352.74,0.0,0.0
1630604809.09996104,85328355,0.11,0.09,0.21,0.21,352.75,352.74,0.0,0.0
1630604809.19992089,85428315,0.13,0.08,0.22,0.24,352.75,352.74,0.0,0.0
1630604809.29988098,85528275,0.17,0.12,0.17,0.22,352.75,352.74,0.0,0.0
1630604809.39984107,85628235,0.16,0.14,0.09,0.14,352.75,352.75,0.0,0.0
1630604809.49980092,85728195,0.14,0.14,0.05,0.06,352.75,352.75,0.0,0.0
1630604809.59976101,85828155,0.14,0.13,0.05,0.02,352.75,352.75,0.0,0.0
1630604809.70055389,85928948,0.14,0.13,0.06,0.01,352.75,352.75,0.0,0.0
1630604809.80051398,86028908,0.14,0.13,0.09,0.03,352.75,352.75,0.0,0.0
1630604809.90047407,86128868,0.13,0.12,0.12,0.07,352.75,352.75,0.0,0.0
1630604810.00043392,86228828,0.14,0.13,0.13,0.11,352.75,352.75,0.0,0.0
1630604810.10039401,86328788,0.16,0.14,0.12,0.11,352.75,352.75,0.0,0.0
1630604810.20035386,86428748,0.17,0.16,0.11,0.1,352.75,352.75,0.0,0.0
1630604810.30031395,86528708,0.17,0.18,0.07,0.08,352.75,352.75,0.0,0.0
1630604810.40027404,86628668,0.14,0.16,0.06,0.05,352.75,352.75,0.0,0.0
1630604810.50023389,86728628,0.09,0.12,0.11,0.07,352.75,352.75,0.0,0.0
1630604810.60019398,86828588,0.05,0.07,0.15,0.12,352.75,352.75,0.0,0.0
1630604810.70015407,86928548,0.03,0.02,0.14,0.16,352.75,352.75,0.0,0.0
1630604810.80011392,87028508,0.06,0.02,0.12,0.16,352.75,352.75,0.0,0.0
1630604810.90007401,87128468,0.12,0.06,0.12,0.15,352.75,352.75,0.0,0.0
1630604811.00003386,87228428,0.17,0.14,0.12,0.14,352.75,352.75,0.0,0.0
1630604811.09999394,87328388,0.15,0.17,0.1,0.12,352.75,352.75,0.0,0.0
1630604811.19995403,87428348,0.15,0.17,0.06,0.08,352.75,352.75,0.0,0.0
1630604811.29991388,87528308,0.12,0.15,0.04,0.04,352.75,352.75,0.0,0.0
1630604811.39987397,87628268,0.12,0.12,0.04,0.01,352.75,352.75,0.0,0.0
1630604811.49983406,87728228,0.13,0.11,0.06,0.02,352.75,352.75,0.0,0.0
1630604811.59979391,87828188,0.14,0.12,0.1,0.05,352.75,352.75,0.0,0.0
1630604811.70058703,87928981,0.1,0.11,0.13,0.1,352.75,352.76,0.0,0.0
1630604811.80054688,88028941,0.07,0.08,0.14,0.13,352.75,352.76,0.0,0.0
1630604811.90050697,88128901,0.07,0.06,0.14,0.14,352.75,352.76,0.0,0.0
1630604812.00046706,88228861,0.1,0.07,0.14,0.14,352.75,352.76,0.0,0.0
1630604812.10042691,88328821,0.11,0.09,0.14,0.14,352.75,352.76,0.0,0.0
1630604812.20038700,88428781,0.11,0.11,0.12,0.14,352.75,352.76,0.0,0.0
1630604812.30034685,88528741,0.1,0.12,0.1,0.11,352.75,352.75,0.0,0.0
1630604812.40030694,88628701,0.07,0.08,0.1,0.11,352.75,352.75,0.0,0.0
1630604812.50026703,88728661,0.08,0.06,0.08,0.09,352.75,352.75,0.0,0.0
1630604812.60022688,88828621,0.1,0.06,0.08,0.07,352.75,352.75,0.0,0.0
1630604812.70018697,88928581,0.12,0.07,0.11,0.07,352.75,352.75,0.0,0.0
1630604812.80014706,89028541,0.17,0.12,0.15,0.11,352.75,352.75,0.0,0.0
1630604812.90010691,89128501,0.21,0.18,0.17,0.15,352.75,352.75,0.0,0.0
1630604813.00006700,89228461,0.22,0.22,0.18,0.17,352.75,352.75,0.0,0.0
1630604813.10002708,89328421,0.2,0.22,0.18,0.18,352.75,352.75,0.0,0.0
1630604813.19998693,89428381,0.18,0.21,0.18,0.18,352.75,352.75,0.0,0.0
1630604813.29994702,89528341,0.18,0.19,0.18,0.19,352.75,352.75,0.0,0.0
1630604813.39990687,89628301,0.19,0.18,0.15,0.17,352.75,352.75,0.0,0.0
1630604813.49986696,89728261,0.17,0.17,0.16,0.16,352.75,352.75,0.0,0.0
1630604813.59982705,89828221,0.15,0.14,0.16,0.15,352.75,352.75,0.0,0.0
1630604813.69978690,89928181,0.15,0.13,0.17,0.16,352.75,352.75,0.0,0.0
1630604813.80058002,90028974,0.18,0.15,0.17,0.16,352.75,352.75,0.0,0.0
1630604813.90053988,90128934,0.19,0.16,0.17,0.17,352.75,352.75,0.0,0.0
1630604814.00049996,90228894,0.21,0.18,0.18,0.17,352.75,352.75,0.0,0.0
1630604814.10046005,90328854,0.22,0.2,0.19,0.18,352.75,352.75,0.0,0.0
1630604814.20041990,90428814,0.2,0.2,0.2,0.18,352.75,352.75,0.0,0.0
1630604814.30037999,90528774,0.18,0.18,0.2,0.19,352.75,352.75,0.0,0.0
1630604814.40034008,90628734,0.17,0.17,0.18,0.17,352.75,352.75,0.0,0.0
1630604814.50029993,90728694,0.15,0.15,0.15,0.15,352.75,352.75,0.0,0.0
1630604814.60026002,90828654,0.17,0.15,0.13,0.12,352.75,352.75,0.0,0.0
1630604814.70021987,90928614,0.19,0.18,0.14,0.1,352.75,352.75,0.0,0.0
1630604814.80017996,91028574,0.17,0.19,0.16,0.11,352.75,352.75,0.0,0.0
1630604814.90014005,91128534,0.11,0.16,0.18,0.13,352.75,352.75,0.0,0.0
1630604815.00009990,91228494,0.07,0.09,0.2,0.16,352.75,352.75,0.0,0.0
1630604815.10005999,91328454,0.07,0.05,0.2,0.19,352.75,352.75,0.0,0.0
1630604815.20002007,91428414,0.07,0.04,0.18,0.19,352.75,352.75,0.0,0.0
1630604815.29997993,91528374,0.07,0.04,0.15,0.17,352.75,352.75,0.0,0.0
1630604815.39994001,91628334,0.09,0.05,0.13,0.14,352.75,352.75,0.0,0.0
1630604815.49989986,91728294,0.09,0.07,0.15,0.14,352.75,352.75,0.0,0.0
1630604815.59985995,91828254,0.1,0.09,0.14,0.14,352.75,352.75,0.0,0.0
1630604815.69982004,91928214,0.16,0.13,0.12,0.12,352.75,352.75,0.0,0.0
1630604815.79977989,92028174,0.18,0.18,0.11,0.11,352.75,352.75,0.0,0.0
1630604815.90057302,92128967,0.17,0.19,0.12,0.1,352.75,352.75,0.0,0.0
1630604816.00053287,92228927,0.15,0.18,0.15,0.12,352.75,352.75,0.0,0.0
1630604816.10049295,92328887,0.16,0.17,0.19,0.15,352.75,352.75,0.0,0.0
1630604816.20045304,92428847,0.17,0.16,0.19,0.18,352.75,352.75,0.0,0.0
1630604816.30041289,92528807,0.17,0.16,0.17,0.18,352.75,352.75,0.0,0.0
1630604816.40037298,92628767,0.18,0.16,0.17,0.18,352.75,352.75,0.0,0.0
1630604816.50033307,92728727,0.18,0.17,0.17,0.18,352.75,352.75,0.0,0.0
1630604816.60029292,92828687,0.16,0.16,0.11,0.14,352.75,352.75,0.0,0.0
1630604816.70025301,92928647,0.17,0.16,0.07,0.09,352.75,352.75,0.0,0.0
1630604816.80021286,93028607,0.18,0.15,0.07,0.05,352.75,352.75,0.0,0.0
1630604816.90017295,93128567,0.17,0.15,0.06,0.04,352.75,352.75,0.0,0.0
1630604817.00013304,93228527,0.16,0.14,0.09,0.05,352.75,352.75,0.0,0.0
1630604817.10009289,93328487,0.17,0.15,0.11,0.08,352.75,352.76,0.0,0.0
1630604817.20005298,93428447,0.19,0.17,0.1,0.1,352.75,352.76,0.0,0.0
1630604817.30001307,93528407,0.22,0.2,0.1,0.1,352.75,352.76,0.0,0.0
1630604817.39997292,93628367,0.2,0.21,0.09,0.1,352.75,352.76,0.0,0.0
1630604817.49993300,93728327,0.17,0.18,0.08,0.09,352.75,352.75,0.0,0.0
1630604817.59989285,93828287,0.16,0.16,0.1,0.09,352.75,352.75,0.0,0.0
1630604817.69985294,93928247,0.16,0.15,0.11,0.1,352.75,352.75,0.0,0.0
1630604817.79981303,94028207,0.17,0.16,0.12,0.11,352.75,352.75,0.0,0.0
1630604817.89977288,94128167,0.18,0.16,0.13,0.12,352.75,352.75,0.0,0.0
1630604818.00056601,94228960,0.19,0.17,0.14,0.13,352.75,352.75,0.0,0.0
1630604818.10052586,94328920,0.23,0.21,0.14,0.14,352.75,352.75,0.0,0.0
1630604818.20048594,94428880,0.25,0.24,0.15,0.14,352.75,352.75,0.0,0.0
1630604818.30044603,94528840,0.23,0.24,0.17,0.16,352.75,352.75,0.0,0.0
1630604818.40040588,94628800,0.21,0.22,0.17,0.16,352.75,352.75,0.0,0.0
1630604818.50036597,94728760,0.21,0.21,0.15,0.16,352.75,352.75,0.0,0.0
1630604818.60032606,94828720,0.22,0.2,0.13,0.14,352.75,352.75,0.0,0.0
1630604818.70028591,94928680,0.22,0.21,0.11,0.11,352.75,352.75,0.0,0.0
1630604818.80024600,95028640,0.21,0.21,0.11,0.09,352.75,352.75,0.0,0.0
1630604818.90020585,95128600,0.19,0.19,0.11,0.1,352.75,352.75,0.0,0.0
1630604819.00016594,95228560,0.17,0.17,0.11,0.09,352.75,352.75,0.0,0.0
1630604819.10012603,95328520,0.18,0.16,0.1,0.09,352.75,352.75,0.0,0.0
1630604819.20008588,95428480,0.19,0.17,0.1,0.09,352.75,352.75,0.0,0.0
1630604819.30004597,95528440,0.18,0.18,0.14,0.11,352.75,352.75,0.0,0.0
1630604819.40000606,95628400,0.16,0.16,0.18,0.15,352.75,352.75,0.0,0.0
1630604819.49996591,95728360,0.16,0.15,0.21,0.19,352.75,352.75,0.0,0.0
1630604819.59992599,95828320,0.15,0.13,0.23,0.22,352.75,352.75,0.0,0.0
1630604819.69988608,95928280,0.15,0.13,0.21,0.23,352.75,352.75,0.0,0.0
1630604819.79984593,96028240,0.16,0.14,0.18,0.2,352.75,352.75,0.0,0.0
1630604819.89980602,96128200,0.18,0.17,0.17,0.17,352.75,352.75,0.0,0.0
1630604819.99976587,96228160,0.17,0.17,0.18,0.16,352.75,352.75,0.0,0.0
1630604820.10055900,96328953,0.18,0.17,0.19,0.17,352.75,352.75,0.0,0.0
1630604820.20051908,96428913,0.2,0.18,0.2,0.18,352.75,352.75,0.0,0.0
1630604820.30047894,96528873,0.21,0.2,0.22,0.21,352.75,352.75,0.0,0.0
1630604820.40043902,96628833,0.23,0.21,0.22,0.21,352.75,352.75,0.0,0.0
1630604820.50039887,96728793,0.22,0.22,0.19,0.2,352.75,352.75,0.0,0.0
1630604820.60035896,96828753,0.21,0.21,0.17,0.17,352.75,352.75,0.0,0.0
1630604820.70031905,96928713,0.18,0.19,0.17,0.16,352.75,352.75,0.0,0.0
1630604820.80027890,97028673,0.14,0.15,0.16,0.15,352.75,352.75,0.0,0.0
1630604820.90023899,97128633,0.11,0.11,0.16,0.15,352.75,352.75,0.0,0.0
1630604821.00019908,97228593,0.11,0.09,0.16,0.14,352.75,352.75,0.0,0.0
1630604821.10015893,97328553,0.12,0.1,0.18,0.16,352.75,352.75,0.0,0.0
1630604821.20011902,97428513,0.11,0.09,0.2,0.18,352.75,352.75,0.0,0.0
1630604821.30007887,97528473,0.1,0.08,0.2,0.19,352.75,352.75,0.0,0.0
1630604821.40003896,97628433,0.11,0.08,0.2,0.19,352.75,352.76,0.0,0.0
1630604821.49999905,97728393,0.12,0.1,0.2,0.2,352.75,352.76,0.0,0.0
1630604821.59995890,97828353,0.11,0.1,0.19,0.19,352.75,352.75,0.0,0.0
1630604821.69991899,97928313,0.11,0.1,0.16,0.16,352.75,352.75,0.0,0.0
1630604821.79987907,98028273,0.13,0.11,0.13,0.13,352.75,352.75,0.0,0.0
1630604821.89983892,98128233,0.14,0.13,0.13,0.11,352.75,352.75,0.0,0.0
1630604821.99979901,98228193,0.11,0.12,0.13,0.12,352.75,352.75,0.0,0.0
1630604822.10059190,98328986,0.09,0.09,0.02,0.07,352.75,352.75,0.0,0.0
1630604822.20055199,98428946,0.04,0.06,-0.27,-0.13,352.75,352.75,0.0,0.0
1630604822.30051208,98528906,-0.04,-0.01,-0.83,-0.56,352.75,352.75,0.0,0.0
1630604822.40047193,98628866,-0.14,-0.11,-1.61,-1.3,352.75,352.75,0.0,0.0
1630604822.50043201,98728826,-0.25,-0.23,-2.52,-2.24,352.75,352.75,0.0,0.0
1630604822.60039186,98828786,-0.38,-0.37,-3.41,-3.26,352.75,352.76,0.0,0.0
1630604822.70035195,98928746,-0.47,-0.49,-4.13,-4.17,352.75,352.76,0.0,0.0
1630604822.80031204,99028706,-0.53,-0.57,-4.68,-4.88,352.75,352.77,0.0,0.0
1630604822.90027189,99128666,-0.59,-0.63,-5.11,-5.37,352.75,352.76,0.0,0.0
1630604823.00023198,99228626,-0.62,-0.67,-5.47,-5.72,352.75,352.76,0.0,0.0
1630604823.10019207,99328586,-0.66,-0.69,-5.83,-6.01,352.75,352.76,0.0,0.0
1630604823.20015192,99428546,-0.71,-0.72,-6.23,-6.32,352.75,352.75,0.0,0.0
1630604823.30011201,99528506,-0.74,-0.76,-6.7,-6.71,352.75,352.75,0.0,0.0
1630604823.40007186,99628466,-0.78,-0.79,-7.15,-7.15,352.75,352.75,0.0,0.0
1630604823.50003195,99728426,-0.82,-0.83,-7.51,-7.55,352.75,352.75,0.0,0.0
1630604823.59999204,99828386,-0.84,-0.85,-7.74,-7.86,352.75,352.74,0.0,0.0
1630604823.69995189,99928346,-0.87,-0.87,-7.92,-8.05,352.75,352.74,0.0,0.0
1630604823.79991198,100028306,-0.92,-0.91,-8.07,-8.18,352.75,352.74,0.0,0.0
1630604823.89987206,100128266,-0.97,-0.96,-8.21,-8.28,352.75,352.75,0.0,0.0
1630604823.99983191,100228226,-1.01,-1.01,-8.39,-8.4,352.75,352.75,0.0,0.0
1630604824.09979200,100328186,-1.04,-1.11,-8.65,-8.59,351.74,352.74,0.0,0.0
1630604824.20058489,100428979,-1.07,-1.41,-9.0,-8.86,349.15,352.46,0.0,0.0
1630604824.30054498,100528939,-1.02,-1.59,-9.39,-9.22,347.68,351.56,0.0,0.0
1630604824.40050507,100628899,-0.84,-1.48,-9.83,-9.67,346.91,350.12,0.0,0.0
1630604824.50046492,100728859,-0.52,-1.04,-10.3,-10.17,346.51,348.4,0.0,0.0
1630604824.60042500,100828819,-0.12,-0.4,-10.78,-10.7,346.3,346.68,0.0,0.0
1630604824.70038486,100928779,0.25,0.31,-11.19,-11.18,346.2,345.16,0.0,0.0
1630604824.80034494,101028739,0.49,0.9,-11.58,-11.6,346.14,344.0,0.0,0.0
1630604824.90030503,101128699,0.59,1.26,-11.95,-11.97,346.09,343.28,0.0,0.0
1630604825.00026488,101228659,0.6,1.38,-12.31,-12.32,346.05,343.0,0.0,0.0
1630604825.10022497,101328619,0.52,1.28,-12.71,-12.69,346.0,343.11,0.0,0.0
1630604825.20018506,101428579,0.36,1.01,-13.12,-13.09,345.93,343.52,0.0,0.0
1630604825.30014491,101528539,0.15,0.62,-13.52,-13.49,345.86,344.13,0.0,0.0
1630604825.40010500,101628499,-0.06,0.18,-13.93,-13.91,345.78,344.82,0.0,0.0
1630604825.50006485,101728459,-0.21,-0.21,-14.29,-14.3,345.71,345.5,0.0,0.0
1630604825.60002494,101828419,-0.31,-0.52,-14.55,-14.62,345.64,346.07,0.0,0.0
1630604825.69998503,101928379,-0.34,-0.7,-14.7,-14.82,345.58,346.48,0.0,0.0
1630604825.79994488,102028339,-0.33,-0.74,-14.84,-14.94,345.54,346.71,0.0,0.0
1630604825.89990497,102128299,-0.3,-0.7,-14.98,-15.04,345.51,346.76,0.0,0.0
1630604825.99986506,102228259,-0.24,-0.61,-15.13,-15.15,345.49,346.66,0.0,0.0
1630604826.09982491,102328219,-0.18,-0.47,-15.27,-15.27,345.48,346.44,0.0,0.0
1630604826.19978499,102428179,-0.12,-0.32,-15.4,-15.39,345.47,346.15,0.0,0.0
1630604826.30057788,102528972,-0.07,-0.17,-15.5,-15.5,345.46,345.84,0.0,0.0
1630604826.40053797,102628932,0.0,-0.02,-15.58,-15.59,345.46,345.54,0.0,0.0
1630604826.50049806,102728892,0.04,0.1,-15.66,-15.67,345.46,345.28,0.0,0.0
1630604826.60045791,102828852,0.09,0.2,-15.74,-15.75,345.46,345.1,0.0,0.0
1630604826.70041800,102928812,0.14,0.27,-15.81,-15.82,345.46,344.99,0.0,0.0
1630604826.80037808,103028772,0.16,0.31,-15.9,-15.89,345.46,344.96,0.0,0.0
1630604826.90033793,103128732,0.16,0.3,-15.98,-15.97,345.45,344.99,0.0,0.0
1630604827.00029802,103228692,0.14,0.27,-16.05,-16.05,345.45,345.08,0.0,0.0
1630604827.10025787,103328652,0.11,0.21,-16.09,-16.11,345.45,345.19,0.0,0.0
1630604827.20021796,103428612,0.09,0.14,-16.13,-16.15,345.45,345.32,0.0,0.0
1630604827.30017805,103528572,0.08,0.07,-16.16,-16.18,345.45,345.45,0.0,0.0
1630604827.40013790,103628532,0.06,0.02,-16.22,-16.22,345.45,345.55,0.0,0.0
1630604827.50009799,103728492,0.03,-0.02,-16.27,-16.26,345.45,345.63,0.0,0.0
1630604827.60005808,103828452,0.02,-0.06,-16.31,-16.31,345.45,345.68,0.0,0.0
1630604827.70001793,103928412,0.03,-0.05,-16.34,-16.35,345.45,345.7,0.0,0.0
1630604827.79997802,104028372,0.06,-0.03,-16.39,-16.4,345.45,345.69,0.0,0.0
1630604827.89993787,104128332,0.08,0.0,-16.44,-16.45,345.45,345.66,0.0,0.0
1630604827.99989796,104228292,0.11,0.05,-16.48,-16.49,345.45,345.62,0.0,0.0
1630604828.09985805,104328252,0.13,0.1,-16.53,-16.53,345.45,345.57,0.0,0.0
1630604828.19981790,104428212,0.16,0.14,-16.57,-16.58,345.46,345.52,0.0,0.0
1630604828.29977798,104528172,0.17,0.17,-16.6,-16.61,345.46,345.48,0.0,0.0
1630604828.40057087,104628965,0.17,0.19,-16.61,-16.64,345.46,345.44,0.0,0.0
1630604828.50053096,104728925,0.17,0.19,-16.63,-16.65,345.46,345.43,0.0,0.0
1630604828.60049105,104828885,0.15,0.18,-16.67,-16.67,345.46,345.42,0.0,0.0
1630604828.70045090,104928845,0.16,0.17,-16.71,-16.71,345.46,345.42,0.0,0.0
1630604828.80041099,105028805,0.19,0.18,-16.77,-16.76,345.46,345.44,0.0,0.0
1630604828.90037107,105128765,0.24,0.22,-16.81,-16.81,345.46,345.45,0.0,0.0
1630604829.00033092,105228725,0.26,0.25,-16.85,-16.86,345.46,345.47,0.0,0.0
1630604829.10029101,105328685,0.25,0.27,-16.89,-16.9,345.46,345.48,0.0,0.0
1630604829.20025086,105428645,0.22,0.25,-16.92,-16.94,345.46,345.5,0.0,0.0
1630604829.30021095,105528605,0.2,0.23,-16.97,-16.97,345.46,345.51,0.0,0.0
1630604829.40017104,105628565,0.21,0.2,-17.02,-17.02,345.46,345.52,0.0,0.0
1630604829.50013089,105728525,0.23,0.21,-17.02,-17.05,345.45,345.52,0.0,0.0
1630604829.60009098,105828485,0.27,0.23,-17.02,-17.06,345.45,345.52,0.0,0.0
1630604829.70005107,105928445,0.28,0.26,-17.03,-17.06,345.45,345.51,0.0,0.0
1630604829.80001092,106028405,0.26,0.26,-17.06,-17.07,345.45,345.5,0.0,0.0
1630604829.89997101,106128365,0.26,0.25,-17.11,-17.1,345.44,345.49,0.0,0.0
1630604829.99993086,106228325,0.26,0.26,-17.17,-17.17,345.44,345.48,0.0,0.0
1630604830.09989095,106328285,0.27,0.26,-17.2,-17.22,345.44,345.47,0.0,0.0
1630604830.19985104,106428245,0.28,0.27,-17.23,-17.25,345.43,345.46,0.0,0.0
1630604830.29981089,106528205,0.28,0.28,-17.23,-17.26,345.43,345.44,0.0,0.0
1630604830.39977098,106628165,0.29,0.29,-17.23,-17.26,345.42,345.44,0.0,0.0
1630604830.50056386,106728958,0.29,0.29,-17.21,-17.23,345.42,345.43,0.0,0.0
1630604830.60052395,106828918,0.3,0.29,-17.2,-17.22,345.41,345.42,0.0,0.0
1630604830.70048404,106928878,0.29,0.29,-17.24,-17.24,345.41,345.42,0.0,0.0
1630604830.80044389,107028838,0.28,0.28,-17.31,-17.29,345.4,345.41,0.0,0.0
1630604830.90040398,107128798,0.27,0.28,-17.35,-17.34,345.39,345.41,0.0,0.0
1630604831.00036407,107228758,0.26,0.27,-17.39,-17.4,345.39,345.4,0.0,0.0
1630604831.10032392,107328718,0.25,0.26,-17.41,-17.43,345.38,345.4,0.0,0.0
1630604831.20028400,107428678,0.22,0.23,-17.43,-17.45,345.37,345.39,0.0,0.0
1630604831.30024385,107528638,0.23,0.21,-17.44,-17.46,345.36,345.38,0.0,0.0
1630604831.40020394,107628598,0.25,0.23,-17.45,-17.47,345.35,345.37,0.0,0.0
1630604831.50016403,107728558,0.26,0.24,-17.45,-17.48,345.34,345.36,0.0,0.0
1630604831.60012388,107828518,0.25,0.24,-17.46,-17.49,345.34,345.35,0.0,0.0
1630604831.70008397,107928478,0.23,0.23,-17.47,-17.5,345.33,345.34,0.0,0.0
1630604831.80004406,108028438,0.22,0.21,-17.51,-17.52,345.32,345.33,0.0,0.0
1630604831.90000391,108128398,0.23,0.21,-17.54,-17.55,345.31,345.32,0.0,0.0
1630604831.99996400,108228358,0.23,0.22,-17.57,-17.58,345.3,345.31,0.0,0.0
1630604832.09992409,108328318,0.23,0.23,-17.59,-17.61,345.29,345.3,0.0,0.0
1630604832.19988394,108428278,0.27,0.24,-17.61,-17.64,345.28,345.29,0.0,0.0
1630604832.29984403,108528238,0.31,0.29,-17.62,-17.65,345.28,345.28,0.0,0.0
1630604832.39980388,108628198,0.31,0.31,-17.62,-17.64,345.27,345.28,0.0,0.0
1630604832.49976397,108728158,0.3,0.32,-17.62,-17.63,345.27,345.27,0.0,0.0
1630604832.60055685,108828951,0.29,0.31,-17.6,-17.63,345.26,345.26,0.0,0.0
1630604832.70051694,108928911,0.27,0.29,-17.6,-17.61,345.26,345.26,0.0,0.0
1630604832.80047703,109028871,0.25,0.26,-17.6,-17.6,345.25,345.26,0.0,0.0
1630604832.90043688,109128831,0.27,0.25,-17.62,-17.61,345.25,345.25,0.0,0.0
1630604833.00039697,109228791,0.3,0.27,-17.65,-17.63,345.25,345.25,0.0,0.0
1630604833.10035706,109328751,0.33,0.31,-17.69,-17.68,345.24,345.25,0.0,0.0
1630604833.20031691,109428711,0.37,0.35,-17.74,-17.74,345.24,345.25,0.0,0.0
1630604833.30027699,109528671,0.38,0.38,-17.76,-17.78,345.24,345.25,0.0,0.0
1630604833.40023708,109628631,0.39,0.4,-17.73,-17.78,345.25,345.25,0.0,0.0
1630604833.50019693,109728591,0.37,0.4,-17.71,-17.74,345.25,345.26,0.0,0.0
1630604833.60015702,109828551,0.36,0.38,-17.72,-17.73,345.25,345.26,0.0,0.0
1630604833.70011687,109928511,0.36,0.36,-17.76,-17.75,345.25,345.26,0.0,0.0
1630604833.80007696,110028471,0.36,0.35,-17.81,-17.79,345.25,345.26,0.0,0.0
1630604833.90003705,110128431,0.37,0.36,-17.86,-17.84,345.25,345.26,0.0,0.0
1630604833.99999690,110228391,0.39,0.38,-17.91,-17.9,345.25,345.26,0.0,0.0
1630604834.09995699,110328351,0.38,0.38,-17.93,-17.95,345.25,345.26,0.0,0.0
1630604834.19991708,110428311,0.37,0.38,-17.93,-17.97,345.25,345.26,0.0,0.0
1630604834.29987693,110528271,0.37,0.37,-17.92,-17.96,345.25,345.26,0.0,0.0
1630604834.39983702,110628231,0.36,0.35,-17.92,-17.94,345.25,345.26,0.0,0.0
1630604834.49979687,110728191,0.34,0.33,-17.94,-17.94,345.25,345.26,0.0,0.0
1630604834.60058999,110828984,0.32,0.31,-17.95,-17.94,345.25,345.26,0.0,0.0
1630604834.70055008,110928944,0.31,0.3,-17.94,-17.94,345.24,345.26,0.0,0.0
1630604834.80050993,111028904,0.31,0.29,-17.92,-17.94,345.24,345.26,0.0,0.0
1630604834.90047002,111128864,0.32,0.3,-17.93,-17.95,345.24,345.25,0.0,0.0
1630604835.00042987,111228824,0.35,0.32,-17.95,-17.96,345.24,345.25,0.0,0.0
1630604835.10038996,111328784,0.36,0.35,-17.97,-17.98,345.24,345.24,0.0,0.0
1630604835.20035005,111428744,0.37,0.37,-17.97,-17.99,345.24,345.24,0.0,0.0
1630604835.30030990,111528704,0.34,0.36,-17.97,-17.99,345.24,345.24,0.0,0.0
1630604835.40026999,111628664,0.32,0.33,-17.97,-17.99,345.24,345.23,0.0,0.0
1630604835.50023007,111728624,0.33,0.32,-17.98,-17.99,345.23,345.23,0.0,0.0
1630604835.60018992,111828584,0.35,0.33,-17.98,-17.99,345.23,345.23,0.0,0.0
1630604835.70015001,111928544,0.36,0.34,-17.99,-18.0,345.24,345.23,0.0,0.0
1630604835.80010986,112028504,0.35,0.35,-18.02,-18.02,345.24,345.24,0.0,0.0
1630604835.90006995,112128464,0.36,0.35,-18.04,-18.04,345.24,345.24,0.0,0.0
1630604836.00003004,112228424,0.39,0.37,-18.04,-18.06,345.24,345.24,0.0,0.0
1630604836.09998989,112328384,0.4,0.4,-18.02,-18.04,345.24,345.24,0.0,0.0
1630604836.19994998,112428344,0.41,0.41,-18.02,-18.03,345.24,345.24,0.0,0.0
1630604836.29991007,112528304,0.41,0.43,-18.05,-18.04,345.25,345.25,0.0,0.0
1630604836.39986992,112628264,0.39,0.42,-18.07,-18.06,345.25,345.25,0.0,0.0
1630604836.49983001,112728224,0.36,0.39,-18.08,-18.07,345.25,345.25,0.0,0.0
1630604836.59978986,112828184,0.34,0.35,-18.08,-18.08,345.25,345.25,0.0,0.0
1630604836.70058298,112928977,0.35,0.34,-18.07,-18.08,345.25,345.25,0.0,0.0
1630604836.80054307,113028937,0.36,0.33,-18.07,-18.09,345.25,345.25,0.0,0.0
1630604836.90050292,113128897,0.39,0.36,-18.08,-18.08,345.25,345.25,0.0,0.0
1630604837.00046301,113228857,0.41,0.38,-18.07,-18.09,345.25,345.25,0.0,0.0
1630604837.10042286,113328817,0.41,0.41,-18.07,-18.08,345.26,345.25,0.0,0.0
1630604837.20038295,113428777,0.39,0.4,-18.07,-18.07,345.26,345.26,0.0,0.0
1630604837.30034304,113528737,0.37,0.38,-18.08,-18.07,345.26,345.26,0.0,0.0
1630604837.40030289,113628697,0.34,0.35,-18.07,-18.08,345.26,345.26,0.0,0.0
1630604837.50026298,113728657,0.33,0.33,-18.05,-18.07,345.26,345.27,0.0,0.0
1630604837.60022306,113828617,0.35,0.32,-18.05,-18.06,345.26,345.27,0.0,0.0
1630604837.70018291,113928577,0.39,0.34,-18.05,-18.06,345.26,345.28,0.0,0.0
1630604837.80014300,114028537,0.42,0.38,-18.05,-18.07,345.27,345.28,0.0,0.0
1630604837.90010285,114128497,0.42,0.4,-18.07,-18.07,345.27,345.29,0.0,0.0
1630604838.00006294,114228457,0.44,0.42,-18.11,-18.1,345.27,345.29,0.0,0.0
1630604838.10002303,114328417,0.46,0.45,-18.13,-18.13,345.28,345.28,0.0,0.0
1630604838.19998288,114428377,0.47,0.46,-18.15,-18.16,345.28,345.28,0.0,0.0
1630604838.29994297,114528337,0.48,0.47,-18.18,-18.18,345.29,345.28,0.0,0.0
1630604838.39990306,114628297,0.48,0.48,-18.19,-18.2,345.29,345.28,0.0,0.0
1630604838.49986291,114728257,0.47,0.47,-18.19,-18.21,345.3,345.29,0.0,0.0
1630604838.59982300,114828217,0.43,0.45,-18.18,-18.2,345.3,345.29,0.0,0.0
1630604838.69978309,114928177,0.41,0.41,-18.15,-18.17,345.3,345.3,0.0,0.0
1630604838.80057597,115028970,0.4,0.39,-18.13,-18.15,345.31,345.3,0.0,0.0
1630604838.90053606,115128930,0.4,0.38,-18.14,-18.13,345.31,345.31,0.0,0.0
1630604839.00049591,115228890,0.41,0.39,-18.15,-18.14,345.31,345.31,0.0,0.0
1630604839.10045600,115328850,0.44,0.41,-18.16,-18.16,345.31,345.32,0.0,0.0
1630604839.20041585,115428810,0.46,0.44,-18.17,-18.17,345.31,345.32,0.0,0.0
1630604839.30037594,115528770,0.47,0.46,-18.18,-18.19,345.31,345.32,0.0,0.0
1630604839.40033603,115628730,0.44,0.45,-18.19,-18.2,345.31,345.32,0.0,0.0
1630604839.50029588,115728690,0.41,0.43,-18.18,-18.2,345.32,345.32,0.0,0.0
1630604839.60025597,115828650,0.42,0.41,-18.17,-18.19,345.32,345.32,0.0,0.0
1630604839.70021605,115928610,0.44,0.41,-18.17,-18.18,345.32,345.32,0.0,0.0
1630604839.80017591,116028570,0.45,0.43,-18.17,-18.18,345.32,345.32,0.0,0.0
1630604839.90013599,116128530,0.43,0.42,-18.2,-18.19,345.32,345.32,0.0,0.0
1630604840.00009608,116228490,0.44,0.42,-18.23,-18.22,345.32,345.32,0.0,0.0
1630604840.10005593,116328450,0.43,0.43,-18.22,-18.24,345.32,345.32,0.0,0.0
1630604840.20001602,116428410,0.42,0.41,-18.2,-18.23,345.32,345.32,0.0,0.0
1630604840.29997587,116528370,0.4,0.4,-18.2,-18.21,345.32,345.32,0.0,0.0
1630604840.39993596,116628330,0.42,0.4,-18.2,-18.22,345.32,345.32,0.0,0.0
1630604840.49989605,116728290,0.44,0.42,-18.19,-18.23,345.32,345.32,0.0,0.0
1630604840.59985590,116828250,1.71,0.99,-18.71,-18.45,345.32,345.31,0.0,0.0
1630604840.69981599,116928210,2.66,2.25,-19.1,-18.95,345.32,345.3,0.0,0.0
1630604840.79977608,117028170,2.54,2.86,-19.06,-19.2,345.32,345.3,0.0,0.01
1630604840.90056896,117128963,2.0,2.68,-18.82,-19.12,345.31,345.31,0.0,0.01
1630604841.00052905,117228923,1.42,2.02,-18.59,-18.85,345.28,345.33,0.0,0.0
1630604841.10048890,117328883,1.01,1.3,-18.46,-18.58,345.23,345.33,0.0,0.0
1630604841.20044899,117428843,0.83,0.79,-18.42,-18.41,345.18,345.31,0.0,0.0
1630604841.30040908,117528803,0.82,0.56,-18.4,-18.33,345.13,345.27,0.0,0.0
1630604841.40036893,117628763,0.92,0.59,-18.42,-18.32,345.07,345.21,0.0,0.0
1630604841.50032902,117728723,1.04,0.76,-18.47,-18.38,345.02,345.14,0.0,0.0
1630604841.60028887,117828683,1.11,0.95,-18.51,-18.46,344.97,345.05,0.0,0.0
1630604841.70024896,117928643,1.12,1.07,-18.53,-18.52,344.91,344.97,0.0,0.0
1630604841.80020905,118028603,1.1,1.13,-18.52,-18.54,344.86,344.88,0.0,0.0
1630604841.90016890,118128563,1.06,1.11,-18.48,-18.53,344.8,344.8,0.0,0.0
1630604842.00012898,118228523,1.03,1.07,-18.44,-18.49,344.75,344.72,0.0,0.0
1630604842.10008907,118328483,1.01,1.03,-18.41,-18.44,344.69,344.66,0.0,0.0
1630604842.20004892,118428443,1.01,1.01,-18.39,-18.4,344.64,344.6,0.0,0.0
1630604842.30000901,118528403,1.01,1.0,-18.41,-18.39,344.58,344.55,0.0,0.0
1630604842.39996886,118628363,1.0,0.99,-18.44,-18.41,344.53,344.5,0.0,0.0
1630604842.49992895,118728323,0.99,0.98,-18.45,-18.44,344.48,344.45,0.0,0.0
1630604842.59988904,118828283,0.97,0.97,-18.45,-18.46,344.42,344.41,0.0,0.0
1630604842.69984889,118928243,0.97,0.96,-18.45,-18.47,344.37,344.37,0.0,0.0
1630604842.79980898,119028203,0.95,0.95,-18.47,-18.48,344.32,344.32,0.0,0.0
1630604842.89976907,119128163,0.91,0.92,-18.47,-18.49,344.26,344.27,0.0,0.0
1630604843.00056195,119228956,0.89,0.88,-18.47,-18.5,344.21,344.22,0.0,0.0
1630604843.10052204,119328916,0.91,0.87,-18.42,-18.47,344.16,344.17,0.0,0.0
1630604843.20048189,119428876,0.96,0.9,-18.37,-18.41,344.11,344.12,0.0,0.0
1630604843.30044198,119528836,1.02,0.96,-18.38,-18.38,344.06,344.07,0.0,0.0
1630604843.40040207,119628796,1.03,1.01,-18.4,-18.39,344.02,344.02,0.0,0.0
1630604843.50036192,119728756,1.03,1.03,-18.41,-18.41,343.98,343.97,0.0,0.0
1630604843.60032201,119828716,1.03,1.03,-18.37,-18.39,343.93,343.93,0.0,0.0
1630604843.70028186,119928676,1.04,1.04,-18.36,-18.37,343.89,343.88,0.0,0.0
1630604843.80024195,120028636,1.06,1.05,-18.37,-18.36,343.86,343.84,0.0,0.0
1630604843.90020204,120128596,1.06,1.06,-18.4,-18.38,343.82,343.8,0.0,0.0
1630604844.00016189,120228556,1.04,1.05,-18.43,-18.42,343.78,343.77,0.0,0.0
1630604844.10012197,120328516,1.03,1.03,-18.43,-18.45,343.75,343.73,0.0,0.0
1630604844.20008206,120428476,1.05,1.03,-18.41,-18.44,343.71,343.7,0.0,0.0
1630604844.30004191,120528436,1.08,1.06,-18.37,-18.4,343.68,343.67,0.0,0.0
1630604844.40000200,120628396,1.11,1.1,-18.36,-18.36,343.65,343.64,0.0,0.0
1630604844.49996185,120728356,1.1,1.11,-18.39,-18.36,343.62,343.61,0.0,0.0
1630604844.59992194,120828316,1.08,1.1,-18.41,-18.4,343.59,343.58,0.0,0.0
1630604844.69988203,120928276,1.07,1.08,-18.41,-18.42,343.56,343.55,0.0,0.0
1630604844.79984188,121028236,1.1,1.09,-18.43,-18.44,343.53,343.53,0.0,0.0
1630604844.89980197,121128196,1.1,1.09,-18.43,-18.45,343.51,343.5,0.0,0.0
1630604844.99976206,121228156,1.07,1.07,-18.41,-18.45,343.48,343.48,0.0,0.0
1630604845.10055494,121328949,1.05,1.06,-18.37,-18.42,343.46,343.46,0.0,0.0
1630604845.20051503,121428909,1.05,1.04,-18.35,-18.38,343.44,343.43,0.0,0.0
1630604845.30047488,121528869,1.07,1.04,-18.35,-18.35,343.41,343.41,0.0,0.0
1630604845.40043497,121628829,1.1,1.06,-18.36,-18.35,343.39,343.39,0.0,0.0
1630604845.50039506,121728789,1.14,1.1,-18.39,-18.37,343.37,343.36,0.0,0.0
1630604845.60035491,121828749,1.17,1.16,-18.42,-18.41,343.35,343.34,0.0,0.0
1630604845.70031500,121928709,1.16,1.17,-18.45,-18.45,343.34,343.32,0.0,0.0
1630604845.80027509,122028669,1.15,1.17,-18.47,-18.48,343.32,343.31,0.0,0.0
1630604845.90023494,122128629,1.13,1.15,-18.47,-18.5,343.3,343.29,0.0,0.0
1630604846.00019503,122228589,1.09,1.12,-18.46,-18.5,343.28,343.28,0.0,0.0
1630604846.10015488,122328549,1.08,1.09,-18.43,-18.48,343.27,343.27,0.0,0.0
1630604846.20011497,122428509,1.1,1.08,-18.37,-18.42,343.25,343.25,0.0,0.0
1630604846.30007505,122528469,1.13,1.09,-18.33,-18.35,343.24,343.24,0.0,0.0
1630604846.40003490,122628429,1.16,1.13,-18.33,-18.31,343.22,343.23,0.0,0.0
1630604846.49999499,122728389,1.16,1.15,-18.37,-18.33,343.21,343.21,0.0,0.0
1630604846.59995508,122828349,1.16,1.16,-18.44,-18.39,343.2,343.2,0.0,0.0
1630604846.69991493,122928309,1.14,1.16,-18.49,-18.47,343.19,343.19,0.0,0.0
1630604846.79987502,123028269,1.1,1.12,-18.5,-18.52,343.18,343.17,0.0,0.0
1630604846.89983487,123128229,1.12,1.1,-18.49,-18.53,343.17,343.16,0.0,0.0
1630604846.99979496,123228189,1.15,1.12,-18.45,-18.5,343.16,343.15,0.0,0.0
1630604847.10058808,123328982,1.17,1.15,-18.44,-18.46,343.15,343.14,0.0,0.0
1630604847.20054793,123428942,1.18,1.17,-18.44,-18.45,343.14,343.13,0.0,0.0
1630604847.30050802,123528902,1.21,1.2,-18.44,-18.44,343.13,343.13,0.0,0.0
1630604847.40046787,123628862,1.25,1.23,-18.45,-18.45,343.13,343.12,0.0,0.0
1630604847.50042796,123728822,1.25,1.26,-18.45,-18.46,343.12,343.11,0.0,0.0
1630604847.60038805,123828782,1.22,1.24,-18.44,-18.46,343.11,343.1,0.0,0.0
1630604847.70034790,123928742,1.18,1.21,-18.42,-18.45,343.11,343.1,0.0,0.0
1630604847.80030799,124028702,1.16,1.18,-18.42,-18.45,343.1,343.1,0.0,0.0
1630604847.90026808,124128662,1.15,1.15,-18.4,-18.42,343.09,343.09,0.0,0.0
1630604848.00022793,124228622,1.16,1.15,-18.4,-18.41,343.08,343.09,0.0,0.0
1630604848.10018802,124328582,1.16,1.15,-18.42,-18.42,343.08,343.08,0.0,0.0
1630604848.20014787,124428542,1.16,1.15,-18.42,-18.43,343.07,343.07,0.0,0.0
1630604848.30010796,124528502,1.18,1.15,-18.4,-18.43,343.06,343.06,0.0,0.0
1630604848.40006804,124628462,1.19,1.17,-18.39,-18.41,343.06,343.05,0.0,0.0
1630604848.50002789,124728422,1.23,1.2,-18.37,-18.39,343.05,343.05,0.0,0.0
1630604848.59998798,124828382,1.27,1.25,-18.37,-18.37,343.05,343.04,0.0,0.0
1630604848.69994807,124928342,1.28,1.28,-18.36,-18.36,343.04,343.03,0.0,0.0
1630604848.79990792,125028302,1.27,1.28,-18.37,-18.37,343.04,343.03,0.0,0.0
1630604848.89986801,125128262,1.26,1.26,-18.37,-18.37,343.04,343.03,0.0,0.0
1630604848.99982786,125228222,1.25,1.24,-18.39,-18.39,343.04,343.03,0.0,0.0
1630604849.09978795,125328182,1.24,1.22,-18.39,-18.4,343.03,343.03,0.0,0.0
1630604849.20058107,125428975,1.22,1.21,-18.38,-18.41,343.03,343.03,0.0,0.0
1630604849.30054092,125528935,1.21,1.19,-18.37,-18.39,343.02,343.03,0.0,0.0
1630604849.40050101,125628895,1.22,1.19,-18.36,-18.37,343.02,343.02,0.0,0.0
1630604849.50046086,125728855,1.25,1.21,-18.34,-18.36,343.02,343.02,0.0,0.0
1630604849.60042095,125828815,1.27,1.24,-18.33,-18.35,343.01,343.02,0.0,0.0
1630604849.70038104,125928775,1.27,1.26,-18.35,-18.35,343.01,343.01,0.0,0.0
1630604849.80034089,126028735,1.27,1.26,-18.37,-18.37,343.01,343.01,0.0,0.0
1630604849.90030098,126128695,1.27,1.27,-18.38,-18.39,343.0,343.0,0.0,0.0
1630604850.00026107,126228655,1.28,1.27,-18.38,-18.4,343.0,342.99,0.0,0.0
1630604850.10022092,126328615,1.27,1.28,-18.39,-18.41,343.0,342.98,0.0,0.0
1630604850.20018101,126428575,1.26,1.27,-18.39,-18.41,342.99,342.98,0.0,0.0
1630604850.30014086,126528535,1.23,1.24,-18.4,-18.41,342.99,342.97,0.0,0.0
1630604850.40010095,126628495,1.18,1.19,-18.43,-18.43,342.98,342.97,0.0,0.0
1630604850.50006104,126728455,1.17,1.16,-18.44,-18.45,342.98,342.97,0.0,0.0
1630604850.60002089,126828415,1.2,1.16,-18.43,-18.45,342.97,342.96,0.0,0.0
1630604850.69998097,126928375,1.22,1.18,-18.43,-18.45,342.97,342.96,0.0,0.0
1630604850.79994106,127028335,1.24,1.21,-18.44,-18.45,342.96,342.95,0.0,0.0
1630604850.89990091,127128295,1.24,1.23,-18.46,-18.46,342.96,342.95,0.0,0.0
1630604850.99986100,127228255,1.2,1.22,-18.48,-18.48,342.95,342.94,0.0,0.0
1630604851.09982085,127328215,1.18,1.19,-18.48,-18.49,342.95,342.94,0.0,0.0
1630604851.19978094,127428175,1.19,1.18,-18.43,-18.47,342.95,342.94,0.0,0.0
1630604851.30057406,127528968,1.19,1.18,-18.38,-18.42,342.94,342.94,0.0,0.0
1630604851.40053391,127628928,1.18,1.18,-18.36,-18.38,342.94,342.94,0.0,0.0
1630604851.50049400,127728888,1.17,1.17,-18.38,-18.37,342.93,342.94,0.0,0.0
1630604851.60045385,127828848,1.17,1.17,-18.41,-18.4,342.93,342.93,0.0,0.0
1630604851.70041394,127928808,1.18,1.16,-18.43,-18.43,342.92,342.92,0.0,0.0
1630604851.80037403,128028768,1.19,1.18,-18.41,-18.43,342.92,342.92,0.0,0.0
1630604851.90033388,128128728,1.2,1.19,-18.41,-18.42,342.92,342.91,0.0,0.0
1630604852.00029397,128228688,1.21,1.21,-18.42,-18.43,342.92,342.91,0.0,0.0
1630604852.10025406,128328648,1.19,1.2,-18.42,-18.43,342.91,342.9,0.0,0.0
1630604852.20021391,128428608,1.19,1.2,-18.42,-18.44,342.91,342.9,0.0,0.0
1630604852.30017400,128528568,1.22,1.2,-18.42,-18.44,342.91,342.89,0.0,0.0
1630604852.40013409,128628528,1.23,1.2,-18.39,-18.44,342.91,342.89,0.0,0.0
1630604852.50009394,128728488,1.25,1.21,-18.37,-18.41,342.91,342.89,0.0,0.0
1630604852.60005403,128828448,1.3,1.25,-18.34,-18.37,342.91,342.9,0.0,0.0
1630604852.70001388,128928408,1.31,1.3,-18.34,-18.34,342.91,342.9,0.0,0.0
1630604852.79997396,129028368,1.29,1.31,-18.33,-18.34,342.92,342.9,0.0,0.0
1630604852.89993405,129128328,1.25,1.28,-18.35,-18.34,342.92,342.9,0.0,0.0
1630604852.99989390,129228288,1.25,1.26,-18.36,-18.35,342.92,342.91,0.0,0.0
1630604853.09985399,129328248,1.24,1.24,-18.34,-18.34,342.92,342.91,0.0,0.0
1630604853.19981408,129428208,1.23,1.23,-18.34,-18.33,342.92,342.92,0.0,0.0
1630604853.29977393,129528168,1.22,1.22,-18.38,-18.36,342.92,342.92,0.0,0.0
1630604853.40056705,129628961,1.23,1.22,-18.4,-18.39,342.92,342.92,0.0,0.0
1630604853.50052691,129728921,1.25,1.24,-18.43,-18.42,342.92,342.92,0.0,0.0
1630604853.60048699,129828881,1.24,1.24,-18.44,-18.44,342.92,342.92,0.0,0.0
1630604853.70044708,129928841,1.21,1.21,-18.43,-18.44,342.92,342.92,0.0,0.0
1630604853.80040693,130028801,1.18,1.17,-18.43,-18.44,342.92,342.92,0.0,0.0
1630604853.90036702,130128761,1.2,1.16,-18.42,-18.44,342.92,342.92,0.0,0.0
1630604854.00032687,130228721,1.23,1.19,-18.41,-18.43,342.92,342.91,0.0,0.0
1630604854.10028696,130328681,1.23,1.2,-18.41,-18.43,342.92,342.91,0.0,0.0
1630604854.20024705,130428641,1.24,1.22,-18.41,-18.43,342.92,342.91,0.0,0.0
1630604854.30020690,130528601,1.24,1.24,-18.41,-18.43,342.92,342.9,0.0,0.0
1630604854.40016699,130628561,1.22,1.23,-18.43,-18.43,342.92,342.9,0.0,0.0
1630604854.50012708,130728521,1.2,1.22,-18.45,-18.45,342.92,342.91,0.0,0.0
1630604854.60008693,130828481,1.19,1.2,-18.45,-18.46,342.91,342.91,0.0,0.0
1630604854.70004702,130928441,1.19,1.19,-18.44,-18.46,342.91,342.91,0.0,0.0
1630604854.80000687,131028401,1.19,1.18,-18.4,-18.43,342.91,342.91,0.0,0.0
1630604854.89996696,131128361,1.19,1.18,-18.36,-18.38,342.91,342.91,0.0,0.0
1630604854.99992704,131228321,1.18,1.17,-18.35,-18.35,342.91,342.91,0.0,0.0
1630604855.09988689,131328281,1.16,1.16,-18.36,-18.34,342.91,342.91,0.0,0.0
1630604855.19984698,131428241,1.14,1.14,-18.4,-18.37,342.91,342.91,0.0,0.0
1630604855.29980707,131528201,1.17,1.13,-18.45,-18.42,342.91,342.91,0.0,0.0
1630604855.39976692,131628161,1.22,1.18,-18.48,-18.47,342.91,342.91,0.0,0.0
1630604855.50056005,131728954,1.24,1.22,-18.46,-18.49,342.91,342.91,0.0,0.0
1630604855.60051990,131828914,1.24,1.25,-18.37,-18.44,342.92,342.91,0.0,0.0
1630604855.70047998,131928874,1.22,1.25,-18.29,-18.35,342.92,342.91,0.0,0.0
1630604855.80044007,132028834,1.21,1.22,-18.28,-18.3,342.92,342.92,0.0,0.0
1630604855.90039992,132128794,1.2,1.2,-18.28,-18.27,342.93,342.92,0.0,0.0
