timestamp,TimeUS,DesRoll,Roll,DesPitch,Pitch,DesYaw,Yaw,ErrRP,ErrYaw
1630623973.40000010,42628775,0.0,0.1,0.0,0.08,352.88,352.89,0.0,0.0
1630623973.49996018,42728735,0.0,0.1,0.0,0.09,352.88,352.89,0.0,0.0
1630623973.59992027,42828695,0.0,0.1,0.0,0.08,352.88,352.89,0.0,0.0
1630623973.69988012,42928655,0.0,0.1,0.0,0.08,352.88,352.89,0.0,0.0
1630623973.79984021,43028615,0.0,0.1,0.0,0.08,352.87,352.88,0.0,0.0
1630623973.89980030,43128575,0.0,0.1,0.0,0.08,352.87,352.88,0.0,0.0
1630623973.99976015,43228535,0.0,0.1,0.0,0.08,352.87,352.88,0.0,0.0
1630623974.09972024,43328495,0.0,0.1,0.0,0.08,352.87,352.88,0.0,0.0
1630623974.19968033,43428455,0.0,0.1,0.0,0.08,352.87,352.88,0.0,0.0
1630623974.29964018,43528415,0.0,0.1,0.0,0.08,352.87,352.88,0.0,0.0
1630623974.39960027,43628375,0.0,0.1,0.0,0.08,352.87,352.88,0.0,0.0
1630623974.49956012,43728335,0.0,0.1,0.0,0.08,352.87,352.88,0.0,0.0
1630623974.59952021,43828295,0.0,0.1,0.0,0.08,352.87,352.88,0.0,0.0
1630623974.69948030,43928255,0.0,0.1,0.0,0.08,352.87,352.88,0.0,0.0
1630623974.79944015,44028215,0.0,0.1,0.0,0.08,352.87,352.88,0.0,0.0
1630623974.89940023,44128175,0.0,0.1,0.0,0.08,352.87,352.88,0.0,0.0
1630623975.00019312,44228968,0.0,0.09,0.0,0.08,352.87,352.88,0.0,0.0
1630623975.10015321,44328928,0.0,0.09,0.0,0.08,352.87,352.88,0.0,0.0
1630623975.20011330,44428888,0.0,0.09,0.0,0.07,352.87,352.88,0.0,0.0
1630623975.30007315,44528848,0.0,0.09,0.0,0.07,352.87,352.88,0.0,0.0
1630623975.40003324,44628808,0.0,0.09,0.0,0.07,352.87,352.88,0.0,0.0
1630623975.49999332,44728768,0.0,0.09,0.0,0.07,352.87,352.88,0.0,0.0
1630623975.59995317,44828728,0.0,0.09,0.0,0.07,352.87,352.88,0.0,0.0
1630623975.69991326,44928688,0.0,0.09,0.0,0.07,352.87,352.88,0.0,0.0
1630623975.79987311,45028648,0.0,0.09,0.0,0.07,352.87,352.88,0.0,0.0
1630623975.89983320,45128608,0.0,0.09,0.0,0.07,352.87,352.88,0.0,0.0
1630623975.99979329,45228568,0.0,0.09,0.0,0.07,352.87,352.88,0.0,0.0
1630623976.09975314,45328528,0.0,0.09,0.0,0.07,352.87,352.88,0.0,0.0
1630623976.19971323,45428488,0.0,0.09,0.0,0.07,352.87,352.88,0.0,0.0
1630623976.29967332,45528448,0.0,0.09,0.0,0.07,352.87,352.88,0.0,0.0
1630623976.39963317,45628408,0.0,0.08,0.0,0.07,352.87,352.88,0.0,0.0
1630623976.49959326,45728368,0.0,0.08,0.0,0.07,352.87,352.88,0.0,0.0
1630623976.59955311,45828328,0.0,0.08,0.0,0.07,352.87,352.88,0.0,0.0
1630623976.69951320,45928288,0.0,0.08,0.0,0.07,352.87,352.88,0.0,0.0
1630623976.79947329,46028248,0.0,0.08,0.0,0.07,352.87,352.88,0.0,0.0
1630623976.89943314,46128208,0.0,0.08,0.0,0.07,352.87,352.88,0.0,0.0
1630623976.99939322,46228168,0.0,0.08,0.0,0.07,352.87,352.88,0.0,0.0
1630623977.10018611,46328961,0.0,0.08,0.0,0.07,352.87,352.88,0.0,0.0
1630623977.20014620,46428921,0.0,0.08,0.0,0.07,352.87,352.88,0.0,0.0
1630623977.30010629,46528881,0.0,0.08,0.0,0.07,352.87,352.88,0.0,0.0
1630623977.40006614,46628841,0.0,0.08,0.0,0.07,352.87,352.88,0.0,0.0
1630623977.50002623,46728801,0.0,0.08,0.0,0.06,352.87,352.88,0.0,0.0
1630623977.59998631,46828761,0.0,0.08,0.0,0.06,352.87,352.88,0.0,0.0
1630623977.69994617,46928721,0.0,0.08,0.0,0.06,352.87,352.88,0.0,0.0
1630623977.79990625,47028681,0.0,0.08,0.0,0.06,352.87,352.88,0.0,0.0
1630623977.89986610,47128641,0.0,0.08,0.0,0.06,352.87,352.88,0.0,0.0
1630623977.99982619,47228601,0.0,0.08,0.0,0.06,352.87,352.88,0.0,0.0
1630623978.09978628,47328561,0.0,0.08,0.0,0.06,352.87,352.88,0.0,0.0
1630623978.19974613,47428521,0.0,0.08,0.0,0.06,352.87,352.88,0.0,0.0
1630623978.29970622,47528481,0.0,0.08,0.0,0.06,352.87,352.88,0.0,0.0
1630623978.39966631,47628441,0.0,0.08,0.0,0.06,352.87,352.88,0.0,0.0
1630623978.49962616,47728401,0.0,0.08,0.0,0.06,352.87,352.88,0.0,0.0
1630623978.59958625,47828361,0.0,0.08,0.0,0.06,352.87,352.88,0.0,0.0
1630623978.69954610,47928321,0.0,0.08,0.0,0.06,352.87,352.88,0.0,0.0
1630623978.79950619,48028281,0.0,0.08,0.0,0.06,352.87,352.88,0.0,0.0
1630623978.89946628,48128241,0.0,0.08,0.0,0.06,352.88,352.89,0.0,0.0
1630623978.99942613,48228201,0.0,0.08,0.0,0.06,352.88,352.89,0.0,0.0
1630623979.09938622,48328161,0.0,0.08,0.0,0.06,352.88,352.89,0.0,0.0
1630623979.20017910,48428954,0.0,0.08,0.0,0.06,352.88,352.89,0.0,0.0
1630623979.30013919,48528914,0.0,0.08,0.0,0.06,352.88,352.89,0.0,0.0
1630623979.40009928,48628874,-0.03,0.08,-0.03,0.06,352.88,352.89,0.0,0.0
1630623979.50005913,48728834,-0.07,0.08,-0.07,0.07,352.88,352.89,0.0,0.0
1630623979.60001922,48828794,-0.07,0.08,-0.08,0.07,352.88,352.89,0.0,0.0
1630623979.69997931,48928754,-0.13,0.08,-0.14,0.07,352.88,352.89,0.0,0.0
1630623979.79993916,49028714,-0.18,0.08,-0.19,0.07,352.88,352.89,0.0,0.0
1630623979.89989924,49128674,-0.23,0.08,-0.23,0.07,352.88,352.89,0.0,0.0
1630623979.99985933,49228634,-0.26,0.08,-0.26,0.07,352.88,352.89,0.0,0.0
1630623980.09981918,49328594,-0.29,0.08,-0.29,0.07,352.88,352.89,0.0,0.0
1630623980.19977927,49428554,-0.33,0.08,-0.32,0.07,352.88,352.89,0.0,0.0
1630623980.29973912,49528514,-0.35,0.08,-0.34,0.07,352.88,352.89,0.0,0.0
1630623980.39969921,49628474,-0.36,0.08,-0.36,0.07,352.88,352.89,0.0,0.0
1630623980.49965930,49728434,-0.39,0.08,-0.36,0.07,352.88,352.89,0.0,0.0
1630623980.59961915,49828394,-0.42,0.08,-0.36,0.07,352.88,352.89,0.0,0.0
1630623980.69957924,49928354,-0.41,0.08,-0.39,0.07,352.88,352.89,0.0,0.0
1630623980.79953933,50028314,-0.4,0.08,-0.44,0.07,352.88,352.89,0.0,0.0
1630623980.89949918,50128274,-0.41,0.08,-0.48,0.07,352.88,352.89,0.0,0.0
1630623980.99945927,50228234,-0.45,0.01,-0.49,0.01,352.88,352.89,0.0,0.0
1630623981.09941912,50328194,-0.46,-0.27,-0.53,-0.27,352.88,352.89,0.0,0.0
1630623981.19937921,50428154,-0.43,-0.56,-0.55,-0.62,352.88,352.89,0.0,0.0
1630623981.30017233,50528947,-0.31,-0.71,-0.49,-0.84,352.88,352.89,0.0,0.0
1630623981.40013218,50628907,-0.15,-0.68,-0.32,-0.86,352.88,352.89,0.0,0.0
1630623981.50009227,50728867,0.04,-0.51,-0.08,-0.69,352.88,352.88,0.0,0.0
1630623981.60005212,50828827,0.23,-0.28,0.19,-0.39,352.88,352.88,0.0,0.0
1630623981.70001221,50928787,0.42,-0.02,0.41,-0.05,352.88,352.87,0.0,0.0
1630623981.79997230,51028747,0.51,0.19,0.49,0.19,352.88,352.87,0.0,0.0
1630623981.89993215,51128707,0.53,0.3,0.47,0.3,352.88,352.87,0.0,0.0
1630623981.99989223,51228667,0.52,0.33,0.41,0.28,352.88,352.87,0.0,0.0
1630623982.09985232,51328627,0.52,0.33,0.36,0.21,352.88,352.87,0.0,0.0
1630623982.19981217,51428587,0.48,0.3,0.34,0.14,352.88,352.87,0.0,0.0
1630623982.29977226,51528547,0.44,0.26,0.36,0.13,352.88,352.88,0.0,0.0
1630623982.39973211,51628507,0.41,0.22,0.38,0.14,352.88,352.88,0.0,0.0
1630623982.49969220,51728467,0.39,0.2,0.38,0.18,352.88,352.88,0.0,0.0
1630623982.59965229,51828427,0.38,0.2,0.39,0.21,352.88,352.89,0.0,0.0
1630623982.69961214,51928387,0.37,0.2,0.4,0.24,352.77,352.78,0.0,0.0
1630623982.79957223,52028347,0.35,0.2,0.41,0.28,352.77,352.79,0.0,0.0
1630623982.89953232,52128307,0.33,0.2,0.39,0.29,352.77,352.79,0.0,0.0
1630623982.99949217,52228267,0.29,0.19,0.34,0.27,352.77,352.79,0.0,0.0
1630623983.09945226,52328227,0.28,0.17,0.31,0.24,352.77,352.79,0.0,0.0
1630623983.19941211,52428187,0.28,0.17,0.29,0.21,352.77,352.79,0.0,0.0
1630623983.30020523,52528980,0.28,0.18,0.26,0.18,352.77,352.79,0.0,0.0
1630623983.40016532,52628940,0.24,0.18,0.22,0.15,352.77,352.78,0.0,0.0
1630623983.50012517,52728900,0.2,0.15,0.21,0.14,352.77,352.78,0.0,0.0
1630623983.60008526,52828860,0.19,0.13,0.21,0.13,352.77,352.78,0.0,0.0
1630623983.70004511,52928820,0.16,0.12,0.24,0.16,352.77,352.78,0.0,0.0
1630623983.80000520,53028780,0.13,0.1,0.25,0.19,352.77,352.78,0.0,0.0
1630623983.89996529,53128740,0.12,0.08,0.21,0.19,352.77,352.78,0.0,0.0
1630623983.99992514,53228700,0.1,0.06,0.17,0.15,352.77,352.78,0.0,0.0
1630623984.09988523,53328660,0.08,0.04,0.13,0.11,352.77,352.78,0.0,0.0
1630623984.19984531,53428620,0.06,0.02,0.1,0.06,352.77,352.78,0.0,0.0
1630623984.29980516,53528580,0.07,0.02,0.11,0.04,352.77,352.78,0.0,0.0
1630623984.39976525,53628540,0.06,0.02,0.15,0.07,352.77,352.78,0.0,0.0
1630623984.49972510,53728500,0.09,0.04,0.17,0.12,352.77,352.79,0.0,0.0
1630623984.59968519,53828460,0.11,0.07,0.19,0.16,352.77,352.79,0.0,0.0
1630623984.69964528,53928420,0.13,0.1,0.16,0.18,352.77,352.79,0.0,0.0
1630623984.79960513,54028380,0.13,0.12,0.12,0.15,352.77,352.79,0.0,0.0
1630623984.89956522,54128340,0.08,0.11,0.06,0.09,352.77,352.79,0.0,0.0
1630623984.99952531,54228300,0.02,0.06,0.01,0.02,352.77,352.79,0.0,0.0
1630623985.09948516,54328260,-0.01,0.0,-0.01,-0.02,352.77,352.79,0.0,0.0
1630623985.19944525,54428220,0.0,-0.04,0.01,-0.04,352.77,352.79,0.0,0.0
1630623985.29940510,54528180,0.02,-0.03,0.07,0.0,352.77,352.78,0.0,0.0
1630623985.40019822,54628973,0.04,0.0,0.09,0.04,352.77,352.78,0.0,0.0
1630623985.50015831,54728933,0.07,0.03,0.07,0.05,352.77,352.78,0.0,0.0
1630623985.60011816,54828893,0.11,0.07,0.05,0.05,352.77,352.78,0.0,0.0
1630623985.70007825,54928853,0.12,0.1,0.03,0.04,352.77,352.78,0.0,0.0
1630623985.80003810,55028813,0.11,0.12,0.02,0.02,352.77,352.78,0.0,0.0
1630623985.89999819,55128773,0.07,0.1,0.01,0.01,352.77,352.78,0.0,0.0
1630623985.99995828,55228733,0.03,0.07,-0.01,0.0,352.77,352.78,0.0,0.0
1630623986.09991813,55328693,0.02,0.04,0.01,0.0,352.77,352.78,0.0,0.0
1630623986.19987822,55428653,0.04,0.03,0.07,0.02,352.77,352.78,0.0,0.0
1630623986.29983830,55528613,0.08,0.06,0.08,0.06,352.77,352.78,0.0,0.0
1630623986.39979815,55628573,0.1,0.09,0.08,0.08,352.77,352.78,0.0,0.0
1630623986.49975824,55728533,0.09,0.11,0.06,0.08,352.77,352.77,0.0,0.0
1630623986.59971833,55828493,0.07,0.09,0.05,0.07,352.77,352.77,0.0,0.0
1630623986.69967818,55928453,0.07,0.07,0.05,0.05,352.77,352.77,0.0,0.0
1630623986.79963827,56028413,0.09,0.07,0.05,0.04,352.77,352.77,0.0,0.0
1630623986.89959812,56128373,0.11,0.08,0.06,0.04,352.77,352.78,0.0,0.0
1630623986.99955821,56228333,0.12,0.09,0.04,0.02,352.77,352.78,0.0,0.0
1630623987.09951830,56328293,0.13,0.11,0.04,0.02,352.77,352.78,0.0,0.0
1630623987.19947815,56428253,0.12,0.11,0.07,0.04,352.77,352.78,0.0,0.0
1630623987.29943824,56528213,0.12,0.11,0.09,0.07,352.77,352.78,0.0,0.0
1630623987.39939833,56628173,0.14,0.12,0.1,0.08,352.77,352.78,0.0,0.0
1630623987.50019121,56728966,0.16,0.14,0.1,0.1,352.77,352.78,0.0,0.0
1630623987.60015130,56828926,0.16,0.16,0.1,0.12,352.77,352.78,0.0,0.0
1630623987.70011115,56928886,0.14,0.15,0.11,0.12,352.77,352.78,0.0,0.0
1630623987.80007124,57028846,0.13,0.13,0.12,0.12,352.77,352.78,0.0,0.0
1630623987.90003133,57128806,0.11,0.11,0.14,0.13,352.77,352.78,0.0,0.0
1630623987.99999118,57228766,0.1,0.09,0.15,0.14,352.77,352.78,0.0,0.0
1630623988.09995127,57328726,0.11,0.09,0.18,0.16,352.77,352.78,0.0,0.0
1630623988.19991112,57428686,0.11,0.09,0.2,0.19,352.77,352.78,0.0,0.0
1630623988.29987121,57528646,0.09,0.08,0.22,0.21,352.77,352.78,0.0,0.0
1630623988.39983130,57628606,0.08,0.07,0.2,0.22,352.77,352.78,0.0,0.0
1630623988.49979115,57728566,0.11,0.09,0.21,0.21,352.77,352.78,0.0,0.0
1630623988.59975123,57828526,0.12,0.11,0.21,0.21,352.77,352.79,0.0,0.0
1630623988.69971132,57928486,0.12,0.12,0.19,0.2,352.77,352.79,0.0,0.0
1630623988.79967117,58028446,0.1,0.11,0.17,0.17,352.77,352.79,0.0,0.0
1630623988.89963126,58128406,0.07,0.08,0.13,0.13,352.77,352.79,0.0,0.0
1630623988.99959111,58228366,0.05,0.05,0.11,0.09,352.77,352.79,0.0,0.0
1630623989.09955120,58328326,0.03,0.02,0.11,0.08,352.77,352.79,0.0,0.0
1630623989.19951129,58428286,0.04,0.02,0.11,0.08,352.77,352.78,0.0,0.0
1630623989.29947114,58528246,0.05,0.03,0.12,0.09,352.77,352.78,0.0,0.0
1630623989.39943123,58628206,0.06,0.04,0.11,0.1,352.77,352.78,0.0,0.0
1630623989.49939132,58728166,0.07,0.05,0.11,0.1,352.77,352.78,0.0,0.0
1630623989.60018420,58828959,0.06,0.06,0.1,0.1,352.77,352.78,0.0,0.0
1630623989.70014429,58928919,0.07,0.06,0.05,0.08,352.77,352.78,0.0,0.0
1630623989.80010414,59028879,0.09,0.08,0.0,0.03,352.77,352.78,0.0,0.0
1630623989.90006423,59128839,0.11,0.11,-0.02,-0.01,352.77,352.78,0.0,0.0
1630623990.00002432,59228799,0.12,0.12,-0.03,-0.05,352.77,352.78,0.0,0.0
1630623990.09998417,59328759,0.14,0.13,0.0,-0.05,352.77,352.78,0.0,0.0
1630623990.19994426,59428719,0.14,0.14,0.03,-0.02,352.77,352.78,0.0,0.0
1630623990.29990411,59528679,0.13,0.14,0.03,0.0,352.77,352.78,0.0,0.0
1630623990.39986420,59628639,0.12,0.13,0.04,0.02,352.77,352.78,0.0,0.0
1630623990.49982429,59728599,0.09,0.11,0.02,0.03,352.77,352.78,0.0,0.0
1630623990.59978414,59828559,0.06,0.08,0.02,0.02,352.77,352.78,0.0,0.0
1630623990.69974422,59928519,0.07,0.05,0.01,0.01,352.77,352.78,0.0,0.0
1630623990.79970431,60028479,0.1,0.06,0.0,0.0,352.77,352.78,0.0,0.0
1630623990.89966416,60128439,0.09,0.08,-0.02,-0.01,352.77,352.78,0.0,0.0
1630623990.99962425,60228399,0.09,0.08,0.0,-0.01,352.77,352.78,0.0,0.0
1630623991.09958410,60328359,0.08,0.08,0.04,0.02,352.77,352.78,0.0,0.0
1630623991.19954419,60428319,0.08,0.07,0.07,0.06,352.77,352.78,0.0,0.0
1630623991.29950428,60528279,0.07,0.07,0.08,0.09,352.77,352.78,0.0,0.0
1630623991.39946413,60628239,0.07,0.06,0.05,0.09,352.77,352.78,0.0,0.0
1630623991.49942422,60728199,0.09,0.07,0.02,0.06,352.77,352.78,0.0,0.0
1630623991.59938431,60828159,0.13,0.08,0.04,0.03,352.77,352.78,0.0,0.0
1630623991.70017719,60928952,0.13,0.11,0.01,0.02,352.77,352.78,0.0,0.0
1630623991.80013728,61028912,0.11,0.11,0.01,0.0,352.77,352.78,0.0,0.0
1630623991.90009713,61128872,0.08,0.1,0.02,0.0,352.77,352.78,0.0,0.0
1630623992.00005722,61228832,0.1,0.09,0.05,0.02,352.77,352.78,0.0,0.0
1630623992.10001731,61328792,0.12,0.11,0.06,0.04,352.77,352.78,0.0,0.0
1630623992.19997716,61428752,0.13,0.13,0.07,0.05,352.77,352.78,0.0,0.0
1630623992.29993725,61528712,0.12,0.13,0.07,0.06,352.77,352.78,0.0,0.0
1630623992.39989710,61628672,0.12,0.12,0.06,0.07,352.77,352.78,0.0,0.0
1630623992.49985719,61728632,0.13,0.13,0.08,0.07,352.77,352.78,0.0,0.0
1630623992.59981728,61828592,0.13,0.13,0.1,0.09,352.77,352.78,0.0,0.0
1630623992.69977713,61928552,0.14,0.14,0.09,0.09,352.77,352.78,0.0,0.0
1630623992.79973722,62028512,0.14,0.14,0.05,0.07,352.77,352.78,0.0,0.0
1630623992.89969730,62128472,0.1,0.1,0.04,0.04,352.77,352.78,0.0,0.0
1630623992.99965715,62228432,0.1,0.07,0.06,0.03,352.77,352.78,0.0,0.0
1630623993.09961724,62328392,0.14,0.09,0.1,0.06,352.77,352.78,0.0,0.0
1630623993.19957733,62428352,0.16,0.12,0.13,0.09,352.77,352.78,0.0,0.0
1630623993.29953718,62528312,0.17,0.15,0.15,0.13,352.77,352.79,0.0,0.0
1630623993.39949727,62628272,0.14,0.16,0.13,0.15,352.77,352.79,0.0,0.0
1630623993.49945712,62728232,0.09,0.12,0.1,0.13,352.77,352.79,0.0,0.0
1630623993.59941721,62828192,0.07,0.09,0.08,0.09,352.77,352.79,0.0,0.0
1630623993.70021033,62928985,0.06,0.06,0.08,0.07,352.77,352.79,0.0,0.0
1630623993.80017018,63028945,0.06,0.04,0.09,0.06,352.77,352.79,0.0,0.0
1630623993.90013027,63128905,0.04,0.03,0.12,0.09,352.77,352.79,0.0,0.0
1630623994.00009012,63228865,0.04,0.02,0.13,0.11,352.77,352.79,0.0,0.0
1630623994.10005021,63328825,0.02,0.02,0.17,0.15,352.77,352.79,0.0,0.0
1630623994.20001030,63428785,0.03,0.02,0.22,0.19,352.77,352.78,0.0,0.0
1630623994.29997015,63528745,0.06,0.04,0.22,0.22,352.77,352.78,0.0,0.0
1630623994.39993024,63628705,0.07,0.05,0.21,0.22,352.77,352.78,0.0,0.0
1630623994.49989033,63728665,0.09,0.07,0.2,0.2,352.77,352.78,0.0,0.0
1630623994.59985018,63828625,0.1,0.08,0.19,0.19,352.77,352.78,0.0,0.0
1630623994.69981027,63928585,0.11,0.1,0.16,0.17,352.77,352.78,0.0,0.0
1630623994.79977012,64028545,0.1,0.1,0.15,0.14,352.77,352.78,0.0,0.0
1630623994.89973021,64128505,0.1,0.09,0.16,0.14,352.77,352.77,0.0,0.0
1630623994.99969029,64228465,0.09,0.09,0.15,0.14,352.77,352.77,0.0,0.0
1630623995.09965014,64328425,0.08,0.08,0.12,0.13,352.77,352.77,0.0,0.0
1630623995.19961023,64428385,0.08,0.08,0.1,0.1,352.77,352.77,0.0,0.0
1630623995.29957032,64528345,0.08,0.07,0.09,0.08,352.77,352.77,0.0,0.0
1630623995.39953017,64628305,0.1,0.08,0.08,0.07,352.77,352.78,0.0,0.0
1630623995.49949026,64728265,0.12,0.11,0.08,0.08,352.77,352.78,0.0,0.0
1630623995.59945011,64828225,0.12,0.12,0.07,0.07,352.77,352.78,0.0,0.0
1630623995.69941020,64928185,0.14,0.13,0.06,0.06,352.77,352.79,0.0,0.0
1630623995.80020332,65028978,0.14,0.14,0.06,0.05,352.77,352.79,0.0,0.0
1630623995.90016317,65128938,0.15,0.15,0.07,0.05,352.77,352.79,0.0,0.0
1630623996.00012326,65228898,0.17,0.16,0.08,0.06,352.77,352.79,0.0,0.0
1630623996.10008311,65328858,0.15,0.17,0.09,0.06,352.77,352.79,0.0,0.0
1630623996.20004320,65428818,0.09,0.13,0.13,0.1,352.77,352.79,0.0,0.0
1630623996.30000329,65528778,0.07,0.08,0.16,0.15,352.77,352.79,0.0,0.0
1630623996.39996314,65628738,0.06,0.04,0.16,0.18,352.77,352.78,0.0,0.0
1630623996.49992323,65728698,0.07,0.04,0.12,0.16,352.77,352.78,0.0,0.0
1630623996.59988332,65828658,0.08,0.05,0.1,0.13,352.77,352.78,0.0,0.0
1630623996.69984317,65928618,0.08,0.06,0.08,0.1,352.77,352.77,0.0,0.0
1630623996.79980326,66028578,0.09,0.08,0.04,0.06,352.77,352.77,0.0,0.0
1630623996.89976311,66128538,0.08,0.08,0.02,0.02,352.77,352.77,0.0,0.0
1630623996.99972320,66228498,0.06,0.05,0.01,0.0,352.77,352.77,0.0,0.0
1630623997.09968328,66328458,0.05,0.03,0.04,0.01,352.77,352.78,0.0,0.0
1630623997.19964314,66428418,0.07,0.03,0.07,0.02,352.77,352.78,0.0,0.0
1630623997.29960322,66528378,0.07,0.04,0.1,0.05,352.77,352.78,0.0,0.0
1630623997.39956331,66628338,0.09,0.05,0.11,0.09,352.77,352.78,0.0,0.0
1630623997.49952316,66728298,0.09,0.07,0.12,0.11,352.77,352.78,0.0,0.0
1630623997.59948325,66828258,0.09,0.08,0.12,0.12,352.77,352.78,0.0,0.0
1630623997.69944310,66928218,0.09,0.1,0.08,0.11,352.77,352.78,0.0,0.0
1630623997.79940319,67028178,0.08,0.09,0.05,0.07,352.77,352.78,0.0,0.0
1630623997.90019631,67128971,0.06,0.07,0.04,0.05,352.77,352.78,0.0,0.0
1630623998.00015616,67228931,0.06,0.05,0.08,0.06,352.77,352.78,0.0,0.0
1630623998.10011625,67328891,0.12,0.09,0.11,0.09,352.77,352.78,0.0,0.0
1630623998.20007610,67428851,0.18,0.14,0.13,0.12,352.77,352.78,0.0,0.0
1630623998.30003619,67528811,0.22,0.2,0.12,0.13,352.77,352.78,0.0,0.0
1630623998.39999628,67628771,0.2,0.22,0.12,0.12,352.77,352.79,0.0,0.0
1630623998.49995613,67728731,0.2,0.21,0.12,0.12,352.77,352.79,0.0,0.0
1630623998.59991622,67828691,0.19,0.2,0.11,0.11,352.77,352.79,0.0,0.0
1630623998.69987631,67928651,0.17,0.19,0.09,0.09,352.77,352.79,0.0,0.0
1630623998.79983616,68028611,0.14,0.16,0.12,0.09,352.77,352.79,0.0,0.0
1630623998.89979625,68128571,0.1,0.13,0.13,0.1,352.77,352.79,0.0,0.0
1630623998.99975610,68228531,0.1,0.1,0.14,0.12,352.77,352.79,0.0,0.0
1630623999.09971619,68328491,0.13,0.09,0.16,0.14,352.77,352.79,0.0,0.0
1630623999.19967628,68428451,0.17,0.12,0.16,0.15,352.77,352.79,0.0,0.0
1630623999.29963613,68528411,0.19,0.15,0.15,0.16,352.77,352.79,0.0,0.0
1630623999.39959621,68628371,0.19,0.18,0.14,0.15,352.77,352.79,0.0,0.0
1630623999.49955630,68728331,0.18,0.18,0.11,0.12,352.77,352.78,0.0,0.0
1630623999.59951615,68828291,0.14,0.16,0.07,0.08,352.77,352.78,0.0,0.0
1630623999.69947624,68928251,0.13,0.14,0.07,0.07,352.77,352.78,0.0,0.0
1630623999.79943633,69028211,0.13,0.13,0.1,0.08,352.77,352.78,0.0,0.0
1630623999.89939618,69128171,0.14,0.13,0.12,0.1,352.77,352.78,0.0,0.0
1630624000.00018930,69228964,0.15,0.14,0.12,0.11,352.77,352.77,0.0,0.0
1630624000.10014915,69328924,0.14,0.14,0.15,0.13,352.77,352.78,0.0,0.0
1630624000.20010924,69428884,0.1,0.12,0.16,0.16,352.77,352.78,0.0,0.0
1630624000.30006933,69528844,0.08,0.09,0.15,0.16,352.77,352.78,0.0,0.0
1630624000.40002918,69628804,0.1,0.09,0.14,0.14,352.77,352.78,0.0,0.0
1630624000.49998927,69728764,0.13,0.11,0.12,0.13,352.77,352.78,0.0,0.0
1630624000.59994912,69828724,0.14,0.13,0.11,0.12,352.77,352.78,0.0,0.0
1630624000.69990921,69928684,0.13,0.13,0.14,0.12,352.77,352.78,0.0,0.0
1630624000.79986930,70028644,0.09,0.1,0.14,0.13,352.77,352.78,0.0,0.0
1630624000.89982915,70128604,0.07,0.07,0.1,0.11,352.77,352.78,0.0,0.0
1630624000.99978924,70228564,0.09,0.07,0.08,0.08,352.77,352.78,0.0,0.0
1630624001.09974933,70328524,0.13,0.1,0.07,0.06,352.77,352.78,0.0,0.0
1630624001.19970918,70428484,0.14,0.13,0.06,0.04,352.77,352.78,0.0,0.0
1630624001.29966927,70528444,0.12,0.13,0.06,0.04,352.77,352.78,0.0,0.0
1630624001.39962912,70628404,0.1,0.12,0.09,0.06,352.77,352.79,0.0,0.0
1630624001.49958920,70728364,0.09,0.1,0.07,0.07,352.77,352.79,0.0,0.0
1630624001.59954929,70828324,0.08,0.08,0.05,0.05,352.77,352.79,0.0,0.0
1630624001.69950914,70928284,0.08,0.07,0.05,0.04,352.77,352.78,0.0,0.0
1630624001.79946923,71028244,0.09,0.07,0.06,0.04,352.77,352.78,0.0,0.0
1630624001.89942932,71128204,0.07,0.07,0.08,0.06,352.77,352.78,0.0,0.0
1630624001.99938917,71228164,0.04,0.05,0.07,0.06,352.77,352.78,0.0,0.0
1630624002.10018229,71328957,0.04,0.04,0.05,0.05,352.77,352.77,0.0,0.0
1630624002.20014215,71428917,0.07,0.04,0.04,0.05,352.77,352.77,0.0,0.0
1630624002.30010223,71528877,0.1,0.08,0.03,0.04,352.77,352.77,0.0,0.0
1630624002.40006232,71628837,0.12,0.1,0.04,0.04,352.77,352.77,0.0,0.0
1630624002.50002217,71728797,0.14,0.12,0.05,0.04,352.77,352.77,0.0,0.0
1630624002.59998226,71828757,0.17,0.15,0.07,0.06,352.77,352.78,0.0,0.0
1630624002.69994211,71928717,0.14,0.15,0.08,0.08,352.77,352.78,0.0,0.0
1630624002.79990220,72028677,0.09,0.12,0.04,0.06,352.77,352.78,0.0,0.0
1630624002.89986229,72128637,0.06,0.07,0.02,0.02,352.77,352.78,0.0,0.0
1630624002.99982214,72228597,0.05,0.04,0.03,0.01,352.77,352.78,0.0,0.0
1630624003.09978223,72328557,0.05,0.03,0.05,0.03,352.77,352.78,0.0,0.0
1630624003.19974232,72428517,0.07,0.04,0.07,0.05,352.77,352.78,0.0,0.0
1630624003.29970217,72528477,0.09,0.07,0.09,0.08,352.77,352.78,0.0,0.0
1630624003.39966226,72628437,0.08,0.08,0.09,0.1,352.77,352.78,0.0,0.0
1630624003.49962211,72728397,0.02,0.05,0.12,0.12,352.77,352.78,0.0,0.0
1630624003.59958220,72828357,-0.02,0.0,0.15,0.14,352.77,352.78,0.0,0.0
1630624003.69954228,72928317,-0.04,-0.05,0.13,0.15,352.77,352.78,0.0,0.0
1630624003.79950213,73028277,0.0,-0.05,0.1,0.12,352.77,352.78,0.0,0.0
1630624003.89946222,73128237,0.05,-0.01,0.1,0.1,352.77,352.78,0.0,0.0
1630624003.99942231,73228197,0.08,0.02,0.09,0.08,352.77,352.79,0.0,0.0
1630624004.09938216,73328157,0.09,0.07,0.08,0.06,352.77,352.79,0.0,0.0
1630624004.20017529,73428950,0.12,0.1,0.11,0.07,352.77,352.79,0.0,0.0
1630624004.30013514,73528910,0.14,0.13,0.13,0.1,352.77,352.79,0.0,0.0
1630624004.40009522,73628870,0.13,0.13,0.12,0.12,352.77,352.79,0.0,0.0
1630624004.50005531,73728830,0.17,0.16,0.09,0.11,352.77,352.78,0.0,0.0
1630624004.60001516,73828790,0.2,0.2,0.06,0.08,352.77,352.78,0.0,0.0
1630624004.69997525,73928750,0.19,0.21,0.06,0.06,352.77,352.78,0.0,0.0
1630624004.79993510,74028710,0.16,0.19,0.07,0.06,352.77,352.78,0.0,0.0
1630624004.89989519,74128670,0.17,0.16,0.1,0.07,352.77,352.77,0.0,0.0
1630624004.99985528,74228630,0.19,0.16,0.14,0.1,352.77,352.77,0.0,0.0
1630624005.09981513,74328590,0.19,0.18,0.15,0.13,352.77,352.77,0.0,0.0
1630624005.19977522,74428550,0.18,0.18,0.14,0.14,352.77,352.77,0.0,0.0
1630624005.29973531,74528510,0.19,0.18,0.11,0.13,352.77,352.77,0.0,0.0
1630624005.39969516,74628470,0.19,0.19,0.06,0.1,352.77,352.78,0.0,0.0
1630624005.49965525,74728430,0.21,0.2,0.04,0.06,352.77,352.78,0.0,0.0
1630624005.59961510,74828390,0.21,0.21,0.02,0.03,352.77,352.78,0.0,0.0
1630624005.69957519,74928350,0.18,0.2,0.02,0.01,352.77,352.78,0.0,0.0
1630624005.79953527,75028310,0.13,0.16,0.04,0.01,352.77,352.78,0.0,0.0
1630624005.89949512,75128270,0.13,0.13,0.06,0.03,352.77,352.78,0.0,0.0
1630624005.99945521,75228230,0.16,0.14,0.05,0.04,352.77,352.78,0.0,0.0
1630624006.09941530,75328190,0.18,0.16,0.07,0.05,352.77,352.77,0.0,0.0
1630624006.20020819,75428983,0.21,0.19,0.08,0.07,352.77,352.77,0.0,0.0
1630624006.30016828,75528943,0.24,0.23,0.08,0.09,352.77,352.77,0.0,0.0
1630624006.40012813,75628903,0.24,0.24,0.03,0.06,352.77,352.77,0.0,0.0
1630624006.50008821,75728863,0.19,0.22,0.03,0.03,352.77,352.77,0.0,0.0
1630624006.60004830,75828823,0.16,0.19,0.04,0.02,352.77,352.77,0.0,0.0
1630624006.70000815,75928783,0.17,0.16,0.05,0.02,352.77,352.77,0.0,0.0
1630624006.79996824,76028743,0.18,0.17,0.06,0.03,352.77,352.77,0.0,0.0
1630624006.89992833,76128703,0.16,0.17,0.09,0.05,352.77,352.77,0.0,0.0
1630624006.99988818,76228663,0.15,0.15,0.11,0.09,352.77,352.77,0.0,0.0
1630624007.09984827,76328623,0.16,0.15,0.1,0.1,352.77,352.77,0.0,0.0
1630624007.19980812,76428583,0.19,0.17,0.1,0.09,352.77,352.77,0.0,0.0
1630624007.29976821,76528543,0.2,0.18,0.12,0.11,352.77,352.77,0.0,0.0
1630624007.39972830,76628503,0.2,0.19,0.13,0.13,352.77,352.78,0.0,0.0
1630624007.49968815,76728463,0.18,0.19,0.13,0.13,352.77,352.78,0.0,0.0
1630624007.59964824,76828423,0.15,0.16,0.13,0.13,352.77,352.78,0.0,0.0
1630624007.69960833,76928383,0.12,0.12,0.14,0.13,352.77,352.78,0.0,0.0
1630624007.79956818,77028343,0.1,0.09,0.13,0.13,352.77,352.79,0.0,0.0
1630624007.89952826,77128303,0.13,0.09,0.12,0.13,352.77,352.79,0.0,0.0
1630624007.99948812,77228263,0.17,0.13,0.14,0.13,352.77,352.78,0.0,0.0
1630624008.09944820,77328223,0.2,0.18,0.13,0.14,352.77,352.78,0.0,0.0
1630624008.19940829,77428183,0.18,0.2,0.11,0.12,352.77,352.78,0.0,0.0
1630624008.30020118,77528976,0.14,0.17,0.12,0.1,352.77,352.78,0.0,0.0
1630624008.40016127,77628936,0.09,0.12,0.11,0.09,352.77,352.78,0.0,0.0
1630624008.50012112,77728896,0.08,0.07,0.08,0.07,352.77,352.78,0.0,0.0
1630624008.60008121,77828856,0.1,0.07,0.09,0.06,352.77,352.78,0.0,0.0
1630624008.70004129,77928816,0.11,0.08,0.13,0.09,352.77,352.78,0.0,0.0
1630624008.80000114,78028776,0.13,0.1,0.15,0.13,352.77,352.78,0.0,0.0
1630624008.89996123,78128736,0.13,0.11,0.12,0.14,352.77,352.78,0.0,0.0
1630624008.99992132,78228696,0.12,0.12,0.04,0.1,352.77,352.78,0.0,0.0
1630624009.09988117,78328656,0.09,0.11,0.0,0.04,352.77,352.78,0.0,0.0
1630624009.19984126,78428616,0.09,0.09,0.01,0.0,352.77,352.78,0.0,0.0
1630624009.29980111,78528576,0.09,0.09,0.07,0.02,352.77,352.78,0.0,0.0
1630624009.39976120,78628536,0.09,0.08,0.12,0.08,352.77,352.78,0.0,0.0
1630624009.49972129,78728496,0.08,0.07,0.15,0.13,352.77,352.78,0.0,0.0
1630624009.59968114,78828456,0.06,0.06,0.15,0.16,352.77,352.78,0.0,0.0
1630624009.69964123,78928416,0.07,0.06,0.14,0.15,352.77,352.78,0.0,0.0
1630624009.79960132,79028376,0.07,0.06,0.13,0.13,352.77,352.78,0.0,0.0
1630624009.89956117,79128336,0.09,0.07,0.11,0.12,352.77,352.78,0.0,0.0
1630624009.99952126,79228296,0.11,0.09,0.09,0.09,352.77,352.77,0.0,0.0
1630624010.09948111,79328256,0.08,0.08,0.09,0.07,352.77,352.77,0.0,0.0
1630624010.19944119,79428216,0.06,0.06,0.13,0.09,352.77,352.77,0.0,0.0
1630624010.29940128,79528176,0.05,0.04,0.17,0.13,352.77,352.77,0.0,0.0
1630624010.40019417,79628969,0.08,0.06,0.18,0.16,352.77,352.77,0.0,0.0
1630624010.50015426,79728929,0.11,0.09,0.18,0.18,352.77,352.77,0.0,0.0
1630624010.60011411,79828889,0.11,0.12,0.17,0.19,352.77,352.78,0.0,0.0
1630624010.70007420,79928849,0.07,0.1,0.13,0.17,352.77,352.78,0.0,0.0
1630624010.80003428,80028809,0.03,0.05,0.1,0.13,352.77,352.78,0.0,0.0
1630624010.89999413,80128769,0.02,0.02,0.08,0.09,352.77,352.78,0.0,0.0
1630624010.99995422,80228729,0.06,0.02,0.1,0.07,352.77,352.78,0.0,0.0
1630624011.09991431,80328689,0.1,0.05,0.13,0.08,352.77,352.77,0.0,0.0
1630624011.19987416,80428649,0.13,0.09,0.14,0.11,352.77,352.77,0.0,0.0
1630624011.29983425,80528609,0.16,0.14,0.13,0.11,352.77,352.77,0.0,0.0
1630624011.39979410,80628569,0.18,0.17,0.13,0.11,352.77,352.77,0.0,0.0
1630624011.49975419,80728529,0.2,0.2,0.14,0.12,352.77,352.77,0.0,0.0
1630624011.59971428,80828489,0.18,0.2,0.15,0.13,352.77,352.77,0.0,0.0
1630624011.69967413,80928449,0.16,0.18,0.15,0.15,352.77,352.78,0.0,0.0
1630624011.79963422,81028409,0.15,0.15,0.16,0.15,352.77,352.78,0.0,0.0
1630624011.89959431,81128369,0.15,0.14,0.14,0.15,352.77,352.78,0.0,0.0
1630624011.99955416,81228329,0.15,0.14,0.11,0.13,352.77,352.78,0.0,0.0
1630624012.09951425,81328289,0.14,0.14,0.08,0.1,352.77,352.78,0.0,0.0
1630624012.19947410,81428249,0.14,0.14,0.07,0.08,352.77,352.78,0.0,0.0
1630624012.29943419,81528209,0.15,0.14,0.09,0.08,352.77,352.78,0.0,0.0
1630624012.39939427,81628169,0.17,0.15,0.1,0.08,352.77,352.78,0.0,0.0
1630624012.50018716,81728962,0.17,0.16,0.12,0.1,352.77,352.78,0.0,0.0
1630624012.60014725,81828922,0.16,0.16,0.16,0.14,352.77,352.78,0.0,0.0
1630624012.70010710,81928882,0.15,0.14,0.19,0.19,352.77,352.78,0.0,0.0
1630624012.80006719,82028842,0.16,0.14,0.19,0.22,352.77,352.78,0.0,0.0
1630624012.90002728,82128802,0.14,0.13,0.17,0.22,352.77,352.78,0.0,0.0
1630624012.99998713,82228762,0.09,0.1,0.12,0.17,352.77,352.78,0.0,0.0
1630624013.09994721,82328722,0.09,0.07,0.08,0.11,352.77,352.78,0.0,0.0
1630624013.19990730,82428682,0.09,0.06,0.08,0.07,352.77,352.78,0.0,0.0
1630624013.29986715,82528642,0.1,0.06,0.12,0.08,352.77,352.78,0.0,0.0
1630624013.39982724,82628602,0.13,0.08,0.14,0.1,352.77,352.78,0.0,0.0
1630624013.49978733,82728562,0.15,0.12,0.16,0.13,352.77,352.78,0.0,0.0
1630624013.59974718,82828522,0.16,0.15,0.14,0.14,352.77,352.77,0.0,0.0
1630624013.69970727,82928482,0.17,0.18,0.11,0.13,352.77,352.77,0.0,0.0
1630624013.79966712,83028442,0.16,0.18,0.1,0.11,352.77,352.77,0.0,0.0
1630624013.89962721,83128402,0.11,0.15,0.09,0.09,352.77,352.77,0.0,0.0
1630624013.99958730,83228362,0.08,0.1,0.09,0.07,352.77,352.77,0.0,0.0
1630624014.09954715,83328322,0.08,0.07,0.11,0.08,352.77,352.77,0.0,0.0
1630624014.19950724,83428282,0.08,0.07,0.13,0.09,352.77,352.77,0.0,0.0
1630624014.29946733,83528242,0.07,0.06,0.16,0.12,352.77,352.77,0.0,0.0
1630624014.39942718,83628202,0.08,0.07,0.18,0.15,352.77,352.78,0.0,0.0
1630624014.49938726,83728162,0.09,0.07,0.2,0.18,352.77,352.78,0.0,0.0
1630624014.60018015,83828955,0.12,0.09,0.2,0.2,352.77,352.78,0.0,0.0
1630624014.70014024,83928915,0.15,0.11,0.18,0.19,352.77,352.78,0.0,0.0
1630624014.80010033,84028875,0.17,0.14,0.16,0.17,352.77,352.78,0.0,0.0
1630624014.90006018,84128835,0.2,0.18,0.14,0.14,352.77,352.78,0.0,0.0
1630624015.00002027,84228795,0.21,0.21,0.1,0.11,352.77,352.78,0.0,0.0
1630624015.09998012,84328755,0.18,0.22,0.1,0.09,352.77,352.78,0.0,0.0
1630624015.19994020,84428715,0.17,0.19,0.11,0.09,352.77,352.78,0.0,0.0
1630624015.29990029,84528675,0.14,0.16,0.1,0.09,352.77,352.78,0.0,0.0
1630624015.39986014,84628635,0.13,0.13,0.08,0.08,352.77,352.77,0.0,0.0
1630624015.49982023,84728595,0.13,0.12,0.06,0.06,352.77,352.77,0.0,0.0
1630624015.59978032,84828555,0.15,0.12,0.06,0.04,352.77,352.77,0.0,0.0
1630624015.69974017,84928515,0.16,0.13,0.09,0.05,352.77,352.77,0.0,0.0
1630624015.79970026,85028475,0.14,0.14,0.1,0.07,352.77,352.77,0.0,0.0
1630624015.89966011,85128435,0.12,0.12,0.14,0.1,352.77,352.77,0.0,0.0
1630624015.99962020,85228395,0.11,0.1,0.19,0.16,352.77,352.77,0.0,0.0
1630624016.09958029,85328355,0.11,0.09,0.22,0.21,352.77,352.77,0.0,0.0
1630624016.19954014,85428315,0.13,0.08,0.22,0.25,352.77,352.77,0.0,0.0
1630624016.29950023,85528275,0.17,0.12,0.17,0.23,352.77,352.77,0.0,0.0
1630624016.39946032,85628235,0.15,0.14,0.09,0.15,352.77,352.77,0.0,0.0
1630624016.49942017,85728195,0.13,0.13,0.05,0.07,352.77,352.77,0.0,0.0
1630624016.59938025,85828155,0.13,0.13,0.04,0.03,352.77,352.77,0.0,0.0
1630624016.70017314,85928948,0.13,0.13,0.05,0.02,352.77,352.77,0.0,0.0
1630624016.80013323,86028908,0.14,0.12,0.08,0.03,352.77,352.77,0.0,0.0
1630624016.90009332,86128868,0.13,0.12,0.11,0.06,352.77,352.77,0.0,0.0
1630624017.00005317,86228828,0.14,0.12,0.12,0.1,352.77,352.78,0.0,0.0
1630624017.10001326,86328788,0.16,0.14,0.11,0.11,352.77,352.78,0.0,0.0
1630624017.19997311,86428748,0.17,0.15,0.11,0.11,352.77,352.78,0.0,0.0
1630624017.29993320,86528708,0.17,0.17,0.06,0.09,352.77,352.77,0.0,0.0
1630624017.39989328,86628668,0.14,0.16,0.05,0.06,352.77,352.77,0.0,0.0
1630624017.49985313,86728628,0.1,0.12,0.1,0.07,352.77,352.77,0.0,0.0
1630624017.59981322,86828588,0.05,0.07,0.13,0.1,352.77,352.77,0.0,0.0
1630624017.69977331,86928548,0.03,0.02,0.13,0.13,352.77,352.77,0.0,0.0
1630624017.79973316,87028508,0.06,0.02,0.12,0.14,352.77,352.77,0.0,0.0
1630624017.89969325,87128468,0.12,0.06,0.12,0.14,352.77,352.77,0.0,0.0
1630624017.99965310,87228428,0.17,0.13,0.13,0.13,352.77,352.77,0.0,0.0
1630624018.09961319,87328388,0.15,0.16,0.1,0.12,352.77,352.77,0.0,0.0
1630624018.19957328,87428348,0.15,0.16,0.07,0.08,352.77,352.77,0.0,0.0
1630624018.29953313,87528308,0.13,0.15,0.04,0.04,352.77,352.77,0.0,0.0
1630624018.39949322,87628268,0.13,0.13,0.05,0.02,352.77,352.78,0.0,0.0
1630624018.49945331,87728228,0.14,0.13,0.06,0.02,352.77,352.78,0.0,0.0
1630624018.59941316,87828188,0.15,0.14,0.1,0.06,352.77,352.78,0.0,0.0
1630624018.70020628,87928981,0.1,0.13,0.13,0.1,352.77,352.78,0.0,0.0
1630624018.80016613,88028941,0.06,0.09,0.14,0.13,352.77,352.79,0.0,0.0
1630624018.90012622,88128901,0.06,0.05,0.14,0.14,352.77,352.79,0.0,0.0
1630624019.00008631,88228861,0.09,0.05,0.14,0.14,352.77,352.79,0.0,0.0
1630624019.10004616,88328821,0.11,0.07,0.14,0.14,352.77,352.79,0.0,0.0
1630624019.20000625,88428781,0.11,0.09,0.12,0.14,352.77,352.79,0.0,0.0
1630624019.29996610,88528741,0.1,0.11,0.1,0.11,352.77,352.79,0.0,0.0
1630624019.39992619,88628701,0.08,0.08,0.1,0.11,352.77,352.78,0.0,0.0
1630624019.49988627,88728661,0.08,0.07,0.09,0.1,352.77,352.78,0.0,0.0
1630624019.59984612,88828621,0.1,0.07,0.09,0.08,352.77,352.78,0.0,0.0
1630624019.69980621,88928581,0.12,0.08,0.13,0.09,352.77,352.78,0.0,0.0
1630624019.79976630,89028541,0.16,0.12,0.17,0.13,352.77,352.77,0.0,0.0
1630624019.89972615,89128501,0.2,0.17,0.19,0.17,352.77,352.77,0.0,0.0
1630624019.99968624,89228461,0.21,0.21,0.19,0.18,352.77,352.77,0.0,0.0
1630624020.09964633,89328421,0.19,0.21,0.19,0.19,352.77,352.77,0.0,0.0
1630624020.19960618,89428381,0.17,0.19,0.18,0.18,352.77,352.77,0.0,0.0
1630624020.29956627,89528341,0.17,0.17,0.18,0.18,352.77,352.78,0.0,0.0
1630624020.39952612,89628301,0.19,0.17,0.16,0.16,352.77,352.78,0.0,0.0
1630624020.49948621,89728261,0.17,0.17,0.17,0.15,352.77,352.78,0.0,0.0
1630624020.59944630,89828221,0.15,0.15,0.18,0.16,352.77,352.78,0.0,0.0
1630624020.69940615,89928181,0.16,0.15,0.19,0.17,352.77,352.78,0.0,0.0
1630624020.80019927,90028974,0.19,0.16,0.19,0.17,352.77,352.78,0.0,0.0
1630624020.90015912,90128934,0.2,0.19,0.18,0.18,352.77,352.78,0.0,0.0
1630624021.00011921,90228894,0.21,0.2,0.19,0.18,352.77,352.78,0.0,0.0
1630624021.10007930,90328854,0.23,0.22,0.2,0.19,352.77,352.78,0.0,0.0
1630624021.20003915,90428814,0.22,0.22,0.21,0.2,352.77,352.78,0.0,0.0
1630624021.29999924,90528774,0.24,0.23,0.23,0.21,352.77,352.78,0.0,0.0
1630624021.39995933,90628734,0.25,0.25,0.22,0.22,352.77,352.78,0.0,0.0
1630624021.49991918,90728694,0.24,0.24,0.2,0.21,352.77,352.78,0.0,0.0
1630624021.59987926,90828654,0.25,0.24,0.18,0.18,352.77,352.78,0.0,0.0
1630624021.69983912,90928614,0.26,0.24,0.17,0.16,352.77,352.77,0.0,0.0
1630624021.79979920,91028574,0.23,0.24,0.18,0.16,352.77,352.77,0.0,0.0
1630624021.89975929,91128534,0.18,0.2,0.19,0.17,352.77,352.77,0.0,0.0
1630624021.99971914,91228494,0.14,0.14,0.2,0.18,352.77,352.78,0.0,0.0
1630624022.09967923,91328454,0.13,0.11,0.2,0.2,352.77,352.77,0.0,0.0
1630624022.19963932,91428414,0.13,0.1,0.18,0.19,352.77,352.77,0.0,0.0
1630624022.29959917,91528374,0.12,0.1,0.15,0.17,352.77,352.77,0.0,0.0
1630624022.39955926,91628334,0.12,0.11,0.13,0.13,352.77,352.78,0.0,0.0
1630624022.49951911,91728294,0.11,0.1,0.14,0.13,352.77,352.78,0.0,0.0
1630624022.59947920,91828254,0.11,0.09,0.13,0.13,352.77,352.78,0.0,0.0
1630624022.69943929,91928214,0.15,0.11,0.11,0.11,352.77,352.78,0.0,0.0
1630624022.79939914,92028174,0.16,0.14,0.09,0.09,352.77,352.78,0.0,0.0
1630624022.90019226,92128967,0.15,0.16,0.1,0.08,352.77,352.78,0.0,0.0
1630624023.00015211,92228927,0.14,0.15,0.11,0.09,352.77,352.78,0.0,0.0
1630624023.10011220,92328887,0.15,0.15,0.14,0.12,352.77,352.78,0.0,0.0
1630624023.20007229,92428847,0.16,0.15,0.14,0.13,352.77,352.78,0.0,0.0
1630624023.30003214,92528807,0.16,0.16,0.13,0.13,352.77,352.78,0.0,0.0
1630624023.39999223,92628767,0.16,0.15,0.14,0.13,352.77,352.78,0.0,0.0
1630624023.49995232,92728727,0.16,0.15,0.15,0.13,352.77,352.78,0.0,0.0
1630624023.59991217,92828687,0.14,0.15,0.11,0.11,352.77,352.78,0.0,0.0
1630624023.69987226,92928647,0.14,0.14,0.08,0.08,352.77,352.78,0.0,0.0
1630624023.79983211,93028607,0.15,0.14,0.08,0.06,352.77,352.78,0.0,0.0
1630624023.89979219,93128567,0.14,0.14,0.08,0.06,352.77,352.77,0.0,0.0
1630624023.99975228,93228527,0.13,0.12,0.1,0.07,352.77,352.77,0.0,0.0
1630624024.09971213,93328487,0.13,0.12,0.11,0.09,352.77,352.77,0.0,0.0
1630624024.19967222,93428447,0.15,0.13,0.1,0.1,352.77,352.78,0.0,0.0
1630624024.29963231,93528407,0.18,0.16,0.1,0.09,352.77,352.78,0.0,0.0
1630624024.39959216,93628367,0.16,0.17,0.09,0.09,352.77,352.78,0.0,0.0
1630624024.49955225,93728327,0.14,0.16,0.09,0.09,352.77,352.78,0.0,0.0
1630624024.59951210,93828287,0.14,0.14,0.11,0.09,352.77,352.78,0.0,0.0
1630624024.69947219,93928247,0.14,0.13,0.12,0.11,352.77,352.78,0.0,0.0
1630624024.79943228,94028207,0.14,0.12,0.13,0.12,352.77,352.78,0.0,0.0
1630624024.89939213,94128167,0.15,0.13,0.14,0.13,352.77,352.78,0.0,0.0
1630624025.00018525,94228960,0.17,0.14,0.14,0.14,352.77,352.78,0.0,0.0
1630624025.10014510,94328920,0.21,0.18,0.14,0.14,352.77,352.78,0.0,0.0
1630624025.20010519,94428880,0.22,0.21,0.15,0.15,352.77,352.78,0.0,0.0
1630624025.30006528,94528840,0.21,0.23,0.15,0.15,352.77,352.78,0.0,0.0
1630624025.40002513,94628800,0.2,0.21,0.15,0.15,352.77,352.77,0.0,0.0
1630624025.49998522,94728760,0.2,0.2,0.13,0.14,352.77,352.77,0.0,0.0
1630624025.59994531,94828720,0.21,0.19,0.11,0.11,352.77,352.77,0.0,0.0
1630624025.69990516,94928680,0.22,0.2,0.09,0.09,352.77,352.77,0.0,0.0
1630624025.79986525,95028640,0.21,0.2,0.08,0.06,352.77,352.77,0.0,0.0
1630624025.89982510,95128600,0.19,0.2,0.09,0.06,352.77,352.77,0.0,0.0
1630624025.99978518,95228560,0.18,0.18,0.08,0.05,352.77,352.77,0.0,0.0
1630624026.09974527,95328520,0.19,0.18,0.1,0.06,352.77,352.77,0.0,0.0
1630624026.19970512,95428480,0.21,0.2,0.12,0.09,352.77,352.78,0.0,0.0
1630624026.29966521,95528440,0.2,0.21,0.16,0.12,352.77,352.78,0.0,0.0
1630624026.39962530,95628400,0.16,0.18,0.2,0.17,352.77,352.78,0.0,0.0
1630624026.49958515,95728360,0.14,0.15,0.22,0.23,352.77,352.78,0.0,0.0
1630624026.59954524,95828320,0.12,0.11,0.23,0.25,352.77,352.78,0.0,0.0
1630624026.69950533,95928280,0.11,0.1,0.21,0.24,352.77,352.78,0.0,0.0
1630624026.79946518,96028240,0.13,0.11,0.17,0.2,352.77,352.78,0.0,0.0
1630624026.89942527,96128200,0.15,0.13,0.16,0.16,352.77,352.78,0.0,0.0
1630624026.99938512,96228160,0.14,0.13,0.17,0.15,352.77,352.78,0.0,0.0
1630624027.10017824,96328953,0.15,0.13,0.19,0.17,352.77,352.78,0.0,0.0
1630624027.20013833,96428913,0.17,0.14,0.21,0.18,352.77,352.78,0.0,0.0
1630624027.30009818,96528873,0.19,0.16,0.23,0.21,352.77,352.78,0.0,0.0
1630624027.40005827,96628833,0.22,0.18,0.22,0.22,352.77,352.78,0.0,0.0
1630624027.50001812,96728793,0.22,0.2,0.2,0.22,352.77,352.77,0.0,0.0
1630624027.59997821,96828753,0.21,0.21,0.17,0.2,352.77,352.77,0.0,0.0
1630624027.69993830,96928713,0.19,0.2,0.17,0.18,352.77,352.77,0.0,0.0
1630624027.79989815,97028673,0.15,0.16,0.16,0.16,352.77,352.77,0.0,0.0
1630624027.89985824,97128633,0.12,0.13,0.15,0.15,352.77,352.78,0.0,0.0
1630624027.99981833,97228593,0.13,0.11,0.15,0.14,352.77,352.78,0.0,0.0
1630624028.09977818,97328553,0.14,0.12,0.16,0.15,352.77,352.78,0.0,0.0
1630624028.19973826,97428513,0.13,0.12,0.18,0.17,352.77,352.78,0.0,0.0
1630624028.29969811,97528473,0.12,0.11,0.18,0.17,352.77,352.78,0.0,0.0
1630624028.39965820,97628433,0.13,0.11,0.19,0.17,352.77,352.78,0.0,0.0
1630624028.49961829,97728393,0.14,0.12,0.19,0.18,352.77,352.78,0.0,0.0
1630624028.59957814,97828353,0.13,0.12,0.18,0.17,352.77,352.78,0.0,0.0
1630624028.69953823,97928313,0.14,0.12,0.15,0.15,352.77,352.78,0.0,0.0
1630624028.79949832,98028273,0.16,0.13,0.12,0.11,352.77,352.78,0.0,0.0
1630624028.89945817,98128233,0.17,0.15,0.12,0.09,352.77,352.77,0.0,0.0
1630624028.99941826,98228193,0.16,0.16,0.14,0.1,352.77,352.77,0.0,0.0
1630624029.10021114,98328986,0.16,0.15,0.15,0.12,352.77,352.77,0.0,0.0
1630624029.20017123,98428946,0.15,0.15,0.17,0.15,352.77,352.77,0.0,0.0
1630624029.30013132,98528906,0.15,0.14,0.19,0.18,352.77,352.77,0.0,0.0
1630624029.40009117,98628866,0.15,0.13,0.18,0.19,352.77,352.77,0.0,0.0
1630624029.50005126,98728826,0.16,0.14,0.17,0.18,352.77,352.77,0.0,0.0
1630624029.60001111,98828786,0.14,0.14,0.16,0.17,352.77,352.77,0.0,0.0
1630624029.69997120,98928746,0.15,0.14,0.14,0.15,352.77,352.77,0.0,0.0
1630624029.79993129,99028706,0.16,0.15,0.12,0.12,352.77,352.77,0.0,0.0
1630624029.89989114,99128666,0.15,0.15,0.11,0.11,352.77,352.78,0.0,0.0
1630624029.99985123,99228626,0.16,0.14,0.12,0.1,352.77,352.78,0.0,0.0
1630624030.09981132,99328586,0.17,0.16,0.14,0.12,352.77,352.78,0.0,0.0
1630624030.19977117,99428546,0.17,0.16,0.15,0.14,352.77,352.78,0.0,0.0
1630624030.29973125,99528506,0.19,0.17,0.12,0.13,352.77,352.78,0.0,0.0
1630624030.39969110,99628466,0.2,0.18,0.12,0.12,352.77,352.78,0.0,0.0
1630624030.49965119,99728426,0.21,0.2,0.13,0.11,352.77,352.78,0.0,0.0
1630624030.59961128,99828386,0.22,0.22,0.15,0.13,352.77,352.78,0.0,0.0
1630624030.69957113,99928346,0.21,0.22,0.16,0.15,352.77,352.78,0.0,0.0
1630624030.79953122,100028306,0.18,0.19,0.15,0.14,352.77,352.78,0.0,0.0
1630624030.89949131,100128266,0.16,0.16,0.15,0.13,352.77,352.78,0.0,0.0
1630624030.99945116,100228226,0.14,0.14,0.13,0.12,352.77,352.78,0.0,0.0
1630624031.09941125,100328186,0.15,0.14,0.13,0.12,352.77,352.78,0.0,0.0
1630624031.20020413,100428979,0.15,0.14,0.14,0.12,352.77,352.78,0.0,0.0
1630624031.30016422,100528939,0.15,0.15,0.18,0.15,352.77,352.78,0.0,0.0
1630624031.40012431,100628899,0.13,0.13,0.21,0.18,352.77,352.78,0.0,0.0
1630624031.50008416,100728859,0.12,0.11,0.19,0.19,352.77,352.78,0.0,0.0
1630624031.60004425,100828819,0.13,0.1,0.16,0.17,352.77,352.77,0.0,0.0
1630624031.70000410,100928779,0.15,0.12,0.14,0.15,352.77,352.77,0.0,0.0
1630624031.79996419,101028739,0.15,0.13,0.14,0.13,352.77,352.77,0.0,0.0
1630624031.89992428,101128699,0.13,0.12,0.16,0.14,352.77,352.78,0.0,0.0
1630624031.99988413,101228659,0.14,0.12,0.18,0.16,352.77,352.78,0.0,0.0
1630624032.09984422,101328619,0.17,0.14,0.17,0.17,352.77,352.78,0.0,0.0
1630624032.19980431,101428579,0.17,0.16,0.17,0.16,352.77,352.78,0.0,0.0
1630624032.29976416,101528539,0.15,0.16,0.16,0.16,352.77,352.78,0.0,0.0
1630624032.39972425,101628499,0.11,0.12,0.15,0.14,352.77,352.77,0.0,0.0
1630624032.49968410,101728459,0.11,0.1,0.16,0.14,352.77,352.77,0.0,0.0
1630624032.59964418,101828419,0.12,0.1,0.2,0.17,352.77,352.77,0.0,0.0
1630624032.69960427,101928379,0.15,0.12,0.25,0.22,352.77,352.77,0.0,0.0
1630624032.79956412,102028339,0.18,0.15,0.25,0.26,352.77,352.77,0.0,0.0
1630624032.89952421,102128299,0.19,0.18,0.23,0.26,352.77,352.77,0.0,0.0
1630624032.99948430,102228259,0.18,0.19,0.18,0.22,352.77,352.77,0.0,0.0
1630624033.09944415,102328219,0.17,0.19,0.14,0.17,352.77,352.77,0.0,0.0
1630624033.19940424,102428179,0.14,0.15,0.11,0.12,352.77,352.77,0.0,0.0
1630624033.30019712,102528972,0.11,0.12,0.11,0.09,352.77,352.77,0.0,0.0
1630624033.40015721,102628932,0.09,0.09,0.14,0.1,352.77,352.78,0.0,0.0
1630624033.50011730,102728892,0.09,0.07,0.15,0.13,352.77,352.77,0.0,0.0
1630624033.60007715,102828852,0.1,0.07,0.17,0.15,352.77,352.78,0.0,0.0
1630624033.70003724,102928812,0.14,0.09,0.17,0.16,352.77,352.78,0.0,0.0
1630624033.79999733,103028772,0.17,0.13,0.14,0.15,352.77,352.77,0.0,0.0
1630624033.89995718,103128732,0.18,0.16,0.13,0.14,352.77,352.77,0.0,0.0
1630624033.99991727,103228692,0.2,0.19,0.12,0.12,352.77,352.77,0.0,0.0
1630624034.09987712,103328652,0.2,0.2,0.12,0.12,352.77,352.78,0.0,0.0
1630624034.19983721,103428612,0.2,0.21,0.13,0.12,352.77,352.78,0.0,0.0
1630624034.29979730,103528572,0.22,0.22,0.15,0.12,352.77,352.78,0.0,0.0
1630624034.39975715,103628532,0.21,0.21,0.14,0.12,352.77,352.78,0.0,0.0
1630624034.49971724,103728492,0.18,0.19,0.16,0.13,352.77,352.78,0.0,0.0
1630624034.59967732,103828452,0.17,0.17,0.18,0.16,352.77,352.78,0.0,0.0
1630624034.69963717,103928412,0.18,0.16,0.21,0.19,352.77,352.78,0.0,0.0
1630624034.79959726,104028372,0.18,0.16,0.22,0.21,352.77,352.78,0.0,0.0
1630624034.89955711,104128332,0.26,0.19,0.23,0.23,352.77,352.78,0.0,0.0
1630624034.99951720,104228292,0.56,0.37,0.27,0.25,352.77,352.78,0.0,0.0
1630624035.09947729,104328252,1.14,0.84,0.33,0.3,352.77,352.78,0.0,0.0
1630624035.19943714,104428212,1.92,1.58,0.41,0.37,352.77,352.77,0.0,0.0
1630624035.29939723,104528172,2.83,2.53,0.53,0.47,352.77,352.77,0.0,0.0
1630624035.40019011,104628965,3.77,3.58,0.67,0.61,352.77,352.78,0.0,0.01
1630624035.50015020,104728925,4.61,4.6,0.8,0.77,352.77,352.79,0.0,0.01
1630624035.60011029,104828885,5.25,5.42,0.87,0.88,352.77,352.79,0.0,0.01
1630624035.70007014,104928845,5.77,6.03,0.92,0.96,352.77,352.79,0.0,0.01
1630624035.80003023,105028805,6.24,6.49,0.96,1.0,352.77,352.79,0.0,0.01
1630624035.89999032,105128765,6.7,6.88,1.01,1.02,352.77,352.79,0.0,0.01
1630624035.99995017,105228725,7.16,7.27,1.06,1.06,352.77,352.79,0.0,0.01
1630624036.09991026,105328685,7.57,7.65,1.11,1.1,352.77,352.78,0.0,0.01
1630624036.19987011,105428645,7.87,7.96,1.13,1.13,352.77,352.78,0.0,0.01
1630624036.29983020,105528605,8.09,8.19,1.14,1.15,352.77,352.78,0.0,0.01
1630624036.39979029,105628565,8.29,8.36,1.14,1.15,352.77,352.77,0.0,0.0
1630624036.49975014,105728525,8.49,8.52,1.18,1.16,352.77,352.77,0.0,0.0
1630624036.59971023,105828485,8.69,8.68,1.22,1.19,352.81,352.78,0.0,0.0
1630624036.69967031,105928445,8.95,8.88,1.27,1.36,354.62,352.85,0.0,0.0
1630624036.79963017,106028405,9.28,9.12,1.28,1.82,359.16,353.42,0.0,0.0
1630624036.89959025,106128365,9.72,9.47,1.1,2.39,5.16,355.2,0.0,0.0
1630624036.99955010,106228325,10.2,9.97,0.53,2.55,11.16,358.6,0.0,0.01
1630624037.09951019,106328285,10.63,10.54,-0.47,2.01,17.16,3.59,0.0,0.01
1630624037.19947028,106428245,10.91,11.04,-1.94,0.72,23.16,9.9,0.0,0.02
1630624037.29943013,106528205,10.93,11.29,-3.7,-1.2,29.16,17.24,0.0,0.03
1630624037.39939022,106628165,10.63,11.15,-5.6,-3.54,35.16,25.32,0.0,0.04
1630624037.50018311,106728958,9.98,10.55,-7.47,-6.03,41.16,33.9,0.0,0.04
1630624037.60014319,106828918,9.01,9.45,-9.21,-8.43,47.16,42.73,0.0,0.05
1630624037.70010328,106928878,7.77,7.91,-10.74,-10.54,53.16,51.55,0.0,0.05
1630624037.80006313,107028838,6.34,6.06,-12.02,-12.23,59.16,60.06,0.0,0.06
1630624037.90002322,107128798,4.83,4.1,-13.02,-13.43,65.17,68.04,0.0,0.06
1630624037.99998331,107228758,3.34,2.23,-13.77,-14.19,71.17,75.32,0.0,0.06
1630624038.09994316,107328718,1.92,0.6,-14.33,-14.61,77.17,81.84,0.0,0.05
1630624038.19990325,107428678,0.56,-0.79,-14.7,-14.81,82.57,87.67,0.0,0.05
1630624038.29986310,107528638,-0.66,-2.27,-14.91,-14.87,85.64,92.75,0.0,0.05
1630624038.39982319,107628598,-1.71,-3.82,-15.0,-14.82,87.25,96.72,0.0,0.04
1630624038.49978328,107728558,-2.45,-5.12,-15.06,-14.7,88.11,99.31,0.0,0.03
1630624038.59974313,107828518,-2.77,-5.85,-15.14,-14.59,88.6,100.45,0.0,0.03
1630624038.69970322,107928478,-2.63,-5.85,-15.28,-14.59,88.93,100.31,0.0,0.02
1630624038.79966331,108028438,-2.12,-5.13,-15.5,-14.74,89.18,99.15,0.0,0.02
1630624038.89962316,108128398,-1.35,-3.83,-15.76,-15.04,89.41,97.25,0.0,0.02
1630624038.99958324,108228358,-0.52,-2.21,-16.0,-15.41,89.62,94.93,0.0,0.02
1630624039.09954333,108328318,0.22,-0.54,-16.18,-15.77,89.83,92.48,0.0,0.02
1630624039.19950318,108428278,0.87,0.95,-16.29,-16.04,90.03,90.2,0.0,0.02
1630624039.29946327,108528238,1.31,2.12,-16.33,-16.2,90.21,88.35,0.0,0.01
1630624039.39942312,108628198,1.51,2.83,-16.33,-16.24,90.36,87.08,0.0,0.01
1630624039.49938321,108728158,1.49,3.08,-16.31,-16.23,90.48,86.45,0.0,0.01
1630624039.60017610,108828951,1.31,2.9,-16.3,-16.2,90.57,86.43,0.0,0.01
1630624039.70013618,108928911,1.02,2.41,-16.32,-16.19,90.64,86.91,0.0,0.01
1630624039.80009627,109028871,0.69,1.72,-16.37,-16.22,90.68,87.77,0.0,0.01
1630624039.90005612,109128831,0.38,0.98,-16.45,-16.31,90.7,88.82,0.0,0.01
1630624040.00001621,109228791,0.12,0.3,-16.53,-16.42,90.72,89.93,0.0,0.01
1630624040.09997630,109328751,-0.07,-0.26,-16.63,-16.54,90.72,90.96,0.0,0.01
1630624040.19993615,109428711,-0.2,-0.67,-16.71,-16.66,90.73,91.79,0.0,0.0
1630624040.29989624,109528671,-0.27,-0.92,-16.75,-16.74,90.73,92.38,0.0,0.0
1630624040.39985633,109628631,-0.28,-1.01,-16.74,-16.77,90.74,92.69,0.0,0.0
1630624040.49981618,109728591,-0.25,-0.96,-16.73,-16.75,90.75,92.74,0.0,0.0
1630624040.59977627,109828551,-0.16,-0.8,-16.76,-16.74,90.77,92.58,0.0,0.0
1630624040.69973612,109928511,-0.04,-0.56,-16.82,-16.77,90.78,92.25,0.0,0.0
1630624040.79969621,110028471,0.07,-0.28,-16.9,-16.84,90.8,91.83,0.0,0.01
1630624040.89965630,110128431,0.21,0.01,-16.97,-16.93,90.81,91.38,0.0,0.01
1630624040.99961615,110228391,0.32,0.28,-17.05,-17.02,90.83,90.97,0.0,0.01
1630624041.09957623,110328351,0.38,0.49,-17.09,-17.09,90.84,90.62,0.0,0.01
1630624041.19953632,110428311,0.41,0.61,-17.11,-17.13,90.86,90.38,0.0,0.01
1630624041.29949617,110528271,0.41,0.66,-17.11,-17.13,90.86,90.25,0.0,0.01
1630624041.39945626,110628231,0.38,0.63,-17.14,-17.13,90.87,90.22,0.0,0.01
1630624041.49941611,110728191,0.31,0.54,-17.17,-17.15,90.86,90.29,0.0,0.01
1630624041.60020924,110828984,0.24,0.39,-17.19,-17.18,90.86,90.42,0.0,0.01
1630624041.70016932,110928944,0.16,0.24,-17.21,-17.2,90.85,90.59,0.0,0.01
1630624041.80012918,111028904,0.11,0.1,-17.21,-17.21,90.83,90.77,0.0,0.01
1630624041.90008926,111128864,0.07,0.0,-17.24,-17.23,90.82,90.93,0.0,0.01
1630624042.00004911,111228824,0.06,-0.06,-17.28,-17.26,90.8,91.07,0.0,0.01
1630624042.10000920,111328784,0.05,-0.09,-17.31,-17.3,90.79,91.15,0.0,0.01
1630624042.19996929,111428744,0.05,-0.1,-17.33,-17.33,90.78,91.19,0.0,0.01
1630624042.29992914,111528704,0.04,-0.1,-17.35,-17.36,90.76,91.19,0.0,0.01
1630624042.39988923,111628664,0.03,-0.09,-17.36,-17.38,90.75,91.15,0.0,0.01
1630624042.49984932,111728624,0.06,-0.05,-17.37,-17.39,90.74,91.07,0.0,0.01
1630624042.59980917,111828584,0.11,0.01,-17.38,-17.4,90.73,90.99,0.0,0.01
1630624042.69976926,111928544,0.13,0.07,-17.41,-17.42,90.71,90.9,0.0,0.01
1630624042.79972911,112028504,0.15,0.12,-17.46,-17.45,90.71,90.81,0.0,0.01
1630624042.89968920,112128464,0.16,0.15,-17.49,-17.5,90.69,90.74,0.0,0.01
1630624042.99964929,112228424,0.19,0.19,-17.51,-17.52,90.68,90.69,0.0,0.01
1630624043.09960914,112328384,0.21,0.22,-17.5,-17.52,90.67,90.65,0.0,0.01
1630624043.19956923,112428344,0.21,0.23,-17.51,-17.52,90.66,90.63,0.0,0.01
1630624043.29952931,112528304,0.21,0.23,-17.55,-17.54,90.65,90.63,0.0,0.01
1630624043.39948916,112628264,0.18,0.21,-17.57,-17.57,90.64,90.64,0.0,0.01
1630624043.49944925,112728224,0.14,0.16,-17.6,-17.6,90.62,90.66,0.0,0.01
1630624043.59940910,112828184,0.11,0.09,-17.61,-17.62,90.61,90.67,0.0,0.01
1630624043.70020223,112928977,0.11,0.04,-17.61,-17.64,90.59,90.69,0.0,0.01
1630624043.80016232,113028937,0.12,0.04,-17.61,-17.64,90.58,90.69,0.0,0.01
1630624043.90012217,113128897,0.14,0.06,-17.63,-17.64,90.57,90.69,0.0,0.01
1630624044.00008225,113228857,0.17,0.09,-17.64,-17.64,90.55,90.69,0.0,0.01
1630624044.10004210,113328817,0.18,0.12,-17.64,-17.65,90.54,90.67,0.0,0.01
1630624044.20000219,113428777,0.16,0.14,-17.65,-17.65,90.53,90.65,0.0,0.01
1630624044.29996228,113528737,0.14,0.13,-17.68,-17.67,90.52,90.64,0.0,0.01
1630624044.39992213,113628697,0.11,0.11,-17.68,-17.69,90.51,90.62,0.0,0.01
1630624044.49988222,113728657,0.1,0.08,-17.68,-17.7,90.5,90.6,0.0,0.0
1630624044.59984231,113828617,0.13,0.08,-17.68,-17.7,90.49,90.58,0.0,0.0
1630624044.69980216,113928577,0.18,0.11,-17.69,-17.7,90.49,90.56,0.0,0.0
1630624044.79976225,114028537,0.21,0.16,-17.69,-17.7,90.48,90.55,0.0,0.0
1630624044.89972210,114128497,0.21,0.19,-17.72,-17.71,90.47,90.54,0.0,0.0
1630624044.99968219,114228457,0.23,0.21,-17.77,-17.74,90.47,90.53,0.0,0.0
1630624045.09964228,114328417,0.24,0.23,-17.8,-17.78,90.46,90.52,0.0,0.0
1630624045.19960213,114428377,0.24,0.23,-17.83,-17.82,90.46,90.51,0.0,0.0
1630624045.29956222,114528337,0.26,0.24,-17.88,-17.86,90.45,90.51,0.0,0.0
1630624045.39952230,114628297,0.25,0.24,-17.9,-17.9,90.45,90.51,0.0,0.0
1630624045.49948215,114728257,0.24,0.23,-17.9,-17.92,90.44,90.51,0.0,0.0
1630624045.59944224,114828217,0.21,0.2,-17.89,-17.92,90.44,90.51,0.0,0.0
1630624045.69940233,114928177,0.19,0.17,-17.87,-17.91,90.44,90.51,0.0,0.0
1630624045.80019522,115028970,0.18,0.15,-17.85,-17.88,90.43,90.51,0.0,0.0
1630624045.90015531,115128930,0.19,0.14,-17.86,-17.87,90.43,90.51,0.0,0.0
1630624046.00011516,115228890,0.2,0.15,-17.88,-17.87,90.42,90.51,0.0,0.0
1630624046.10007524,115328850,0.24,0.18,-17.89,-17.88,90.42,90.5,0.0,0.0
1630624046.20003510,115428810,0.27,0.22,-17.91,-17.9,90.42,90.5,0.0,0.0
1630624046.29999518,115528770,0.28,0.25,-17.93,-17.93,90.41,90.49,0.0,0.0
1630624046.39995527,115628730,0.26,0.25,-17.95,-17.96,90.41,90.48,0.0,0.0
1630624046.49991512,115728690,0.24,0.23,-17.93,-17.96,90.41,90.48,0.0,0.0
1630624046.59987521,115828650,0.24,0.22,-17.93,-17.96,90.41,90.47,0.0,0.0
1630624046.69983530,115928610,0.27,0.23,-17.94,-17.95,90.41,90.47,0.0,0.0
1630624046.79979515,116028570,0.28,0.26,-17.95,-17.96,90.41,90.47,0.0,0.0
1630624046.89975524,116128530,0.26,0.25,-17.98,-17.97,90.41,90.47,0.0,0.0
1630624046.99971533,116228490,0.27,0.25,-18.01,-18.01,90.41,90.47,0.0,0.0
1630624047.09967518,116328450,0.26,0.25,-18.01,-18.03,90.41,90.47,0.0,0.0
1630624047.19963527,116428410,0.24,0.24,-18.0,-18.03,90.41,90.47,0.0,0.0
1630624047.29959512,116528370,0.23,0.21,-18.0,-18.02,90.41,90.47,0.0,0.0
1630624047.39955521,116628330,0.25,0.2,-18.01,-18.02,90.41,90.48,0.0,0.0
1630624047.49951530,116728290,0.27,0.22,-18.0,-18.01,90.41,90.48,0.0,0.0
1630624047.59947515,116828250,0.27,0.23,-18.0,-18.0,90.41,90.48,0.0,0.0
1630624047.69943523,116928210,0.28,0.24,-18.0,-18.0,90.41,90.47,0.0,0.0
1630624047.79939532,117028170,0.28,0.26,-18.02,-18.02,90.41,90.47,0.0,0.0
1630624047.90018821,117128963,0.3,0.27,-18.02,-18.03,90.41,90.47,0.0,0.0
1630624048.00014830,117228923,0.3,0.29,-18.02,-18.02,90.41,90.46,0.0,0.0
1630624048.10010815,117328883,0.31,0.3,-18.05,-18.04,90.41,90.46,0.0,0.0
1630624048.20006824,117428843,0.32,0.31,-18.08,-18.08,90.41,90.46,0.0,0.0
1630624048.30002832,117528803,0.3,0.29,-18.05,-18.08,90.41,90.46,0.0,0.0
1630624048.39998817,117628763,0.29,0.27,-18.04,-18.06,90.41,90.46,0.0,0.0
1630624048.49994826,117728723,0.29,0.26,-18.04,-18.05,90.41,90.46,0.0,0.0
1630624048.59990811,117828683,0.28,0.25,-18.05,-18.05,90.41,90.47,0.0,0.0
1630624048.69986820,117928643,0.27,0.24,-18.07,-18.07,90.41,90.47,0.0,0.0
1630624048.79982829,118028603,0.27,0.24,-18.09,-18.09,90.41,90.46,0.0,0.0
1630624048.89978814,118128563,0.27,0.25,-18.08,-18.11,90.41,90.47,0.0,0.0
1630624048.99974823,118228523,0.29,0.25,-18.06,-18.1,90.41,90.47,0.0,0.0
1630624049.09970832,118328483,0.3,0.27,-18.04,-18.08,90.41,90.47,0.0,0.0
1630624049.19966817,118428443,0.32,0.29,-18.04,-18.06,90.41,90.47,0.0,0.0
1630624049.29962826,118528403,0.31,0.3,-18.05,-18.06,90.41,90.47,0.0,0.0
1630624049.39958811,118628363,0.3,0.29,-18.09,-18.08,90.41,90.47,0.0,0.0
1630624049.49954820,118728323,0.28,0.28,-18.1,-18.11,90.41,90.46,0.0,0.0
1630624049.59950829,118828283,0.26,0.26,-18.1,-18.12,90.41,90.46,0.0,0.0
1630624049.69946814,118928243,0.26,0.24,-18.11,-18.13,90.41,90.46,0.0,0.0
1630624049.79942822,119028203,0.25,0.23,-18.13,-18.15,90.41,90.46,0.0,0.0
1630624049.89938831,119128163,0.22,0.2,-18.15,-18.16,90.4,90.46,0.0,0.0
1630624050.00018120,119228956,0.2,0.17,-18.15,-18.18,90.4,90.45,0.0,0.0
1630624050.10014129,119328916,0.21,0.17,-18.1,-18.15,90.4,90.45,0.0,0.0
1630624050.20010114,119428876,0.27,0.2,-18.06,-18.1,90.4,90.45,0.0,0.0
1630624050.30006123,119528836,0.32,0.26,-18.08,-18.06,90.4,90.45,0.0,0.0
1630624050.40002131,119628796,0.33,0.3,-18.11,-18.08,90.4,90.44,0.0,0.0
1630624050.49998116,119728756,0.33,0.33,-18.11,-18.1,90.4,90.44,0.0,0.0
1630624050.59994125,119828716,0.33,0.33,-18.08,-18.09,90.4,90.44,0.0,0.0
1630624050.69990110,119928676,0.33,0.32,-18.07,-18.07,90.4,90.44,0.0,0.0
1630624050.79986119,120028636,0.34,0.32,-18.08,-18.08,90.41,90.44,0.0,0.0
1630624050.89982128,120128596,0.34,0.33,-18.11,-18.1,90.41,90.45,0.0,0.0
1630624050.99978113,120228556,0.32,0.31,-18.14,-18.14,90.41,90.45,0.0,0.0
1630624051.09974122,120328516,0.31,0.3,-18.16,-18.17,90.41,90.45,0.0,0.0
1630624051.19970131,120428476,0.34,0.3,-18.15,-18.18,90.41,90.45,0.0,0.0
1630624051.29966116,120528436,0.37,0.32,-18.12,-18.16,90.41,90.46,0.0,0.0
1630624051.39962125,120628396,0.4,0.36,-18.11,-18.13,90.42,90.46,0.0,0.0
1630624051.49958110,120728356,0.39,0.37,-18.13,-18.14,90.42,90.46,0.0,0.0
1630624051.59954119,120828316,0.36,0.37,-18.14,-18.15,90.42,90.46,0.0,0.0
1630624051.69950128,120928276,0.36,0.35,-18.14,-18.16,90.43,90.46,0.0,0.0
1630624051.79946113,121028236,0.38,0.35,-18.14,-18.16,90.43,90.47,0.0,0.0
1630624051.89942122,121128196,0.37,0.36,-18.14,-18.16,90.43,90.47,0.0,0.0
1630624051.99938130,121228156,0.34,0.34,-18.13,-18.15,90.44,90.47,0.0,0.0
1630624052.10017419,121328949,0.32,0.31,-18.11,-18.13,90.44,90.47,0.0,0.0
1630624052.20013428,121428909,0.32,0.29,-18.11,-18.12,90.44,90.48,0.0,0.0
1630624052.30009413,121528869,0.33,0.29,-18.11,-18.11,90.44,90.48,0.0,0.0
1630624052.40005422,121628829,0.37,0.32,-18.12,-18.13,90.45,90.48,0.0,0.0
1630624052.50001431,121728789,0.4,0.36,-18.14,-18.14,90.45,90.49,0.0,0.0
1630624052.59997416,121828749,0.42,0.39,-18.16,-18.16,90.45,90.49,0.0,0.0
1630624052.69993424,121928709,0.4,0.4,-18.17,-18.18,90.46,90.49,0.0,0.0
1630624052.79989433,122028669,0.4,0.39,-18.19,-18.2,90.46,90.49,0.0,0.0
1630624052.89985418,122128629,0.38,0.38,-18.21,-18.22,90.46,90.49,0.0,0.0
1630624052.99981427,122228589,0.35,0.35,-18.22,-18.24,90.46,90.5,0.0,0.0
1630624053.09977412,122328549,0.34,0.33,-18.22,-18.25,90.47,90.5,0.0,0.0
1630624053.19973421,122428509,0.36,0.34,-18.18,-18.22,90.47,90.5,0.0,0.0
1630624053.29969430,122528469,0.39,0.36,-18.14,-18.17,90.47,90.5,0.0,0.0
1630624053.39965415,122628429,0.41,0.39,-18.13,-18.14,90.47,90.51,0.0,0.0
1630624053.49961424,122728389,0.41,0.4,-18.16,-18.14,90.47,90.51,0.0,0.0
1630624053.59957433,122828349,0.39,0.39,-18.19,-18.18,90.47,90.51,0.0,0.0
1630624053.69953418,122928309,0.35,0.36,-18.22,-18.21,90.47,90.51,0.0,0.0
1630624053.79949427,123028269,0.31,0.31,-18.23,-18.25,90.47,90.51,0.0,0.0
1630624053.89945412,123128229,0.32,0.28,-18.23,-18.26,90.47,90.51,0.0,0.0
1630624053.99941421,123228189,0.36,0.3,-18.21,-18.25,90.47,90.51,0.0,0.0
1630624054.10020733,123328982,0.38,0.33,-18.21,-18.23,90.47,90.51,0.0,0.0
1630624054.20016718,123428942,0.4,0.37,-18.21,-18.23,90.47,90.51,0.0,0.0
1630624054.30012727,123528902,0.43,0.41,-18.19,-18.21,90.47,90.51,0.0,0.0
1630624054.40008712,123628862,0.48,0.45,-18.2,-18.21,90.47,90.5,0.0,0.0
1630624054.50004721,123728822,0.48,0.48,-18.21,-18.21,90.47,90.5,0.0,0.0
1630624054.60000730,123828782,0.44,0.46,-18.2,-18.21,90.48,90.49,0.0,0.0
1630624054.69996715,123928742,0.4,0.41,-18.19,-18.2,90.48,90.49,0.0,0.0
1630624054.79992723,124028702,0.38,0.37,-18.19,-18.2,90.48,90.5,0.0,0.0
1630624054.89988732,124128662,0.38,0.34,-18.17,-18.19,90.47,90.5,0.0,0.0
1630624054.99984717,124228622,0.4,0.35,-18.17,-18.19,90.47,90.5,0.0,0.0
1630624055.09980726,124328582,0.41,0.36,-18.2,-18.19,90.47,90.5,0.0,0.0
1630624055.19976711,124428542,0.41,0.38,-18.21,-18.21,90.47,90.5,0.0,0.0
1630624055.29972720,124528502,0.42,0.4,-18.19,-18.21,90.47,90.5,0.0,0.0
1630624055.39968729,124628462,0.43,0.42,-18.17,-18.19,90.47,90.5,0.0,0.0
1630624055.49964714,124728422,0.46,0.43,-18.16,-18.17,90.47,90.5,0.0,0.0
1630624055.59960723,124828382,0.5,0.46,-18.15,-18.16,90.48,90.5,0.0,0.0
1630624055.69956732,124928342,0.51,0.49,-18.15,-18.15,90.48,90.51,0.0,0.0
1630624055.79952717,125028302,0.49,0.51,-18.15,-18.15,90.48,90.51,0.0,0.0
1630624055.89948726,125128262,0.48,0.5,-18.16,-18.16,90.48,90.51,0.0,0.0
1630624055.99944711,125228222,0.47,0.48,-18.18,-18.17,90.48,90.5,0.0,0.0
1630624056.09940720,125328182,0.45,0.46,-18.18,-18.19,90.48,90.51,0.0,0.0
1630624056.20020032,125428975,0.42,0.42,-18.17,-18.2,90.48,90.51,0.0,0.0
1630624056.30016017,125528935,0.41,0.39,-18.15,-18.18,90.48,90.51,0.0,0.0
1630624056.40012026,125628895,0.43,0.39,-18.14,-18.16,90.48,90.51,0.0,0.0
1630624056.50008011,125728855,0.47,0.43,-18.13,-18.15,90.47,90.51,0.0,0.0
1630624056.60004020,125828815,0.48,0.47,-18.12,-18.14,90.47,90.5,0.0,0.0
1630624056.70000029,125928775,0.49,0.5,-18.14,-18.13,90.47,90.5,0.0,0.0
1630624056.79996014,126028735,0.49,0.5,-18.16,-18.14,90.47,90.5,0.0,0.0
1630624056.89992023,126128695,0.49,0.5,-18.17,-18.16,90.47,90.49,0.0,0.0
1630624056.99988031,126228655,0.49,0.49,-18.17,-18.17,90.47,90.49,0.0,0.0
1630624057.09984016,126328615,0.49,0.48,-18.18,-18.18,90.47,90.49,0.0,0.0
